hello
CAN logging
Accel logging
Steering logging
Cooling loop logging
b'$GNVTG,,,,,,,,,N*2E' 11-09-43-987
b'$GNGGA,,,,,,0,00,99.99,,,,,,*56' 11-09-44-010
b'$GNVTG,,,,,,,,,N*2E' 11-09-44-032
b'$GNGGA,,,,,,0,00,99.99,,,,,,*56' 11-09-44-054
b'$GNVTG,,,,,,,,,N*2E' 11-09-44-076
b'$GNGGA,,,,,,0,00,99.99,,,,,,*56' 11-09-44-098
b'$GNVTG,,,,,,,,,N*2E' 11-09-44-120
b'$GNGGA,,,,,,0,00,99.99,,,,,,*56' 11-09-44-142
b'$GNVTG,,,,,,,,,N*2E' 11-09-44-170
b'$GNGGA,,,,,,0,00,99.99,,,,,,*56' 11-09-44-194
b'$GNVTG,,,,,,,,,N*2E' 11-09-44-216
b'$GNGGA,,,,,,0,00,99.99,,,,,,*56' 11-09-44-238
b'$GNVTG,,,,,,,,,N*2E' 11-09-44-259
b'$GNGGA,,,,,,0,00,99.99,,,,,,*56' 11-09-44-281
b'$GNVTG,,,,,,,,,N*2E' 11-09-44-302
b'$GNGGA,,,,,,0,00,99.99,,,,,,*56' 11-09-44-324
b'$GNVTG,,,,,,,,,N*2E' 11-09-44-346
b'$GNGGA,,,,,,0,00,99.99,,,,,,*56' 11-09-44-368
b'$GNVTG,,,,,,,,,N*2E' 11-09-44-389
b'$GNGGA,,,,,,0,00,99.99,,,,,,*56' 11-09-44-411
b'$GNVTG,,,,,,,,,N*2E' 11-09-44-432
b'$GNGGA,,,,,,0,00,99.99,,,,,,*56' 11-09-44-454
b'$GNVTG,,,,,,,,,N*2E' 11-09-44-475
b'$GNGGA,,,,,,0,00,99.99,,,,,,*56' 11-09-44-497
b'$GNVTG,,,,,,,,,N*2E' 11-09-44-518
b'$GNGGA,,,,,,0,00,99.99,,,,,,*56' 11-09-44-545
b'$GNVTG,,,,,,,,,N*2E' 11-09-44-569
b'$GNGGA,,,,,,0,00,99.99,,,,,,*56' 11-09-44-597
b'$GNVTG,,,,,,,,,N*2E' 11-09-44-622
b'$GNGGA,,,,,,0,00,99.99,,,,,,*56' 11-09-44-645
b'$GNVTG,,,,,,,,,N*2E' 11-09-44-670
b'$GNGGA,,,,,,0,00,99.99,,,,,,*56' 11-09-44-695
b'$GNVTG,,,,,,,,,N*2E' 11-09-44-719
b'$GNGGA,,,,,,0,00,99.99,,,,,,*56' 11-09-44-744
b'$GNVTG,,,,,,,,,N*2E' 11-09-44-768
b'$GNGGA,,,,,,0,00,99.99,,,,,,*56' 11-09-44-792
b'$GNVTG,,,,,,,,,N*2E' 11-09-44-816
b'$GNGGA,,,,,,0,00,99.99,,,,,,*56' 11-09-44-838
b'$GNVTG,,,,,,,,,N*2E' 11-09-44-860
b'$GNGGA,,,,,,0,00,99.99,,,,,,*56' 11-09-44-882
b'$GNVTG,,,,,,,,,N*2E' 11-09-44-905
b'$GNGGA,,,,,,0,00,99.99,,,,,,*56' 11-09-44-927
b'$GNVTG,,,,,,,,,N*2E' 11-09-44-949
b'$GNGGA,,,,,,0,00,99.99,,,,,,*56' 11-09-44-971
b'$GNVTG,,,,,,,,,N*2E' 11-09-44-993
b'$GNGGA,,,,,,0,00,99.99,,,,,,*56' 11-09-45-015
b'$GNVTG,,,,,,,,,N*2E' 11-09-45-037
b'$GNGGA,,,,,,0,00,99.99,,,,,,*56' 11-09-45-059
b'$GNVTG,,,,,,,,,N*2E' 11-09-45-081
b'$GNGGA,,,,,,0,00,99.99,,,,,,*56' 11-09-45-108
b'$GNVTG,,,,,,,,,N*2E' 11-09-45-131
b'$GNGGA,,,,,,0,00,99.99,,,,,,*56' 11-09-45-157
b'$GNVTG,,,,,,,,,N*2E' 11-09-45-182
b'$GNGGA,,,,,,0,00,99.99,,,,,,*56' 11-09-45-206
b'$GNVTG,,,,,,,,,N*2E' 11-09-45-231
b'$GNGGA,,,,,,0,00,99.99,,,,,,*56' 11-09-45-255
b'$GNVTG,,,,,,,,,N*2E' 11-09-45-279
b'$GNGGA,,,,,,0,00,99.99,,,,,,*56' 11-09-45-304
b'$GNVTG,,,,,,,,,N*2E' 11-09-45-328
b'$GNGGA,,,,,,0,00,99.99,,,,,,*56' 11-09-45-351
b'$GNVTG,,,,,,,,,N*2E' 11-09-45-374
b'$GNGGA,,,,,,0,00,99.99,,,,,,*56' 11-09-45-397
b'$GNVTG,,,,,,,,,N*2E' 11-09-45-418
b'$GNGGA,,,,,,0,00,99.99,,,,,,*56' 11-09-45-441
b'$GNVTG,,,,,,,,,N*2E' 11-09-45-463
b'$GNGGA,,,,,,0,00,99.99,,,,,,*56' 11-09-45-484
b'$GNVTG,,,,,,,,,N*2E' 11-09-45-506
b'$GNGGA,,,,,,0,00,99.99,,,,,,*56' 11-09-45-528
b'$GNVTG,,,,,,,,,N*2E' 11-09-45-550
b'$GNGGA,,,,,,0,00,99.99,,,,,,*56' 11-09-45-572
b'$GNVTG,,,,,,,,,N*2E' 11-09-45-595
b'$GNGGA,,,,,,0,00,99.99,,,,,,*56' 11-09-45-621
b'$GNVTG,,,,,,,,,N*2E' 11-09-45-643
b'$GNGGA,,,,,,0,00,99.99,,,,,,*56' 11-09-45-664
b'$GNVTG,,,,,,,,,N*2E' 11-09-45-686
b'$GNGGA,,,,,,0,00,99.99,,,,,,*56' 11-09-45-707
b'$GNVTG,,,,,,,,,N*2E' 11-09-45-729
b'$GNGGA,,,,,,0,00,99.99,,,,,,*56' 11-09-45-751
b'$GNVTG,,,,,,,,,N*2E' 11-09-45-772
b'$GNGGA,,,,,,0,00,99.99,,,,,,*56' 11-09-45-794
b'$GNVTG,,,,,,,,,N*2E' 11-09-45-815
b'$GNGGA,,,,,,0,00,99.99,,,,,,*56' 11-09-45-837
b'$GNVTG,,,,,,,,,N*2E' 11-09-45-859
b'$GNGGA,,,,,,0,00,99.99,,,,,,*56' 11-09-45-881
b'$GNVTG,,,,,,,,,N*2E' 11-09-45-902
b'$GNGGA,,,,,,0,00,99.99,,,,,,*56' 11-09-45-924
b'$GNVTG,,,,,,,,,N*2E' 11-09-45-945
b'$GNGGA,,,,,,0,00,99.99,,,,,,*56' 11-09-45-970
b'$GNVTG,,,,,,,,,N*2E' 11-09-45-993
b'$GNGGA,,,,,,0,00,99.99,,,,,,*56' 11-09-46-014
b'$GNVTG,,,,,,,,,N*2E' 11-09-46-036
b'$GNGGA,,,,,,0,00,99.99,,,,,,*56' 11-09-46-058
b'$GNVTG,,,,,,,,,N*2E' 11-09-46-079
b'$GNGGA,,,,,,0,00,99.99,,,,,,*56' 11-09-46-101
b'$GNVTG,,,,,,,,,N*2E' 11-09-46-123
b'$GNGGA,,,,,,0,00,99.99,,,,,,*56' 11-09-46-144
b'$GNVTG,,,,,,,,,N*2E' 11-09-46-166
b'$GNGGA,,,,,,0,00,99.99,,,,,,*56' 11-09-46-188
b'$GNVTG,,,,,,,,,N*2E' 11-09-46-209
b'$GNGGA,,,,,,0,00,99.99,,,,,,*56' 11-09-46-231
b'$GNVTG,,,,,,,,,N*2E' 11-09-46-252
b'$GNGGA,,,,,,0,00,99.99,,,,,,*56' 11-09-46-274
b'$GNVTG,,,,,,,,,N*2E' 11-09-46-295
b'$GNGGA,,,,,,0,00,99.99,,,,,,*56' 11-09-46-317
b'$GNVTG,,,,,,,,,N*2E' 11-09-46-339
b'$GNGGA,,,,,,0,00,99.99,,,,,,*56' 11-09-46-360
b'$GNVTG,,,,,,,,,N*2E' 11-09-46-382
b'$GNGGA,,,,,,0,00,99.99,,,,,,*56' 11-09-46-403
b'$GNVTG,,,,,,,,,N*2E' 11-09-46-425
b'$GNGGA,,,,,,0,00,99.99,,,,,,*56' 11-09-46-447
b'$GNVTG,,,,,,,,,N*2E' 11-09-46-468
b'$GNGGA,,,,,,0,00,99.99,,,,,,*56' 11-09-46-490
b'$GNVTG,,,,,,,,,N*2E' 11-09-46-511
b'$GNGGA,,,,,,0,00,99.99,,,,,,*56' 11-09-46-533
b'$GNVTG,,,,,,,,,N*2E' 11-09-46-554
b'$GNGGA,160919.28,,,,,0,00,99.99,,,,,,*74' 11-09-46-577
b'$GNVTG,,,,,,,,,N*2E' 11-09-46-598
b'$GNGGA,160919.33,,,,,0,00,99.99,,,,,,*7E' 11-09-46-620
b'$GNVTG,,,,,,,,,N*2E' 11-09-46-641
b'$GNGGA,160919.38,,,,,0,00,99.99,,,,,,*75' 11-09-46-663
b'$GNVTG,,,,,,,,,N*2E' 11-09-46-685
b'$GNGGA,160919.43,,,,,0,00,99.99,,,,,,*79' 11-09-46-707
b'$GNVTG,,,,,,,,,N*2E' 11-09-46-728
b'$GNGGA,160919.48,,,,,0,00,99.99,,,,,,*72' 11-09-46-750
b'$GNVTG,,,,,,,,,N*2E' 11-09-46-772
b'$GNGGA,160919.55,,,,,0,00,99.99,,,,,,*7E' 11-09-46-794
b'$GNVTG,,,,,,,,,N*2E' 11-09-46-815
b'$GNGGA,160919.60,,,,,0,00,99.99,,,,,,*78' 11-09-46-837
b'$GNVTG,,,,,,,,,N*2E' 11-09-46-859
b'$GNGGA,160919.65,,,,,0,00,99.99,,,,,,*7D' 11-09-46-882
b'$GNVTG,,,,,,,,,N*2E' 11-09-46-905
b'$GNGGA,160919.70,,,,,0,00,99.99,,,,,,*79' 11-09-46-929
b'$GNVTG,,,,,,,,,N*2E' 11-09-46-951
b'$GNGGA,160919.75,,,,,0,00,99.99,,,,,,*7C' 11-09-46-975
b'$GNVTG,,,,,,,,,N*2E' 11-09-46-999
b'$GNGGA,160919.80,,,,,0,00,99.99,,,,,,*76' 11-09-47-022
b'$GNVTG,,,,,,,,,N*2E' 11-09-47-045
b'$GNGGA,160919.85,,,,,0,00,99.99,,,,,,*73' 11-09-47-068
b'$GNVTG,,,,,,,,,N*2E' 11-09-47-090
b'$GNGGA,160919.90,,,,,0,00,99.99,,,,,,*77' 11-09-47-112
b'$GNVTG,,,,,,,,,N*2E' 11-09-47-133
b'$GNGGA,160919.95,,,,,0,00,99.99,,,,,,*72' 11-09-47-155
b'$GNVTG,,,,,,,,,N*2E' 11-09-47-176
b'$GNGGA,160920.00,,,,,0,00,99.99,,,,,,*74' 11-09-47-198
b'$GNVTG,,,,,,,,,N*2E' 11-09-47-220
b'$GNGGA,160920.05,,,,,0,00,99.99,,,,,,*71' 11-09-47-242
b'$GNVTG,,,,,,,,,N*2E' 11-09-47-263
b'$GNGGA,160920.10,,,,,0,00,99.99,,,,,,*75' 11-09-47-285
b'$GNVTG,,,,,,,,,N*2E' 11-09-47-307
b'$GNGGA,160920.15,,,,,0,00,99.99,,,,,,*70' 11-09-47-329
b'$GNVTG,,,,,,,,,N*2E' 11-09-47-351
b'$GNGGA,160920.20,,,,,0,00,99.99,,,,,,*76' 11-09-47-373
b'$GNVTG,,,,,,,,,N*2E' 11-09-47-394
b'$GNGGA,160920.25,,,,,0,00,99.99,,,,,,*73' 11-09-47-416
b'$GNVTG,,,,,,,,,N*2E' 11-09-47-437
b'$GNGGA,160926.30,,,,,0,00,99.99,,,,,,*71' 11-09-47-459
b'$GNVTG,,,,,,,,,N*2E' 11-09-47-481
b'$GNGGA,160926.35,,,,,0,00,99.99,,,,,,*74' 11-09-47-503
b'$GNVTG,,,,,,,,,N*2E' 11-09-47-524
b'$GNGGA,160926.40,,,,,0,00,99.99,,,,,,*76' 11-09-47-546
b'$GNVTG,,,,,,,,,N*2E' 11-09-47-567
b'$GNGGA,160926.45,,,,,0,00,99.99,,,,,,*73' 11-09-47-590
b'$GNVTG,,,,,,,,,N*2E' 11-09-47-611
b'$GNGGA,160926.50,,,,,0,00,99.99,,,,,,*77' 11-09-47-633
b'$GNVTG,,,,,,,,,N*2E' 11-09-47-655
b'$GNGGA,160926.55,,,,,0,00,99.99,,,,,,*72' 11-09-47-677
b'$GNVTG,,,,,,,,,N*2E' 11-09-47-698
b'$GNGGA,160926.60,,,,,0,00,99.99,,,,,,*74' 11-09-47-721
b'$GNVTG,,,,,,,,,N*2E' 11-09-47-742
b'$GNGGA,160926.65,,,,,0,00,99.99,,,,,,*71' 11-09-47-764
b'$GNVTG,,,,,,,,,N*2E' 11-09-47-786
b'$GNGGA,160926.70,,,,,0,00,99.99,,,,,,*75' 11-09-47-808
b'$GNVTG,,,,,,,,,N*2E' 11-09-47-830
b'$GNGGA,160926.75,,,,,0,00,99.99,,,,,,*70' 11-09-47-852
b'$GNVTG,,,,,,,,,N*2E' 11-09-47-879
b'$GNGGA,160926.80,,,,,0,00,99.99,,,,,,*7A' 11-09-47-901
b'$GNVTG,,,,,,,,,N*2E' 11-09-47-929
b'$GNGGA,160926.85,,,,,0,00,99.99,,,,,,*7F' 11-09-47-951
b'$GNVTG,,,,,,,,,N*2E' 11-09-47-979
b'$GNGGA,160926.90,,,,,0,00,99.99,,,,,,*7B' 11-09-48-001
b'$GNVTG,,,,,,,,,N*2E' 11-09-48-032
b'$GNGGA,160926.95,,,,,0,00,99.99,,,,,,*7E' 11-09-48-056
b'$GNVTG,,,,,,,,,N*2E' 11-09-48-080
b'$GNGGA,160927.00,,,,,0,00,99.99,,,,,,*73' 11-09-48-102
b'$GNVTG,,,,,,,,,N*2E' 11-09-48-129
b'$GNGGA,160927.05,,,,,0,00,99.99,,,,,,*76' 11-09-48-151
b'$GNVTG,,,,,,,,,N*2E' 11-09-48-179
b'$GNGGA,160927.10,,,,,0,00,99.99,,,,,,*72' 11-09-48-201
b'$GNVTG,,,,,,,,,N*2E' 11-09-48-229
b'$GNGGA,160927.15,,,,,0,00,99.99,,,,,,*77' 11-09-48-251
b'$GNVTG,,,,,,,,,N*2E' 11-09-48-279
b'$GNGGA,160927.20,,,,,0,00,99.99,,,,,,*71' 11-09-48-301
b'$GNVTG,,,,,,,,,N*2E' 11-09-48-329
b'$GNGGA,160927.25,,,,,0,00,99.99,,,,,,*74' 11-09-48-351
b'$GNVTG,,,,,,,,,N*2E' 11-09-48-379
b'$GNGGA,160927.30,,,,,0,00,99.99,,,,,,*70' 11-09-48-401
b'$GNVTG,,,,,,,,,N*2E' 11-09-48-429
b'$GNGGA,160927.35,,,,,0,00,99.99,,,,,,*75' 11-09-48-451
b'$GNVTG,,,,,,,,,N*2E' 11-09-48-479
b'$GNGGA,160927.40,,,,,0,00,99.99,,,,,,*77' 11-09-48-501
b'$GNVTG,,,,,,,,,N*2E' 11-09-48-529
b'$GNGGA,160927.45,,,,,0,00,99.99,,,,,,*72' 11-09-48-551
b'$GNVTG,,,,,,,,,N*2E' 11-09-48-579
b'$GNGGA,160927.50,,,,,0,00,99.99,,,,,,*76' 11-09-48-601
b'$GNVTG,,,,,,,,,N*2E' 11-09-48-629
b'$GNGGA,160927.55,,,,,0,00,99.99,,,,,,*73' 11-09-48-651
b'$GNVTG,,,,,,,,,N*2E' 11-09-48-679
b'$GNGGA,160927.60,,,,,0,00,99.99,,,,,,*75' 11-09-48-701
b'$GNVTG,,,,,,,,,N*2E' 11-09-48-729
b'$GNGGA,160927.65,,,,,0,00,99.99,,,,,,*70' 11-09-48-751
b'$GNVTG,,,,,,,,,N*2E' 11-09-48-779
b'$GNGGA,160927.70,,,,,0,00,99.99,,,,,,*74' 11-09-48-801
b'$GNVTG,,,,,,,,,N*2E' 11-09-48-829
b'$GNGGA,160927.75,,,,,0,00,99.99,,,,,,*71' 11-09-48-851
b'$GNVTG,,,,,,,,,N*2E' 11-09-48-879
b'$GNGGA,160927.80,,,,,0,00,99.99,,,,,,*7B' 11-09-48-901
b'$GNVTG,,,,,,,,,N*2E' 11-09-48-929
b'$GNGGA,160927.85,,,,,0,00,99.99,,,,,,*7E' 11-09-48-951
b'$GNVTG,,,,,,,,,N*2E' 11-09-48-979
b'$GNGGA,160927.90,,,,,0,00,99.99,,,,,,*7A' 11-09-49-001
b'$GNVTG,,,,,,,,,N*2E' 11-09-49-033
b'$GNGGA,160927.95,,,,,0,00,99.99,,,,,,*7F' 11-09-49-055
b'$GNVTG,,,,,,,,,N*2E' 11-09-49-079
b'$GNGGA,160928.00,,,,,0,00,99.99,,,,,,*7C' 11-09-49-101
b'$GNVTG,,,,,,,,,N*2E' 11-09-49-129
b'$GNGGA,160928.05,,,,,0,00,99.99,,,,,,*79' 11-09-49-153
b'$GNVTG,,,,,,,,,N*2E' 11-09-49-179
b'$GNGGA,160928.10,,,,,0,00,99.99,,,,,,*7D' 11-09-49-201
b'$GNVTG,,,,,,,,,N*2E' 11-09-49-229
b'$GNGGA,160928.15,,,,,0,00,99.99,,,,,,*78' 11-09-49-251
b'$GNVTG,,,,,,,,,N*2E' 11-09-49-279
b'$GNGGA,160928.20,,,,,0,00,99.99,,,,,,*7E' 11-09-49-301
b'$GNVTG,,,,,,,,,N*2E' 11-09-49-329
b'$GNGGA,160928.25,,,,,0,00,99.99,,,,,,*7B' 11-09-49-351
b'$GNVTG,,,,,,,,,N*2E' 11-09-49-379
b'$GNGGA,160928.30,,,,,0,00,99.99,,,,,,*7F' 11-09-49-401
b'$GNVTG,,,,,,,,,N*2E' 11-09-49-429
b'$GNGGA,160928.35,,,,,0,00,99.99,,,,,,*7A' 11-09-49-451
b'$GNVTG,,,,,,,,,N*2E' 11-09-49-479
b'$GNGGA,160928.40,,,,,0,00,99.99,,,,,,*78' 11-09-49-501
b'$GNVTG,,,,,,,,,N*2E' 11-09-49-529
b'$GNGGA,160928.45,,,,,0,00,99.99,,,,,,*7D' 11-09-49-551
b'$GNVTG,,,,,,,,,N*2E' 11-09-49-580
b'$GNGGA,160928.50,,,,,0,00,99.99,,,,,,*79' 11-09-49-602
b'$GNVTG,,,,,,,,,N*2E' 11-09-49-629
b'$GNGGA,160928.55,,,,,0,00,99.99,,,,,,*7C' 11-09-49-651
b'$GNVTG,,,,,,,,,N*2E' 11-09-49-679
b'$GNGGA,160928.60,,,,,0,00,99.99,,,,,,*7A' 11-09-49-701
b'$GNVTG,,,,,,,,,N*2E' 11-09-49-729
b'$GNGGA,160928.65,,,,,0,00,99.99,,,,,,*7F' 11-09-49-751
b'$GNVTG,,,,,,,,,N*2E' 11-09-49-779
b'$GNGGA,160928.70,,,,,0,00,99.99,,,,,,*7B' 11-09-49-801
b'$GNVTG,,,,,,,,,N*2E' 11-09-49-829
b'$GNGGA,160928.75,,,,,0,00,99.99,,,,,,*7E' 11-09-49-851
b'$GNVTG,,,,,,,,,N*2E' 11-09-49-879
b'$GNGGA,160928.80,,,,,0,00,99.99,,,,,,*74' 11-09-49-901
b'$GNVTG,,,,,,,,,N*2E' 11-09-49-929
b'$GNGGA,160928.85,,,,,0,00,99.99,,,,,,*71' 11-09-49-951
b'$GNVTG,,,,,,,,,N*2E' 11-09-49-979
b'$GNGGA,160928.90,,,,,0,00,99.99,,,,,,*75' 11-09-50-001
b'$GNVTG,,,,,,,,,N*2E' 11-09-50-033
b'$GNGGA,160928.95,,,,,0,00,99.99,,,,,,*70' 11-09-50-055
b'$GNVTG,,,,,,,,,N*2E' 11-09-50-079
b'$GNGGA,160929.00,,,,,0,00,99.99,,,,,,*7D' 11-09-50-101
b'$GNVTG,,,,,,,,,N*2E' 11-09-50-129
b'$GNGGA,160929.05,,,,,0,00,99.99,,,,,,*78' 11-09-50-151
b'$GNVTG,,,,,,,,,N*2E' 11-09-50-179
b'$GNGGA,160929.10,,,,,0,00,99.99,,,,,,*7C' 11-09-50-201
b'$GNVTG,,,,,,,,,N*2E' 11-09-50-229
b'$GNGGA,160929.15,,,,,0,00,99.99,,,,,,*79' 11-09-50-251
b'$GNVTG,,,,,,,,,N*2E' 11-09-50-279
b'$GNGGA,160929.20,,,,,0,00,99.99,,,,,,*7F' 11-09-50-301
b'$GNVTG,,,,,,,,,N*2E' 11-09-50-329
b'$GNGGA,160929.25,,,,,0,00,99.99,,,,,,*7A' 11-09-50-351
b'$GNVTG,,,,,,,,,N*2E' 11-09-50-379
b'$GNGGA,160929.30,,,,,0,00,99.99,,,,,,*7E' 11-09-50-401
b'$GNVTG,,,,,,,,,N*2E' 11-09-50-429
b'$GNGGA,160929.35,,,,,0,00,99.99,,,,,,*7B' 11-09-50-451
b'$GNVTG,,,,,,,,,N*2E' 11-09-50-479
b'$GNGGA,160929.40,,,,,0,00,99.99,,,,,,*79' 11-09-50-501
b'$GNVTG,,,,,,,,,N*2E' 11-09-50-529
b'$GNGGA,160929.45,,,,,0,00,99.99,,,,,,*7C' 11-09-50-551
b'$GNVTG,,,,,,,,,N*2E' 11-09-50-579
b'$GNGGA,160929.50,,,,,0,00,99.99,,,,,,*78' 11-09-50-601
b'$GNVTG,,,,,,,,,N*2E' 11-09-50-629
b'$GNGGA,160929.55,,,,,0,00,99.99,,,,,,*7D' 11-09-50-651
b'$GNVTG,,,,,,,,,N*2E' 11-09-50-679
b'$GNGGA,160929.60,,,,,0,00,99.99,,,,,,*7B' 11-09-50-701
b'$GNVTG,,,,,,,,,N*2E' 11-09-50-729
b'$GNGGA,160929.65,,,,,0,00,99.99,,,,,,*7E' 11-09-50-751
b'$GNVTG,,,,,,,,,N*2E' 11-09-50-779
b'$GNGGA,160929.70,,,,,0,00,99.99,,,,,,*7A' 11-09-50-801
b'$GNVTG,,,,,,,,,N*2E' 11-09-50-829
b'$GNGGA,160929.75,,,,,0,00,99.99,,,,,,*7F' 11-09-50-851
b'$GNVTG,,,,,,,,,N*2E' 11-09-50-879
b'$GNGGA,160929.80,,,,,0,00,99.99,,,,,,*75' 11-09-50-901
b'$GNVTG,,,,,,,,,N*2E' 11-09-50-929
b'$GNGGA,160929.85,,,,,0,00,99.99,,,,,,*70' 11-09-50-951
b'$GNVTG,,,,,,,,,N*2E' 11-09-50-979
b'$GNGGA,160929.90,,,,,0,00,99.99,,,,,,*74' 11-09-51-001
b'$GNVTG,,,,,,,,,N*2E' 11-09-51-033
b'$GNGGA,160929.95,,,,,0,00,99.99,,,,,,*71' 11-09-51-055
b'$GNVTG,,,,,,,,,N*2E' 11-09-51-080
b'$GNGGA,160930.00,,,,,0,00,99.99,,,,,,*75' 11-09-51-102
b'$GNVTG,,,,,,,,,N*2E' 11-09-51-129
b'$GNGGA,160930.05,,,,,0,00,99.99,,,,,,*70' 11-09-51-152
b'$GNVTG,,T,,M,0.334,N,0.619,K,A*37' 11-09-51-204
b'$GNGGA,160930.10,4005.68192,N,08814.36416,W,1,04,2.40,231.3,M,-33.2,M,,*74' 11-09-51-227
b'$GNVTG,,T,,M,0.242,N,0.448,K,A*31' 11-09-51-249
b'$GNGGA,160930.15,4005.68192,N,08814.36415,W,1,04,2.40,231.3,M,-33.2,M,,*72' 11-09-51-273
b'$GNVTG,,T,,M,0.117,N,0.218,K,A*31' 11-09-51-295
b'$GNGGA,160930.20,4005.68193,N,08814.36415,W,1,04,2.40,231.4,M,-33.2,M,,*72' 11-09-51-318
b'$GNVTG,,T,,M,0.175,N,0.325,K,A*3A' 11-09-51-340
b'$GNGGA,160930.25,4005.68193,N,08814.36415,W,1,04,2.40,231.4,M,-33.2,M,,*77' 11-09-51-363
b'$GNVTG,,T,,M,0.143,N,0.266,K,A*39' 11-09-51-386
b'$GNGGA,160930.30,4005.68194,N,08814.36415,W,1,04,2.40,231.4,M,-33.2,M,,*74' 11-09-51-410
b'$GNVTG,,T,,M,0.148,N,0.273,K,A*36' 11-09-51-432
b'$GNGGA,160930.35,4005.68193,N,08814.36415,W,1,04,2.40,231.4,M,-33.2,M,,*76' 11-09-51-455
b'$GNVTG,,T,,M,0.079,N,0.147,K,A*31' 11-09-51-481
b'$GNGGA,160930.40,4005.68193,N,08814.36415,W,1,04,2.39,231.4,M,-33.2,M,,*7A' 11-09-51-504
b'$GNVTG,,T,,M,0.026,N,0.048,K,A*35' 11-09-51-531
b'$GNGGA,160930.45,4005.68193,N,08814.36415,W,1,04,2.39,231.4,M,-33.2,M,,*7F' 11-09-51-555
b'$GNVTG,,T,,M,0.137,N,0.253,K,A*3C' 11-09-51-581
b'$GNGGA,160930.50,4005.68193,N,08814.36415,W,1,04,2.39,231.4,M,-33.2,M,,*7B' 11-09-51-604
b'$GNVTG,,T,,M,0.112,N,0.207,K,A*3A' 11-09-51-631
b'$GNGGA,160930.55,4005.68193,N,08814.36415,W,1,04,2.39,231.4,M,-33.2,M,,*7E' 11-09-51-655
b'$GNVTG,,T,,M,0.149,N,0.276,K,A*32' 11-09-51-681
b'$GNGGA,160930.60,4005.68193,N,08814.36415,W,1,04,2.39,231.4,M,-33.2,M,,*78' 11-09-51-705
b'$GNVTG,,T,,M,0.132,N,0.244,K,A*3F' 11-09-51-731
b'$GNGGA,160930.65,4005.68193,N,08814.36415,W,1,04,2.39,231.4,M,-33.2,M,,*7D' 11-09-51-754
b'$GNVTG,,T,,M,0.048,N,0.088,K,A*31' 11-09-51-781
b'$GNGGA,160930.70,4005.68192,N,08814.36416,W,1,04,2.39,231.4,M,-33.2,M,,*7B' 11-09-51-805
b'$GNVTG,,T,,M,0.019,N,0.036,K,A*30' 11-09-51-832
b'$GNGGA,160930.75,4005.68192,N,08814.36416,W,1,04,2.39,231.4,M,-33.2,M,,*7E' 11-09-51-855
b'$GNVTG,,T,,M,0.030,N,0.056,K,A*3D' 11-09-51-881
b'$GNGGA,160930.80,4005.68192,N,08814.36417,W,1,04,2.39,231.4,M,-33.2,M,,*75' 11-09-51-904
b'$GNVTG,,T,,M,0.084,N,0.155,K,A*30' 11-09-51-931
b'$GNGGA,160930.85,4005.68192,N,08814.36417,W,1,04,2.39,231.4,M,-33.2,M,,*70' 11-09-51-955
b'$GNVTG,,T,,M,0.098,N,0.181,K,A*34' 11-09-51-981
b'$GNGGA,160930.90,4005.68192,N,08814.36418,W,1,04,2.39,231.4,M,-33.2,M,,*7B' 11-09-52-005
b'$GNVTG,,T,,M,0.063,N,0.117,K,A*3F' 11-09-52-031
b'$GNGGA,160930.95,4005.68192,N,08814.36418,W,1,04,2.39,231.4,M,-33.2,M,,*7E' 11-09-52-054
b'$GNVTG,,T,,M,0.053,N,0.098,K,A*3A' 11-09-52-085
b'$GNGGA,160931.00,4005.68191,N,08814.36418,W,1,04,2.39,231.4,M,-33.2,M,,*70' 11-09-52-108
b'$GNVTG,,T,,M,0.033,N,0.060,K,A*3B' 11-09-52-132
b'$GNGGA,160931.05,4005.68191,N,08814.36419,W,1,04,2.39,231.4,M,-33.2,M,,*74' 11-09-52-155
b'$GNVTG,,T,,M,0.054,N,0.101,K,A*3C' 11-09-52-181
b'$GNGGA,160931.10,4005.68191,N,08814.36419,W,1,04,2.39,231.4,M,-33.2,M,,*70' 11-09-52-205
b'$GNVTG,,T,,M,0.037,N,0.069,K,A*36' 11-09-52-232
b'$GNGGA,160931.15,4005.68191,N,08814.36419,W,1,04,2.39,231.4,M,-33.2,M,,*75' 11-09-52-255
b'$GNVTG,,T,,M,0.051,N,0.095,K,A*35' 11-09-52-282
b'$GNGGA,160931.20,4005.68191,N,08814.36420,W,1,04,2.39,231.4,M,-33.2,M,,*79' 11-09-52-305
b'$GNVTG,,T,,M,0.059,N,0.109,K,A*39' 11-09-52-331
b'$GNGGA,160931.25,4005.68191,N,08814.36420,W,1,04,2.39,231.5,M,-33.2,M,,*7D' 11-09-52-355
b'$GNVTG,,T,,M,0.044,N,0.082,K,A*37' 11-09-52-381
b'$GNGGA,160931.30,4005.68191,N,08814.36420,W,1,04,2.39,231.5,M,-33.2,M,,*79' 11-09-52-404
b'$GNVTG,,T,,M,0.004,N,0.008,K,A*31' 11-09-52-432
b'$GNGGA,160931.35,4005.68191,N,08814.36420,W,1,04,2.39,231.5,M,-33.2,M,,*7C' 11-09-52-455
b'$GNVTG,,T,,M,0.011,N,0.021,K,A*3E' 11-09-52-481
b'$GNGGA,160931.40,4005.68191,N,08814.36420,W,1,04,2.39,231.5,M,-33.2,M,,*7E' 11-09-52-505
b'$GNVTG,,T,,M,0.024,N,0.044,K,A*3B' 11-09-52-531
b'$GNGGA,160931.45,4005.68191,N,08814.36420,W,1,04,2.39,231.5,M,-33.2,M,,*7B' 11-09-52-555
b'$GNVTG,,T,,M,0.073,N,0.136,K,A*3D' 11-09-52-581
b'$GNGGA,160931.50,4005.68191,N,08814.36420,W,1,04,2.39,231.5,M,-33.2,M,,*7F' 11-09-52-605
b'$GNVTG,,T,,M,0.030,N,0.055,K,A*3E' 11-09-52-632
b'$GNGGA,160931.55,4005.68190,N,08814.36421,W,1,04,2.39,231.5,M,-33.2,M,,*7A' 11-09-52-655
b'$GNVTG,,T,,M,0.038,N,0.071,K,A*30' 11-09-52-681
b'$GNGGA,160931.60,4005.68190,N,08814.36421,W,1,04,2.39,231.5,M,-33.2,M,,*7C' 11-09-52-705
b'$GNVTG,,T,,M,0.044,N,0.082,K,A*37' 11-09-52-732
b'$GNGGA,160931.65,4005.68190,N,08814.36421,W,1,04,2.39,231.5,M,-33.2,M,,*79' 11-09-52-756
b'$GNVTG,,T,,M,0.019,N,0.035,K,A*33' 11-09-52-781
b'$GNGGA,160931.70,4005.68190,N,08814.36422,W,1,04,2.39,231.5,M,-33.2,M,,*7E' 11-09-52-805
b'$GNVTG,,T,,M,0.087,N,0.160,K,A*35' 11-09-52-831
b'$GNGGA,160931.75,4005.68190,N,08814.36421,W,1,04,2.39,231.5,M,-33.2,M,,*78' 11-09-52-855
b'$GNVTG,,T,,M,0.047,N,0.087,K,A*31' 11-09-52-881
b'$GNGGA,160931.80,4005.68190,N,08814.36422,W,1,04,2.39,231.5,M,-33.2,M,,*71' 11-09-52-905
b'$GNVTG,,T,,M,0.111,N,0.205,K,A*3B' 11-09-52-930
b'$GNGGA,160931.85,4005.68190,N,08814.36422,W,1,04,2.39,231.5,M,-33.2,M,,*74' 11-09-52-954
b'$GNVTG,,T,,M,0.066,N,0.123,K,A*3D' 11-09-52-981
b'$GNGGA,160931.90,4005.68189,N,08814.36422,W,1,04,2.39,231.5,M,-33.2,M,,*78' 11-09-53-005
b'$GNVTG,,T,,M,0.017,N,0.031,K,A*39' 11-09-53-031
b'$GNGGA,160931.95,4005.68189,N,08814.36422,W,1,04,2.39,231.5,M,-33.2,M,,*7D' 11-09-53-055
b'$GNVTG,,T,,M,0.045,N,0.083,K,A*37' 11-09-53-084
b'$GNGGA,160932.00,4005.68189,N,08814.36422,W,1,04,2.39,231.5,M,-33.2,M,,*72' 11-09-53-108
b'$GNVTG,,T,,M,0.048,N,0.089,K,A*30' 11-09-53-131
b'$GNGGA,160932.05,4005.68189,N,08814.36422,W,1,04,2.39,231.5,M,-33.2,M,,*77' 11-09-53-155
b'$GNVTG,,T,,M,0.056,N,0.103,K,A*3C' 11-09-53-182
b'$GNGGA,160932.10,4005.68189,N,08814.36422,W,1,04,2.39,231.5,M,-33.2,M,,*73' 11-09-53-205
b'$GNVTG,,T,,M,0.045,N,0.084,K,A*30' 11-09-53-231
b'$GNGGA,160932.15,4005.68189,N,08814.36422,W,1,04,2.39,231.5,M,-33.2,M,,*76' 11-09-53-255
b'$GNVTG,,T,,M,0.059,N,0.108,K,A*38' 11-09-53-282
b'$GNGGA,160932.20,4005.68189,N,08814.36422,W,1,04,2.39,231.5,M,-33.2,M,,*70' 11-09-53-305
b'$GNVTG,,T,,M,0.018,N,0.033,K,A*34' 11-09-53-332
b'$GNGGA,160932.25,4005.68189,N,08814.36422,W,1,04,2.39,231.5,M,-33.2,M,,*75' 11-09-53-355
b'$GNVTG,,T,,M,0.026,N,0.048,K,A*35' 11-09-53-381
b'$GNGGA,160932.30,4005.68189,N,08814.36422,W,1,04,2.39,231.5,M,-33.2,M,,*71' 11-09-53-405
b'$GNVTG,,T,,M,0.020,N,0.038,K,A*34' 11-09-53-431
b'$GNGGA,160932.35,4005.68189,N,08814.36422,W,1,04,2.39,231.5,M,-33.2,M,,*74' 11-09-53-455
b'$GNVTG,,T,,M,0.083,N,0.153,K,A*31' 11-09-53-482
b'$GNGGA,160932.40,4005.68189,N,08814.36422,W,1,04,2.39,231.5,M,-33.2,M,,*76' 11-09-53-506
b'$GNVTG,,T,,M,0.151,N,0.279,K,A*34' 11-09-53-532
b'$GNGGA,160932.45,4005.68189,N,08814.36422,W,1,04,2.39,231.5,M,-33.2,M,,*73' 11-09-53-556
b'$GNVTG,,T,,M,0.026,N,0.048,K,A*35' 11-09-53-581
b'$GNGGA,160932.50,4005.68189,N,08814.36422,W,1,04,2.39,231.5,M,-33.2,M,,*77' 11-09-53-605
b'$GNVTG,,T,,M,0.109,N,0.202,K,A*35' 11-09-53-631
b'$GNGGA,160932.55,4005.68189,N,08814.36423,W,1,04,2.39,231.5,M,-33.2,M,,*73' 11-09-53-655
b'$GNVTG,,T,,M,0.105,N,0.194,K,A*35' 11-09-53-681
b'$GNGGA,160932.60,4005.68188,N,08814.36423,W,1,04,2.39,231.5,M,-33.2,M,,*74' 11-09-53-705
b'$GNVTG,,T,,M,0.048,N,0.088,K,A*31' 11-09-53-731
b'$GNGGA,160932.65,4005.68188,N,08814.36423,W,1,04,2.39,231.5,M,-33.2,M,,*71' 11-09-53-755
b'$GNVTG,,T,,M,0.066,N,0.122,K,A*3C' 11-09-53-782
b'$GNGGA,160932.70,4005.68188,N,08814.36423,W,1,04,2.39,231.5,M,-33.2,M,,*75' 11-09-53-805
b'$GNVTG,,T,,M,0.073,N,0.135,K,A*3E' 11-09-53-830
b'$GNGGA,160932.75,4005.68188,N,08814.36422,W,1,04,2.39,231.5,M,-33.2,M,,*71' 11-09-53-854
b'$GNVTG,,T,,M,0.063,N,0.117,K,A*3F' 11-09-53-882
b'$GNGGA,160932.80,4005.68188,N,08814.36423,W,1,04,2.39,231.5,M,-33.2,M,,*7A' 11-09-53-905
b'$GNVTG,,T,,M,0.079,N,0.147,K,A*31' 11-09-53-931
b'$GNGGA,160932.85,4005.68188,N,08814.36423,W,1,04,2.39,231.5,M,-33.2,M,,*7F' 11-09-53-955
b'$GNVTG,,T,,M,0.050,N,0.093,K,A*32' 11-09-53-982
b'$GNGGA,160932.90,4005.68188,N,08814.36423,W,1,04,2.39,231.5,M,-33.2,M,,*7B' 11-09-54-005
b'$GNVTG,,T,,M,0.036,N,0.067,K,A*39' 11-09-54-031
b'$GNGGA,160932.95,4005.68188,N,08814.36423,W,1,04,2.39,231.5,M,-33.2,M,,*7E' 11-09-54-055
b'$GNVTG,,T,,M,0.054,N,0.099,K,A*3C' 11-09-54-086
b'$GNGGA,160933.00,4005.68188,N,08814.36422,W,1,04,2.39,231.5,M,-33.2,M,,*72' 11-09-54-109
b'$GNVTG,,T,,M,0.056,N,0.104,K,A*3B' 11-09-54-132
b'$GNGGA,160933.05,4005.68188,N,08814.36423,W,1,04,2.39,231.5,M,-33.2,M,,*76' 11-09-54-156
b'$GNVTG,,T,,M,0.104,N,0.193,K,A*33' 11-09-54-181
b'$GNGGA,160933.10,4005.68188,N,08814.36423,W,1,04,2.39,231.5,M,-33.2,M,,*72' 11-09-54-205
b'$GNVTG,,T,,M,0.020,N,0.037,K,A*3B' 11-09-54-232
b'$GNGGA,160933.15,4005.68188,N,08814.36423,W,1,04,2.39,231.5,M,-33.2,M,,*77' 11-09-54-255
b'$GNVTG,,T,,M,0.067,N,0.124,K,A*3B' 11-09-54-282
b'$GNGGA,160933.20,4005.68188,N,08814.36423,W,1,04,2.39,231.5,M,-33.2,M,,*71' 11-09-54-305
b'$GNVTG,,T,,M,0.089,N,0.165,K,A*3E' 11-09-54-331
b'$GNGGA,160933.25,4005.68188,N,08814.36423,W,1,04,2.39,231.5,M,-33.2,M,,*74' 11-09-54-355
b'$GNVTG,,T,,M,0.056,N,0.104,K,A*3B' 11-09-54-382
b'$GNGGA,160933.30,4005.68188,N,08814.36423,W,1,04,2.39,231.5,M,-33.2,M,,*70' 11-09-54-405
b'$GNVTG,,T,,M,0.082,N,0.152,K,A*31' 11-09-54-431
b'$GNGGA,160933.35,4005.68188,N,08814.36423,W,1,04,2.39,231.5,M,-33.2,M,,*75' 11-09-54-455
b'$GNVTG,,T,,M,0.029,N,0.055,K,A*36' 11-09-54-481
b'$GNGGA,160933.40,4005.68188,N,08814.36423,W,1,04,2.39,231.5,M,-33.2,M,,*77' 11-09-54-505
b'$GNVTG,,T,,M,0.014,N,0.026,K,A*3C' 11-09-54-532
b'$GNGGA,160933.45,4005.68188,N,08814.36423,W,1,04,2.39,231.5,M,-33.2,M,,*72' 11-09-54-555
b'$GNVTG,,T,,M,0.025,N,0.047,K,A*39' 11-09-54-581
b'$GNGGA,160933.50,4005.68188,N,08814.36422,W,1,04,2.39,231.5,M,-33.2,M,,*77' 11-09-54-605
b'$GNVTG,,T,,M,0.033,N,0.061,K,A*3A' 11-09-54-631
b'$GNGGA,160933.55,4005.68188,N,08814.36422,W,1,04,2.39,231.5,M,-33.2,M,,*72' 11-09-54-655
b'$GNVTG,,T,,M,0.043,N,0.080,K,A*32' 11-09-54-682
b'$GNGGA,160933.60,4005.68188,N,08814.36422,W,1,04,2.39,231.5,M,-33.2,M,,*74' 11-09-54-705
b'$GNVTG,,T,,M,0.019,N,0.036,K,A*30' 11-09-54-731
b'$GNGGA,160933.65,4005.68188,N,08814.36422,W,1,04,2.39,231.5,M,-33.2,M,,*71' 11-09-54-754
b'$GNVTG,,T,,M,0.027,N,0.051,K,A*3C' 11-09-54-782
b'$GNGGA,160933.70,4005.68188,N,08814.36422,W,1,04,2.39,231.5,M,-33.2,M,,*75' 11-09-54-805
b'$GNVTG,,T,,M,0.073,N,0.135,K,A*3E' 11-09-54-832
b'$GNGGA,160933.75,4005.68188,N,08814.36422,W,1,04,2.39,231.5,M,-33.2,M,,*70' 11-09-54-855
b'$GNVTG,,T,,M,0.036,N,0.066,K,A*38' 11-09-54-882
b'$GNGGA,160933.80,4005.68188,N,08814.36422,W,1,04,2.39,231.5,M,-33.2,M,,*7A' 11-09-54-905
b'$GNVTG,,T,,M,0.028,N,0.052,K,A*30' 11-09-54-931
b'$GNGGA,160933.85,4005.68188,N,08814.36422,W,1,04,2.39,231.5,M,-33.2,M,,*7F' 11-09-54-955
b'$GNVTG,,T,,M,0.061,N,0.114,K,A*3E' 11-09-54-982
b'$GNGGA,160933.90,4005.68188,N,08814.36422,W,1,04,2.39,231.5,M,-33.2,M,,*7B' 11-09-55-005
b'$GNVTG,,T,,M,0.142,N,0.263,K,A*3D' 11-09-55-031
b'$GNGGA,160933.95,4005.68188,N,08814.36422,W,1,04,2.39,231.5,M,-33.2,M,,*7E' 11-09-55-055
b'$GNVTG,,T,,M,0.059,N,0.110,K,A*31' 11-09-55-085
b'$GNGGA,160934.00,4005.68188,N,08814.36422,W,1,04,2.39,231.5,M,-33.2,M,,*75' 11-09-55-109
b'$GNVTG,,T,,M,0.066,N,0.122,K,A*3C' 11-09-55-132
b'$GNGGA,160934.05,4005.68188,N,08814.36422,W,1,04,2.39,231.5,M,-33.2,M,,*70' 11-09-55-155
b'$GNVTG,,T,,M,0.075,N,0.138,K,A*35' 11-09-55-182
b'$GNGGA,160934.10,4005.68188,N,08814.36422,W,1,04,2.39,231.5,M,-33.2,M,,*74' 11-09-55-205
b'$GNVTG,,T,,M,0.108,N,0.201,K,A*37' 11-09-55-231
b'$GNGGA,160934.15,4005.68189,N,08814.36422,W,1,04,2.39,231.5,M,-33.2,M,,*70' 11-09-55-255
b'$GNVTG,,T,,M,0.026,N,0.049,K,A*34' 11-09-55-282
b'$GNGGA,160934.20,4005.68189,N,08814.36422,W,1,04,2.39,231.5,M,-33.2,M,,*76' 11-09-55-305
b'$GNVTG,,T,,M,0.089,N,0.165,K,A*3E' 11-09-55-332
b'$GNGGA,160934.25,4005.68189,N,08814.36422,W,1,04,2.39,231.5,M,-33.2,M,,*73' 11-09-55-355
b'$GNVTG,,T,,M,0.097,N,0.181,K,A*3B' 11-09-55-381
b'$GNGGA,160934.30,4005.68189,N,08814.36422,W,1,04,2.39,231.5,M,-33.2,M,,*77' 11-09-55-405
b'$GNVTG,,T,,M,0.063,N,0.116,K,A*3E' 11-09-55-432
b'$GNGGA,160934.35,4005.68189,N,08814.36422,W,1,04,2.39,231.5,M,-33.2,M,,*72' 11-09-55-455
b'$GNVTG,,T,,M,0.128,N,0.238,K,A*3F' 11-09-55-482
b'$GNGGA,160934.40,4005.68189,N,08814.36421,W,1,04,2.39,231.5,M,-33.2,M,,*73' 11-09-55-506
b'$GNVTG,,T,,M,0.032,N,0.060,K,A*3A' 11-09-55-532
b'$GNGGA,160934.45,4005.68189,N,08814.36421,W,1,04,2.39,231.5,M,-33.2,M,,*76' 11-09-55-555
b'$GNVTG,,T,,M,0.129,N,0.238,K,A*3E' 11-09-55-582
b'$GNGGA,160934.50,4005.68189,N,08814.36421,W,1,04,2.39,231.5,M,-33.2,M,,*72' 11-09-55-606
b'$GNVTG,,T,,M,0.197,N,0.365,K,A*32' 11-09-55-631
b'$GNGGA,160934.55,4005.68189,N,08814.36421,W,1,04,2.39,231.5,M,-33.2,M,,*77' 11-09-55-654
b'$GNVTG,,T,,M,0.078,N,0.144,K,A*33' 11-09-55-682
b'$GNGGA,160934.60,4005.68189,N,08814.36421,W,1,04,2.39,231.5,M,-33.2,M,,*71' 11-09-55-706
b'$GNVTG,,T,,M,0.086,N,0.159,K,A*3E' 11-09-55-732
b'$GNGGA,160934.65,4005.68189,N,08814.36421,W,1,04,2.39,231.5,M,-33.2,M,,*74' 11-09-55-755
b'$GNVTG,,T,,M,0.094,N,0.173,K,A*35' 11-09-55-782
b'$GNGGA,160934.70,4005.68189,N,08814.36421,W,1,04,2.39,231.5,M,-33.2,M,,*70' 11-09-55-805
b'$GNVTG,,T,,M,0.073,N,0.135,K,A*3E' 11-09-55-832
b'$GNGGA,160934.75,4005.68189,N,08814.36421,W,1,04,2.39,231.5,M,-33.2,M,,*75' 11-09-55-855
b'$GNVTG,,T,,M,0.062,N,0.115,K,A*3C' 11-09-55-882
b'$GNGGA,160934.80,4005.68189,N,08814.36421,W,1,04,2.39,231.5,M,-33.2,M,,*7F' 11-09-55-905
b'$GNVTG,,T,,M,0.128,N,0.236,K,A*31' 11-09-55-932
b'$GNGGA,160934.85,4005.68189,N,08814.36421,W,1,04,2.39,231.5,M,-33.2,M,,*7A' 11-09-55-955
b'$GNVTG,,T,,M,0.063,N,0.117,K,A*3F' 11-09-55-982
b'$GNGGA,160934.90,4005.68189,N,08814.36421,W,1,04,2.39,231.5,M,-33.2,M,,*7E' 11-09-56-005
b'$GNVTG,,T,,M,0.123,N,0.228,K,A*35' 11-09-56-032
b'$GNGGA,160934.95,4005.68189,N,08814.36421,W,1,04,2.39,231.5,M,-33.2,M,,*7B' 11-09-56-056
b'$GNVTG,,T,,M,0.090,N,0.167,K,A*34' 11-09-56-085
b'$GNGGA,160935.00,4005.68190,N,08814.36421,W,1,04,2.39,231.5,M,-33.2,M,,*7E' 11-09-56-109
b'$GNVTG,,T,,M,0.065,N,0.121,K,A*3C' 11-09-56-132
b'$GNGGA,160935.05,4005.68190,N,08814.36421,W,1,04,2.39,231.5,M,-33.2,M,,*7B' 11-09-56-157
b'$GNVTG,,T,,M,0.036,N,0.066,K,A*38' 11-09-56-182
b'$GNGGA,160935.10,4005.68190,N,08814.36421,W,1,04,2.39,231.5,M,-33.2,M,,*7F' 11-09-56-206
b'$GNVTG,,T,,M,0.127,N,0.235,K,A*3D' 11-09-56-232
b'$GNGGA,160935.15,4005.68189,N,08814.36421,W,1,04,2.39,231.5,M,-33.2,M,,*72' 11-09-56-256
b'$GNVTG,,T,,M,0.058,N,0.107,K,A*36' 11-09-56-282
b'$GNGGA,160935.20,4005.68189,N,08814.36421,W,1,04,2.39,231.5,M,-33.2,M,,*74' 11-09-56-306
b'$GNVTG,,T,,M,0.086,N,0.159,K,A*3E' 11-09-56-332
b'$GNGGA,160935.25,4005.68190,N,08814.36421,W,1,04,2.39,231.5,M,-33.2,M,,*79' 11-09-56-355
b'$GNVTG,,T,,M,0.099,N,0.183,K,A*37' 11-09-56-382
b'$GNGGA,160935.30,4005.68190,N,08814.36421,W,1,04,2.39,231.5,M,-33.2,M,,*7D' 11-09-56-406
b'$GNVTG,,T,,M,0.012,N,0.023,K,A*3F' 11-09-56-432
b'$GNGGA,160935.35,4005.68190,N,08814.36421,W,1,04,2.39,231.5,M,-33.2,M,,*78' 11-09-56-455
b'$GNVTG,,T,,M,0.018,N,0.034,K,A*33' 11-09-56-482
b'$GNGGA,160935.40,4005.68190,N,08814.36421,W,1,04,2.39,231.5,M,-33.2,M,,*7A' 11-09-56-506
b'$GNVTG,,T,,M,0.092,N,0.170,K,A*30' 11-09-56-531
b'$GNGGA,160935.45,4005.68190,N,08814.36421,W,1,04,2.39,231.5,M,-33.2,M,,*7F' 11-09-56-555
b'$GNVTG,,T,,M,0.071,N,0.131,K,A*38' 11-09-56-582
b'$GNGGA,160935.50,4005.68190,N,08814.36421,W,1,04,2.39,231.5,M,-33.2,M,,*7B' 11-09-56-606
b'$GNVTG,,T,,M,0.057,N,0.105,K,A*3B' 11-09-56-632
b'$GNGGA,160935.55,4005.68190,N,08814.36421,W,1,04,2.39,231.5,M,-33.2,M,,*7E' 11-09-56-655
b'$GNVTG,,T,,M,0.045,N,0.083,K,A*37' 11-09-56-682
b'$GNGGA,160935.60,4005.68190,N,08814.36421,W,1,04,2.39,231.5,M,-33.2,M,,*78' 11-09-56-705
b'$GNVTG,,T,,M,0.060,N,0.112,K,A*39' 11-09-56-731
b'$GNGGA,160935.65,4005.68190,N,08814.36421,W,1,04,2.39,231.5,M,-33.2,M,,*7D' 11-09-56-755
b'$GNVTG,,T,,M,0.031,N,0.058,K,A*32' 11-09-56-782
b'$GNGGA,160935.70,4005.68190,N,08814.36421,W,1,04,2.39,231.5,M,-33.2,M,,*79' 11-09-56-806
b'$GNVTG,,T,,M,0.031,N,0.058,K,A*32' 11-09-56-832
b'$GNGGA,160935.75,4005.68190,N,08814.36421,W,1,04,2.39,231.4,M,-33.2,M,,*7D' 11-09-56-855
b'$GNVTG,,T,,M,0.135,N,0.251,K,A*3C' 11-09-56-882
b'$GNGGA,160935.80,4005.68190,N,08814.36421,W,1,04,2.39,231.4,M,-33.2,M,,*77' 11-09-56-906
b'$GNVTG,,T,,M,0.093,N,0.172,K,A*33' 11-09-56-932
b'$GNGGA,160935.85,4005.68190,N,08814.36421,W,1,04,2.39,231.4,M,-33.2,M,,*72' 11-09-56-956
b'$GNVTG,,T,,M,0.038,N,0.071,K,A*30' 11-09-56-982
b'$GNGGA,160935.90,4005.68190,N,08814.36421,W,1,04,2.39,231.5,M,-33.2,M,,*77' 11-09-57-007
b'$GNVTG,,T,,M,0.077,N,0.143,K,A*3B' 11-09-57-032
b'$GNGGA,160935.95,4005.68190,N,08814.36421,W,1,04,2.39,231.5,M,-33.2,M,,*72' 11-09-57-056
b'$GNVTG,,T,,M,0.105,N,0.194,K,A*35' 11-09-57-087
b'$GNGGA,160936.00,4005.68190,N,08814.36421,W,1,04,2.39,231.5,M,-33.2,M,,*7D' 11-09-57-112
b'$GNVTG,,T,,M,0.042,N,0.077,K,A*3B' 11-09-57-136
b'$GNGGA,160936.05,4005.68190,N,08814.36421,W,1,04,2.39,231.5,M,-33.2,M,,*78' 11-09-57-161
b'$GNVTG,,T,,M,0.159,N,0.294,K,A*3F' 11-09-57-183
b'$GNGGA,160936.10,4005.68190,N,08814.36421,W,1,04,2.39,231.5,M,-33.2,M,,*7C' 11-09-57-209
b'$GNVTG,,T,,M,0.075,N,0.138,K,A*35' 11-09-57-233
b'$GNGGA,160936.15,4005.68190,N,08814.36421,W,1,04,2.39,231.4,M,-33.2,M,,*78' 11-09-57-258
b'$GNVTG,,T,,M,0.119,N,0.220,K,A*34' 11-09-57-282
b'$GNGGA,160936.20,4005.68190,N,08814.36421,W,1,04,2.39,231.4,M,-33.2,M,,*7E' 11-09-57-307
b'$GNVTG,,T,,M,0.073,N,0.136,K,A*3D' 11-09-57-332
b'$GNGGA,160936.25,4005.68190,N,08814.36421,W,1,04,2.39,231.5,M,-33.2,M,,*7A' 11-09-57-355
b'$GNVTG,,T,,M,0.056,N,0.103,K,A*3C' 11-09-57-382
b'$GNGGA,160936.30,4005.68190,N,08814.36421,W,1,04,2.39,231.4,M,-33.2,M,,*7F' 11-09-57-406
b'$GNVTG,,T,,M,0.108,N,0.200,K,A*36' 11-09-57-431
b'$GNGGA,160936.35,4005.68190,N,08814.36421,W,1,04,2.39,231.4,M,-33.2,M,,*7A' 11-09-57-454
b'$GNVTG,,T,,M,0.045,N,0.084,K,A*30' 11-09-57-482
b'$GNGGA,160936.40,4005.68190,N,08814.36421,W,1,04,2.39,231.4,M,-33.2,M,,*78' 11-09-57-506
b'$GNVTG,,T,,M,0.072,N,0.132,K,A*38' 11-09-57-532
b'$GNGGA,160936.45,4005.68190,N,08814.36421,W,1,04,2.39,231.4,M,-33.2,M,,*7D' 11-09-57-555
b'$GNVTG,,T,,M,0.115,N,0.212,K,A*39' 11-09-57-582
b'$GNGGA,160936.50,4005.68190,N,08814.36421,W,1,04,2.39,231.4,M,-33.2,M,,*79' 11-09-57-606
b'$GNVTG,,T,,M,0.021,N,0.039,K,A*34' 11-09-57-632
b'$GNGGA,160936.55,4005.68190,N,08814.36421,W,1,04,2.39,231.4,M,-33.2,M,,*7C' 11-09-57-655
b'$GNVTG,,T,,M,0.037,N,0.069,K,A*36' 11-09-57-682
b'$GNGGA,160936.60,4005.68190,N,08814.36421,W,1,04,2.39,231.5,M,-33.2,M,,*7B' 11-09-57-706
b'$GNVTG,,T,,M,0.111,N,0.206,K,A*38' 11-09-57-732
b'$GNGGA,160936.65,4005.68190,N,08814.36420,W,1,04,2.39,231.4,M,-33.2,M,,*7E' 11-09-57-755
b'$GNVTG,,T,,M,0.152,N,0.282,K,A*33' 11-09-57-782
b'$GNGGA,160936.70,4005.68191,N,08814.36420,W,1,04,2.39,231.4,M,-33.2,M,,*7B' 11-09-57-806
b'$GNVTG,,T,,M,0.062,N,0.115,K,A*3C' 11-09-57-832
b'$GNGGA,160936.75,4005.68191,N,08814.36420,W,1,04,2.39,231.4,M,-33.2,M,,*7E' 11-09-57-856
b'$GNVTG,,T,,M,0.073,N,0.135,K,A*3E' 11-09-57-882
b'$GNGGA,160936.80,4005.68190,N,08814.36420,W,1,04,2.39,231.4,M,-33.2,M,,*75' 11-09-57-906
b'$GNVTG,,T,,M,0.094,N,0.173,K,A*35' 11-09-57-932
b'$GNGGA,160936.85,4005.68190,N,08814.36421,W,1,04,2.39,231.4,M,-33.2,M,,*71' 11-09-57-955
b'$GNVTG,,T,,M,0.148,N,0.274,K,A*31' 11-09-57-982
b'$GNGGA,160936.90,4005.68190,N,08814.36421,W,1,04,2.39,231.4,M,-33.2,M,,*75' 11-09-58-005
b'$GNVTG,,T,,M,0.038,N,0.070,K,A*31' 11-09-58-032
b'$GNGGA,160936.95,4005.68190,N,08814.36420,W,1,04,2.39,231.4,M,-33.2,M,,*71' 11-09-58-055
b'$GNVTG,,T,,M,0.041,N,0.076,K,A*39' 11-09-58-085
b'$GNGGA,160937.00,4005.68190,N,08814.36420,W,1,04,2.39,231.4,M,-33.2,M,,*7C' 11-09-58-109
b'$GNVTG,,T,,M,0.070,N,0.130,K,A*38' 11-09-58-132
b'$GNGGA,160937.05,4005.68190,N,08814.36420,W,1,04,2.39,231.4,M,-33.2,M,,*79' 11-09-58-156
b'$GNVTG,,T,,M,0.074,N,0.137,K,A*3B' 11-09-58-182
b'$GNGGA,160937.10,4005.68191,N,08814.36420,W,1,04,2.39,231.4,M,-33.2,M,,*7C' 11-09-58-206
b'$GNVTG,,T,,M,0.128,N,0.238,K,A*3F' 11-09-58-232
b'$GNGGA,160937.15,4005.68191,N,08814.36420,W,1,04,2.39,231.4,M,-33.2,M,,*79' 11-09-58-255
b'$GNVTG,,T,,M,0.020,N,0.038,K,A*34' 11-09-58-282
b'$GNGGA,160937.20,4005.68191,N,08814.36420,W,1,04,2.39,231.4,M,-33.2,M,,*7F' 11-09-58-305
b'$GNVTG,,T,,M,0.093,N,0.173,K,A*32' 11-09-58-331
b'$GNGGA,160937.25,4005.68190,N,08814.36420,W,1,04,2.39,231.5,M,-33.2,M,,*7A' 11-09-58-355
b'$GNVTG,,T,,M,0.072,N,0.134,K,A*3E' 11-09-58-382
b'$GNGGA,160937.30,4005.68191,N,08814.36420,W,1,04,2.39,231.4,M,-33.2,M,,*7E' 11-09-58-406
b'$GNVTG,,T,,M,0.067,N,0.123,K,A*3C' 11-09-58-432
b'$GNGGA,160937.35,4005.68191,N,08814.36420,W,1,04,2.39,231.4,M,-33.2,M,,*7B' 11-09-58-455
b'$GNVTG,,T,,M,0.064,N,0.119,K,A*36' 11-09-58-482
b'$GNGGA,160937.40,4005.68191,N,08814.36420,W,1,04,2.39,231.4,M,-33.2,M,,*79' 11-09-58-505
b'$GNVTG,,T,,M,0.082,N,0.151,K,A*32' 11-09-58-531
b'$GNGGA,160937.45,4005.68190,N,08814.36420,W,1,04,2.39,231.4,M,-33.2,M,,*7D' 11-09-58-554
b'$GNVTG,,T,,M,0.100,N,0.185,K,A*30' 11-09-58-582
b'$GNGGA,160937.50,4005.68191,N,08814.36419,W,1,04,2.39,231.4,M,-33.2,M,,*72' 11-09-58-604
b'$GNVTG,,T,,M,0.054,N,0.099,K,A*3C' 11-09-58-631
b'$GNGGA,160937.55,4005.68191,N,08814.36419,W,1,04,2.39,231.5,M,-33.2,M,,*76' 11-09-58-655
b'$GNVTG,,T,,M,0.064,N,0.119,K,A*36' 11-09-58-681
b'$GNGGA,160937.60,4005.68191,N,08814.36419,W,1,04,2.39,231.5,M,-33.2,M,,*70' 11-09-58-704
b'$GNVTG,,T,,M,0.055,N,0.101,K,A*3D' 11-09-58-731
b'$GNGGA,160937.65,4005.68191,N,08814.36419,W,1,04,2.39,231.4,M,-33.2,M,,*74' 11-09-58-755
b'$GNVTG,,T,,M,0.039,N,0.072,K,A*32' 11-09-58-781
b'$GNGGA,160937.70,4005.68191,N,08814.36419,W,1,04,2.39,231.4,M,-33.2,M,,*70' 11-09-58-806
b'$GNVTG,,T,,M,0.039,N,0.073,K,A*33' 11-09-58-832
b'$GNGGA,160937.75,4005.68191,N,08814.36419,W,1,04,2.39,231.4,M,-33.2,M,,*75' 11-09-58-856
b'$GNVTG,,T,,M,0.055,N,0.102,K,A*3E' 11-09-58-882
b'$GNGGA,160937.80,4005.68191,N,08814.36419,W,1,04,2.39,231.5,M,-33.2,M,,*7E' 11-09-58-908
b'$GNVTG,,T,,M,0.108,N,0.199,K,A*35' 11-09-58-932
b'$GNGGA,160937.85,4005.68191,N,08814.36419,W,1,04,2.39,231.4,M,-33.2,M,,*7A' 11-09-58-957
b'$GNVTG,,T,,M,0.190,N,0.351,K,A*32' 11-09-58-982
b'$GNGGA,160937.90,4005.68192,N,08814.36418,W,1,04,2.39,231.4,M,-33.2,M,,*7C' 11-09-59-006
b'$GNVTG,,T,,M,0.144,N,0.266,K,A*3E' 11-09-59-032
b'$GNGGA,160937.95,4005.68191,N,08814.36419,W,1,04,2.39,231.5,M,-33.2,M,,*7A' 11-09-59-055
b'$GNVTG,,T,,M,0.018,N,0.033,K,A*34' 11-09-59-086
b'$GNGGA,160938.00,4005.68191,N,08814.36418,W,1,04,2.39,231.5,M,-33.2,M,,*78' 11-09-59-109
b'$GNVTG,,T,,M,0.063,N,0.116,K,A*3E' 11-09-59-132
b'$GNGGA,160938.05,4005.68191,N,08814.36418,W,1,04,2.39,231.5,M,-33.2,M,,*7D' 11-09-59-155
b'$GNVTG,,T,,M,0.051,N,0.094,K,A*34' 11-09-59-188
b'$GNGGA,160938.10,4005.68191,N,08814.36418,W,1,04,2.39,231.5,M,-33.2,M,,*79' 11-09-59-212
b'$GNVTG,,T,,M,0.033,N,0.062,K,A*39' 11-09-59-234
b'$GNGGA,160938.15,4005.68191,N,08814.36418,W,1,04,2.39,231.4,M,-33.2,M,,*7D' 11-09-59-257
b'$GNVTG,,T,,M,0.046,N,0.086,K,A*31' 11-09-59-284
b'$GNGGA,160938.20,4005.68191,N,08814.36418,W,1,04,2.39,231.5,M,-33.2,M,,*7A' 11-09-59-307
b'$GNVTG,,T,,M,0.076,N,0.141,K,A*38' 11-09-59-334
b'$GNGGA,160938.25,4005.68191,N,08814.36418,W,1,04,2.39,231.5,M,-33.2,M,,*7F' 11-09-59-357
b'$GNVTG,,T,,M,0.093,N,0.172,K,A*33' 11-09-59-384
b'$GNGGA,160938.30,4005.68191,N,08814.36418,W,1,04,2.39,231.5,M,-33.2,M,,*7B' 11-09-59-407
b'$GNVTG,,T,,M,0.007,N,0.013,K,A*38' 11-09-59-434
b'$GNGGA,160938.35,4005.68191,N,08814.36418,W,1,04,2.39,231.5,M,-33.2,M,,*7E' 11-09-59-457
b'$GNVTG,,T,,M,0.060,N,0.111,K,A*3A' 11-09-59-484
b'$GNGGA,160938.40,4005.68191,N,08814.36418,W,1,04,2.39,231.4,M,-33.2,M,,*7D' 11-09-59-508
b'$GNVTG,,T,,M,0.090,N,0.167,K,A*34' 11-09-59-533
b'$GNGGA,160938.45,4005.68191,N,08814.36418,W,1,04,2.39,231.5,M,-33.2,M,,*79' 11-09-59-557
b'$GNVTG,,T,,M,0.063,N,0.117,K,A*3F' 11-09-59-584
b'$GNGGA,160938.50,4005.68191,N,08814.36418,W,1,04,2.39,231.5,M,-33.2,M,,*7D' 11-09-59-607
b'$GNVTG,,T,,M,0.149,N,0.275,K,A*31' 11-09-59-634
b'$GNGGA,160938.55,4005.68192,N,08814.36417,W,1,04,2.39,231.4,M,-33.2,M,,*75' 11-09-59-658
b'$GNVTG,,T,,M,0.015,N,0.027,K,A*3C' 11-09-59-684
b'$GNGGA,160938.60,4005.68192,N,08814.36417,W,1,04,2.39,231.4,M,-33.2,M,,*73' 11-09-59-707
b'$GNVTG,,T,,M,0.118,N,0.218,K,A*3E' 11-09-59-733
b'$GNGGA,160938.65,4005.68191,N,08814.36417,W,1,04,2.39,231.4,M,-33.2,M,,*75' 11-09-59-756
b'$GNVTG,,T,,M,0.042,N,0.077,K,A*3B' 11-09-59-784
b'$GNGGA,160938.70,4005.68192,N,08814.36417,W,1,04,2.39,231.4,M,-33.2,M,,*72' 11-09-59-808
b'$GNVTG,,T,,M,0.066,N,0.122,K,A*3C' 11-09-59-833
b'$GNGGA,160938.75,4005.68192,N,08814.36417,W,1,04,2.39,231.4,M,-33.2,M,,*77' 11-09-59-857
b'$GNVTG,,T,,M,0.177,N,0.328,K,A*35' 11-09-59-884
b'$GNGGA,160938.80,4005.68192,N,08814.36416,W,1,04,2.39,231.5,M,-33.2,M,,*7D' 11-09-59-906
b'$GNVTG,,T,,M,0.043,N,0.080,K,A*32' 11-09-59-934
b'$GNGGA,160938.85,4005.68192,N,08814.36416,W,1,04,2.39,231.4,M,-33.2,M,,*79' 11-09-59-957
b'$GNVTG,,T,,M,0.085,N,0.157,K,A*33' 11-09-59-983
b'$GNGGA,160938.90,4005.68192,N,08814.36416,W,1,04,2.39,231.4,M,-33.2,M,,*7D' 11-10-00-007
b'$GNVTG,,T,,M,0.080,N,0.149,K,A*39' 11-10-00-033
b'$GNGGA,160938.95,4005.68192,N,08814.36416,W,1,04,2.39,231.4,M,-33.2,M,,*78' 11-10-00-056
b'$GNVTG,,T,,M,0.042,N,0.078,K,A*34' 11-10-00-087
b'$GNGGA,160939.00,4005.68192,N,08814.36416,W,1,04,2.39,231.4,M,-33.2,M,,*75' 11-10-00-110
b'$GNVTG,,T,,M,0.110,N,0.204,K,A*3B' 11-10-00-133
b'$GNGGA,160939.05,4005.68192,N,08814.36416,W,1,04,2.39,231.4,M,-33.2,M,,*70' 11-10-00-156
b'$GNVTG,,T,,M,0.113,N,0.208,K,A*34' 11-10-00-184
b'$GNGGA,160939.10,4005.68192,N,08814.36416,W,1,04,2.39,231.4,M,-33.2,M,,*74' 11-10-00-207
b'$GNVTG,,T,,M,0.038,N,0.069,K,A*39' 11-10-00-234
b'$GNGGA,160939.15,4005.68192,N,08814.36416,W,1,04,2.39,231.4,M,-33.2,M,,*71' 11-10-00-257
b'$GNVTG,,T,,M,0.146,N,0.270,K,A*3B' 11-10-00-284
b'$GNGGA,160939.20,4005.68192,N,08814.36416,W,1,04,2.39,231.4,M,-33.2,M,,*77' 11-10-00-307
b'$GNVTG,,T,,M,0.120,N,0.223,K,A*3D' 11-10-00-333
b'$GNGGA,160939.25,4005.68192,N,08814.36416,W,1,04,2.39,231.4,M,-33.2,M,,*72' 11-10-00-357
b'$GNVTG,,T,,M,0.062,N,0.114,K,A*3D' 11-10-00-384
b'$GNGGA,160939.30,4005.68192,N,08814.36415,W,1,04,2.39,231.4,M,-33.2,M,,*75' 11-10-00-408
b'$GNVTG,,T,,M,0.035,N,0.064,K,A*39' 11-10-00-433
b'$GNGGA,160939.35,4005.68192,N,08814.36415,W,1,04,2.39,231.4,M,-33.2,M,,*70' 11-10-00-457
b'$GNVTG,,T,,M,0.147,N,0.272,K,A*38' 11-10-00-484
b'$GNGGA,160939.40,4005.68193,N,08814.36415,W,1,04,2.39,231.4,M,-33.2,M,,*73' 11-10-00-508
b'$GNVTG,,T,,M,0.109,N,0.201,K,A*36' 11-10-00-534
b'$GNGGA,160939.45,4005.68193,N,08814.36415,W,1,04,2.39,231.4,M,-33.2,M,,*76' 11-10-00-557
b'$GNVTG,,T,,M,0.023,N,0.044,K,A*3C' 11-10-00-584
b'$GNGGA,160939.50,4005.68192,N,08814.36415,W,1,04,2.39,231.4,M,-33.2,M,,*73' 11-10-00-607
b'$GNVTG,,T,,M,0.079,N,0.146,K,A*30' 11-10-00-633
b'$GNGGA,160939.55,4005.68192,N,08814.36415,W,1,04,2.39,231.4,M,-33.2,M,,*76' 11-10-00-656
b'$GNVTG,,T,,M,0.065,N,0.120,K,A*3D' 11-10-00-684
b'$GNGGA,160939.60,4005.68192,N,08814.36415,W,1,04,2.39,231.4,M,-33.2,M,,*70' 11-10-00-707
b'$GNVTG,,T,,M,0.092,N,0.170,K,A*30' 11-10-00-733
b'$GNGGA,160939.65,4005.68193,N,08814.36414,W,1,04,2.39,231.4,M,-33.2,M,,*75' 11-10-00-757
b'$GNVTG,,T,,M,0.051,N,0.095,K,A*35' 11-10-00-784
b'$GNGGA,160939.70,4005.68192,N,08814.36414,W,1,04,2.39,231.4,M,-33.2,M,,*70' 11-10-00-807
b'$GNVTG,,T,,M,0.055,N,0.102,K,A*3E' 11-10-00-834
b'$GNGGA,160939.75,4005.68192,N,08814.36414,W,1,04,2.39,231.4,M,-33.2,M,,*75' 11-10-00-857
b'$GNVTG,,T,,M,0.096,N,0.179,K,A*3D' 11-10-00-884
b'$GNGGA,160939.80,4005.68193,N,08814.36414,W,1,04,2.39,231.4,M,-33.2,M,,*7E' 11-10-00-907
b'$GNVTG,,T,,M,0.064,N,0.118,K,A*37' 11-10-00-933
b'$GNGGA,160939.85,4005.68193,N,08814.36414,W,1,04,2.39,231.4,M,-33.2,M,,*7B' 11-10-00-957
b'$GNVTG,,T,,M,0.053,N,0.099,K,A*3B' 11-10-00-984
b'$GNGGA,160939.90,4005.68192,N,08814.36414,W,1,04,2.39,231.4,M,-33.2,M,,*7E' 11-10-01-007
b'$GNVTG,,T,,M,0.034,N,0.062,K,A*3E' 11-10-01-033
b'$GNGGA,160939.95,4005.68192,N,08814.36414,W,1,04,2.39,231.4,M,-33.2,M,,*7B' 11-10-01-056
b'$GNVTG,,T,,M,0.062,N,0.115,K,A*3C' 11-10-01-088
b'$GNGGA,160940.00,4005.68192,N,08814.36414,W,1,04,2.39,231.4,M,-33.2,M,,*79' 11-10-01-111
b'$GNVTG,,T,,M,0.054,N,0.100,K,A*3D' 11-10-01-134
b'$GNGGA,160940.05,4005.68193,N,08814.36414,W,1,04,2.39,231.4,M,-33.2,M,,*7D' 11-10-01-157
b'$GNVTG,,T,,M,0.053,N,0.098,K,A*3A' 11-10-01-190
b'$GNGGA,160940.10,4005.68192,N,08814.36414,W,1,09,1.24,231.4,M,-33.2,M,,*7A' 11-10-01-213
b'$GNVTG,,T,,M,0.074,N,0.136,K,A*3A' 11-10-01-236
b'$GNGGA,160940.15,4005.68192,N,08814.36414,W,1,09,1.24,231.4,M,-33.2,M,,*7F' 11-10-01-259
b'$GNVTG,,T,,M,0.066,N,0.122,K,A*3C' 11-10-01-286
b'$GNGGA,160940.20,4005.68192,N,08814.36414,W,1,09,1.24,231.4,M,-33.2,M,,*79' 11-10-01-311
b'$GNVTG,,T,,M,0.060,N,0.110,K,A*3B' 11-10-01-336
b'$GNGGA,160940.25,4005.68191,N,08814.36414,W,1,09,1.24,231.4,M,-33.2,M,,*7F' 11-10-01-360
b'$GNVTG,,T,,M,0.047,N,0.087,K,A*31' 11-10-01-386
b'$GNGGA,160940.30,4005.68190,N,08814.36415,W,1,09,1.24,231.4,M,-33.2,M,,*7B' 11-10-01-408
b'$GNVTG,,T,,M,0.032,N,0.059,K,A*30' 11-10-01-436
b'$GNGGA,160940.35,4005.68190,N,08814.36416,W,1,09,1.24,231.4,M,-33.2,M,,*7D' 11-10-01-460
b'$GNVTG,,T,,M,0.022,N,0.041,K,A*38' 11-10-01-486
b'$GNGGA,160940.40,4005.68189,N,08814.36416,W,1,09,1.24,231.4,M,-33.2,M,,*77' 11-10-01-510
b'$GNVTG,,T,,M,0.077,N,0.142,K,A*3A' 11-10-01-536
b'$GNGGA,160940.45,4005.68188,N,08814.36416,W,1,09,1.24,231.4,M,-33.2,M,,*73' 11-10-01-560
b'$GNVTG,,T,,M,0.055,N,0.102,K,A*3E' 11-10-01-586
b'$GNGGA,160940.50,4005.68188,N,08814.36416,W,1,09,1.24,231.4,M,-33.2,M,,*77' 11-10-01-610
b'$GNVTG,,T,,M,0.165,N,0.305,K,A*39' 11-10-01-636
b'$GNGGA,160940.55,4005.68187,N,08814.36417,W,1,09,1.24,231.5,M,-33.2,M,,*7D' 11-10-01-660
b'$GNVTG,,T,,M,0.104,N,0.193,K,A*33' 11-10-01-686
b'$GNGGA,160940.60,4005.68186,N,08814.36417,W,1,09,1.24,231.5,M,-33.2,M,,*7A' 11-10-01-709
b'$GNVTG,,T,,M,0.116,N,0.214,K,A*3C' 11-10-01-736
b'$GNGGA,160940.65,4005.68186,N,08814.36418,W,1,09,1.24,231.5,M,-33.2,M,,*70' 11-10-01-760
b'$GNVTG,,T,,M,0.058,N,0.108,K,A*39' 11-10-01-785
b'$GNGGA,160940.70,4005.68185,N,08814.36418,W,1,09,1.24,231.5,M,-33.2,M,,*77' 11-10-01-809
b'$GNVTG,,T,,M,0.015,N,0.027,K,A*3C' 11-10-01-835
b'$GNGGA,160940.75,4005.68184,N,08814.36418,W,1,09,1.24,231.5,M,-33.2,M,,*73' 11-10-01-859
b'$GNVTG,,T,,M,0.054,N,0.100,K,A*3D' 11-10-01-885
b'$GNGGA,160940.80,4005.68184,N,08814.36418,W,1,09,1.24,231.5,M,-33.2,M,,*79' 11-10-01-909
b'$GNVTG,,T,,M,0.040,N,0.074,K,A*3A' 11-10-01-934
b'$GNGGA,160940.85,4005.68183,N,08814.36419,W,1,09,1.24,231.5,M,-33.2,M,,*7A' 11-10-01-958
b'$GNVTG,,T,,M,0.014,N,0.026,K,A*3C' 11-10-01-985
b'$GNGGA,160940.90,4005.68183,N,08814.36419,W,1,09,1.24,231.5,M,-33.2,M,,*7E' 11-10-02-009
b'$GNVTG,,T,,M,0.026,N,0.047,K,A*3A' 11-10-02-036
b'$GNGGA,160940.95,4005.68182,N,08814.36419,W,1,09,1.24,231.5,M,-33.2,M,,*7A' 11-10-02-058
b'$GNVTG,,T,,M,0.054,N,0.099,K,A*3C' 11-10-02-089
b'$GNGGA,160941.00,4005.68182,N,08814.36419,W,1,09,1.24,231.5,M,-33.2,M,,*77' 11-10-02-112
b'$GNVTG,,T,,M,0.021,N,0.039,K,A*34' 11-10-02-136
b'$GNGGA,160941.05,4005.68181,N,08814.36420,W,1,09,1.24,231.5,M,-33.2,M,,*7B' 11-10-02-160
b'$GNVTG,,T,,M,0.087,N,0.161,K,A*34' 11-10-02-187
b'$GNGGA,160941.10,4005.68181,N,08814.36420,W,1,09,1.24,231.5,M,-33.2,M,,*7F' 11-10-02-210
b'$GNVTG,,T,,M,0.101,N,0.187,K,A*33' 11-10-02-236
b'$GNGGA,160941.15,4005.68180,N,08814.36420,W,1,09,1.24,231.5,M,-33.2,M,,*7B' 11-10-02-259
b'$GNVTG,,T,,M,0.014,N,0.025,K,A*3F' 11-10-02-286
b'$GNGGA,160941.20,4005.68179,N,08814.36420,W,1,09,1.24,231.5,M,-33.2,M,,*7B' 11-10-02-310
b'$GNVTG,,T,,M,0.080,N,0.148,K,A*38' 11-10-02-337
b'$GNGGA,160941.25,4005.68178,N,08814.36421,W,1,09,1.24,231.5,M,-33.2,M,,*7E' 11-10-02-359
b'$GNVTG,,T,,M,0.069,N,0.128,K,A*39' 11-10-02-386
b'$GNGGA,160941.30,4005.68178,N,08814.36421,W,1,09,1.24,231.6,M,-33.2,M,,*79' 11-10-02-410
b'$GNVTG,,T,,M,0.079,N,0.147,K,A*31' 11-10-02-436
b'$GNGGA,160941.35,4005.68177,N,08814.36422,W,1,09,1.24,231.6,M,-33.2,M,,*70' 11-10-02-460
b'$GNVTG,,T,,M,0.043,N,0.079,K,A*34' 11-10-02-486
b'$GNGGA,160941.40,4005.68177,N,08814.36422,W,1,09,1.24,231.6,M,-33.2,M,,*72' 11-10-02-510
b'$GNVTG,,T,,M,0.053,N,0.099,K,A*3B' 11-10-02-536
b'$GNGGA,160941.45,4005.68176,N,08814.36422,W,1,09,1.24,231.6,M,-33.2,M,,*76' 11-10-02-559
b'$GNVTG,,T,,M,0.069,N,0.128,K,A*39' 11-10-02-586
b'$GNGGA,160941.50,4005.68176,N,08814.36422,W,1,09,1.24,231.6,M,-33.2,M,,*72' 11-10-02-610
b'$GNVTG,,T,,M,0.064,N,0.118,K,A*37' 11-10-02-636
b'$GNGGA,160941.55,4005.68175,N,08814.36422,W,1,09,1.24,231.6,M,-33.2,M,,*74' 11-10-02-660
b'$GNVTG,,T,,M,0.055,N,0.102,K,A*3E' 11-10-02-686
b'$GNGGA,160941.60,4005.68175,N,08814.36423,W,1,09,1.24,231.6,M,-33.2,M,,*73' 11-10-02-710
b'$GNVTG,,T,,M,0.042,N,0.078,K,A*34' 11-10-02-736
b'$GNGGA,160941.65,4005.68174,N,08814.36423,W,1,09,1.24,231.6,M,-33.2,M,,*77' 11-10-02-760
b'$GNVTG,,T,,M,0.023,N,0.042,K,A*3A' 11-10-02-786
b'$GNGGA,160941.70,4005.68174,N,08814.36423,W,1,09,1.24,231.6,M,-33.2,M,,*73' 11-10-02-810
b'$GNVTG,,T,,M,0.036,N,0.066,K,A*38' 11-10-02-835
b'$GNGGA,160941.75,4005.68173,N,08814.36423,W,1,09,1.24,231.6,M,-33.2,M,,*71' 11-10-02-857
b'$GNVTG,,T,,M,0.026,N,0.047,K,A*3A' 11-10-02-886
b'$GNGGA,160941.80,4005.68173,N,08814.36423,W,1,09,1.24,231.6,M,-33.2,M,,*7B' 11-10-02-910
b'$GNVTG,,T,,M,0.069,N,0.127,K,A*36' 11-10-02-936
b'$GNGGA,160941.85,4005.68173,N,08814.36423,W,1,09,1.24,231.6,M,-33.2,M,,*7E' 11-10-02-959
b'$GNVTG,,T,,M,0.075,N,0.139,K,A*34' 11-10-02-986
b'$GNGGA,160941.90,4005.68173,N,08814.36424,W,1,09,1.24,231.6,M,-33.2,M,,*7D' 11-10-03-009
b'$GNVTG,,T,,M,0.045,N,0.084,K,A*30' 11-10-03-036
b'$GNGGA,160941.95,4005.68172,N,08814.36424,W,1,09,1.24,231.6,M,-33.2,M,,*79' 11-10-03-059
b'$GNVTG,,T,,M,0.083,N,0.153,K,A*31' 11-10-03-090
b'$GNGGA,160942.00,4005.68172,N,08814.36424,W,1,09,1.24,231.6,M,-33.2,M,,*76' 11-10-03-114
b'$GNVTG,,T,,M,0.071,N,0.132,K,A*3B' 11-10-03-137
b'$GNGGA,160942.05,4005.68171,N,08814.36424,W,1,09,1.24,231.6,M,-33.2,M,,*70' 11-10-03-159
b'$GNVTG,,T,,M,0.033,N,0.060,K,A*3B' 11-10-03-187
b'$GNGGA,160942.10,4005.68171,N,08814.36424,W,1,09,1.24,231.6,M,-33.2,M,,*74' 11-10-03-210
b'$GNVTG,,T,,M,0.097,N,0.180,K,A*3A' 11-10-03-237
b'$GNGGA,160942.15,4005.68171,N,08814.36424,W,1,09,1.24,231.6,M,-33.2,M,,*71' 11-10-03-259
b'$GNVTG,,T,,M,0.032,N,0.060,K,A*3A' 11-10-03-287
b'$GNGGA,160942.20,4005.68171,N,08814.36424,W,1,09,1.24,231.6,M,-33.2,M,,*77' 11-10-03-310
b'$GNVTG,,T,,M,0.058,N,0.108,K,A*39' 11-10-03-336
b'$GNGGA,160942.25,4005.68170,N,08814.36425,W,1,09,1.24,231.6,M,-33.2,M,,*72' 11-10-03-359
b'$GNVTG,,T,,M,0.033,N,0.061,K,A*3A' 11-10-03-387
b'$GNGGA,160942.30,4005.68170,N,08814.36425,W,1,09,1.24,231.6,M,-33.2,M,,*76' 11-10-03-411
b'$GNVTG,,T,,M,0.022,N,0.042,K,A*3B' 11-10-03-436
b'$GNGGA,160942.35,4005.68170,N,08814.36425,W,1,09,1.24,231.6,M,-33.2,M,,*73' 11-10-03-459
b'$GNVTG,,T,,M,0.018,N,0.033,K,A*34' 11-10-03-486
b'$GNGGA,160942.40,4005.68170,N,08814.36425,W,1,09,1.24,231.7,M,-33.2,M,,*70' 11-10-03-510
b'$GNVTG,,T,,M,0.046,N,0.085,K,A*32' 11-10-03-537
b'$GNGGA,160942.45,4005.68169,N,08814.36425,W,1,09,1.24,231.7,M,-33.2,M,,*7D' 11-10-03-560
b'$GNVTG,,T,,M,0.042,N,0.078,K,A*34' 11-10-03-586
b'$GNGGA,160942.50,4005.68169,N,08814.36425,W,1,09,1.24,231.7,M,-33.2,M,,*79' 11-10-03-610
b'$GNVTG,,T,,M,0.087,N,0.162,K,A*37' 11-10-03-636
b'$GNGGA,160942.55,4005.68169,N,08814.36425,W,1,09,1.24,231.7,M,-33.2,M,,*7C' 11-10-03-659
b'$GNVTG,,T,,M,0.037,N,0.069,K,A*36' 11-10-03-687
b'$GNGGA,160942.60,4005.68168,N,08814.36425,W,1,09,1.24,231.7,M,-33.2,M,,*7B' 11-10-03-709
b'$GNVTG,,T,,M,0.020,N,0.037,K,A*3B' 11-10-03-735
b'$GNGGA,160942.65,4005.68168,N,08814.36425,W,1,09,1.24,231.7,M,-33.2,M,,*7E' 11-10-03-758
b'$GNVTG,,T,,M,0.012,N,0.022,K,A*3E' 11-10-03-786
b'$GNGGA,160942.70,4005.68168,N,08814.36425,W,1,09,1.24,231.7,M,-33.2,M,,*7A' 11-10-03-810
b'$GNVTG,,T,,M,0.067,N,0.125,K,A*3A' 11-10-03-837
b'$GNGGA,160942.75,4005.68168,N,08814.36425,W,1,09,1.24,231.7,M,-33.2,M,,*7F' 11-10-03-860
b'$GNVTG,,T,,M,0.030,N,0.056,K,A*3D' 11-10-03-886
b'$GNGGA,160942.80,4005.68168,N,08814.36426,W,1,09,1.24,231.7,M,-33.2,M,,*76' 11-10-03-910
b'$GNVTG,,T,,M,0.076,N,0.141,K,A*38' 11-10-03-936
b'$GNGGA,160942.85,4005.68167,N,08814.36426,W,1,09,1.24,231.7,M,-33.2,M,,*7C' 11-10-03-960
b'$GNVTG,,T,,M,0.056,N,0.103,K,A*3C' 11-10-03-987
b'$GNGGA,160942.90,4005.68167,N,08814.36426,W,1,09,1.24,231.7,M,-33.2,M,,*78' 11-10-04-009
b'$GNVTG,,T,,M,0.027,N,0.050,K,A*3D' 11-10-04-036
b'$GNGGA,160942.95,4005.68167,N,08814.36426,W,1,09,1.24,231.7,M,-33.2,M,,*7D' 11-10-04-060
b'$GNVTG,,T,,M,0.014,N,0.026,K,A*3C' 11-10-04-090
b'$GNGGA,160943.00,4005.68167,N,08814.36426,W,1,09,1.24,231.7,M,-33.2,M,,*70' 11-10-04-112
b'$GNVTG,,T,,M,0.024,N,0.044,K,A*3B' 11-10-04-137
b'$GNGGA,160943.05,4005.68167,N,08814.36426,W,1,09,1.24,231.7,M,-33.2,M,,*75' 11-10-04-160
b'$GNVTG,,T,,M,0.058,N,0.107,K,A*36' 11-10-04-187
b'$GNGGA,160943.10,4005.68166,N,08814.36426,W,1,09,1.24,231.7,M,-33.2,M,,*70' 11-10-04-210
b'$GNVTG,,T,,M,0.025,N,0.047,K,A*39' 11-10-04-236
b'$GNGGA,160943.15,4005.68166,N,08814.36426,W,1,09,1.24,231.7,M,-33.2,M,,*75' 11-10-04-260
b'$GNVTG,,T,,M,0.037,N,0.069,K,A*36' 11-10-04-287
b'$GNGGA,160943.20,4005.68166,N,08814.36426,W,1,09,1.24,231.7,M,-33.2,M,,*73' 11-10-04-309
b'$GNVTG,,T,,M,0.033,N,0.061,K,A*3A' 11-10-04-336
b'$GNGGA,160943.25,4005.68166,N,08814.36426,W,1,09,1.24,231.7,M,-33.2,M,,*76' 11-10-04-360
b'$GNVTG,,T,,M,0.037,N,0.068,K,A*37' 11-10-04-386
b'$GNGGA,160943.30,4005.68166,N,08814.36426,W,1,09,1.24,231.7,M,-33.2,M,,*72' 11-10-04-409
b'$GNVTG,,T,,M,0.057,N,0.106,K,A*38' 11-10-04-437
b'$GNGGA,160943.35,4005.68165,N,08814.36426,W,1,09,1.24,231.7,M,-33.2,M,,*74' 11-10-04-460
b'$GNVTG,,T,,M,0.052,N,0.096,K,A*35' 11-10-04-486
b'$GNGGA,160943.40,4005.68165,N,08814.36427,W,1,09,1.24,231.7,M,-33.2,M,,*77' 11-10-04-509
b'$GNVTG,,T,,M,0.004,N,0.008,K,A*31' 11-10-04-536
b'$GNGGA,160943.45,4005.68165,N,08814.36427,W,1,09,1.24,231.7,M,-33.2,M,,*72' 11-10-04-560
b'$GNVTG,,T,,M,0.042,N,0.077,K,A*3B' 11-10-04-587
b'$GNGGA,160943.50,4005.68165,N,08814.36427,W,1,09,1.24,231.7,M,-33.2,M,,*76' 11-10-04-610
b'$GNVTG,,T,,M,0.046,N,0.086,K,A*31' 11-10-04-635
b'$GNGGA,160943.55,4005.68165,N,08814.36427,W,1,09,1.24,231.7,M,-33.2,M,,*73' 11-10-04-659
b'$GNVTG,,T,,M,0.059,N,0.110,K,A*31' 11-10-04-686
b'$GNGGA,160943.60,4005.68165,N,08814.36427,W,1,09,1.24,231.7,M,-33.2,M,,*75' 11-10-04-710
b'$GNVTG,,T,,M,0.054,N,0.100,K,A*3D' 11-10-04-737
b'$GNGGA,160943.65,4005.68164,N,08814.36427,W,1,09,1.24,231.7,M,-33.2,M,,*71' 11-10-04-760
b'$GNVTG,,T,,M,0.040,N,0.074,K,A*3A' 11-10-04-786
b'$GNGGA,160943.70,4005.68164,N,08814.36427,W,1,09,1.24,231.7,M,-33.2,M,,*75' 11-10-04-810
b'$GNVTG,,T,,M,0.125,N,0.231,K,A*3B' 11-10-04-836
b'$GNGGA,160943.75,4005.68164,N,08814.36427,W,1,09,1.24,231.7,M,-33.2,M,,*70' 11-10-04-859
b'$GNVTG,,T,,M,0.048,N,0.089,K,A*30' 11-10-04-886
b'$GNGGA,160943.80,4005.68164,N,08814.36427,W,1,09,1.24,231.7,M,-33.2,M,,*7A' 11-10-04-910
b'$GNVTG,,T,,M,0.040,N,0.075,K,A*3B' 11-10-04-937
b'$GNGGA,160943.85,4005.68164,N,08814.36427,W,1,09,1.24,231.7,M,-33.2,M,,*7F' 11-10-04-960
b'$GNVTG,,T,,M,0.061,N,0.113,K,A*39' 11-10-04-986
b'$GNGGA,160943.90,4005.68164,N,08814.36427,W,1,09,1.24,231.7,M,-33.2,M,,*7B' 11-10-05-010
b'$GNVTG,,T,,M,0.046,N,0.086,K,A*31' 11-10-05-037
b'$GNGGA,160943.95,4005.68164,N,08814.36427,W,1,09,1.24,231.7,M,-33.2,M,,*7E' 11-10-05-059
b'$GNVTG,,T,,M,0.017,N,0.032,K,A*3A' 11-10-05-090
b'$GNGGA,160944.00,4005.68163,N,08814.36427,W,1,09,1.24,231.7,M,-33.2,M,,*72' 11-10-05-113
b'$GNVTG,,T,,M,0.027,N,0.050,K,A*3D' 11-10-05-137
b'$GNGGA,160944.05,4005.68163,N,08814.36427,W,1,09,1.24,231.7,M,-33.2,M,,*77' 11-10-05-161
b'$GNVTG,,T,,M,0.024,N,0.044,K,A*3B' 11-10-05-187
b'$GNGGA,160944.10,4005.68163,N,08814.36427,W,1,09,1.24,231.7,M,-33.2,M,,*73' 11-10-05-211
b'$GNVTG,,T,,M,0.062,N,0.115,K,A*3C' 11-10-05-236
b'$GNGGA,160944.15,4005.68163,N,08814.36427,W,1,09,1.24,231.7,M,-33.2,M,,*76' 11-10-05-259
b'$GNVTG,,T,,M,0.069,N,0.128,K,A*39' 11-10-05-286
b'$GNGGA,160944.20,4005.68163,N,08814.36427,W,1,09,1.24,231.7,M,-33.2,M,,*70' 11-10-05-310
b'$GNVTG,,T,,M,0.025,N,0.046,K,A*38' 11-10-05-337
b'$GNGGA,160944.25,4005.68163,N,08814.36427,W,1,09,1.24,231.7,M,-33.2,M,,*75' 11-10-05-360
b'$GNVTG,,T,,M,0.024,N,0.044,K,A*3B' 11-10-05-387
b'$GNGGA,160944.30,4005.68163,N,08814.36427,W,1,09,1.24,231.7,M,-33.2,M,,*71' 11-10-05-412
b'$GNVTG,,T,,M,0.051,N,0.094,K,A*34' 11-10-05-437
b'$GNGGA,160944.35,4005.68163,N,08814.36427,W,1,09,1.24,231.7,M,-33.2,M,,*74' 11-10-05-460
b'$GNVTG,,T,,M,0.035,N,0.065,K,A*38' 11-10-05-487
b'$GNGGA,160944.40,4005.68162,N,08814.36427,W,1,09,1.24,231.7,M,-33.2,M,,*77' 11-10-05-510
b'$GNVTG,,T,,M,0.069,N,0.127,K,A*36' 11-10-05-536
b'$GNGGA,160944.45,4005.68162,N,08814.36427,W,1,09,1.24,231.7,M,-33.2,M,,*72' 11-10-05-559
b'$GNVTG,,T,,M,0.049,N,0.091,K,A*38' 11-10-05-586
b'$GNGGA,160944.50,4005.68162,N,08814.36427,W,1,09,1.24,231.7,M,-33.2,M,,*76' 11-10-05-610
b'$GNVTG,,T,,M,0.047,N,0.087,K,A*31' 11-10-05-637
b'$GNGGA,160944.55,4005.68162,N,08814.36427,W,1,09,1.24,231.7,M,-33.2,M,,*73' 11-10-05-660
b'$GNVTG,,T,,M,0.042,N,0.078,K,A*34' 11-10-05-686
b'$GNGGA,160944.60,4005.68162,N,08814.36427,W,1,09,1.24,231.7,M,-33.2,M,,*75' 11-10-05-710
b'$GNVTG,,T,,M,0.012,N,0.022,K,A*3E' 11-10-05-737
b'$GNGGA,160944.65,4005.68162,N,08814.36427,W,1,09,1.24,231.7,M,-33.2,M,,*70' 11-10-05-760
b'$GNVTG,,T,,M,0.019,N,0.036,K,A*30' 11-10-05-787
b'$GNGGA,160944.70,4005.68162,N,08814.36427,W,1,09,1.24,231.7,M,-33.2,M,,*74' 11-10-05-810
b'$GNVTG,,T,,M,0.035,N,0.064,K,A*39' 11-10-05-837
b'$GNGGA,160944.75,4005.68162,N,08814.36427,W,1,09,1.24,231.7,M,-33.2,M,,*71' 11-10-05-860
b'$GNVTG,,T,,M,0.027,N,0.050,K,A*3D' 11-10-05-886
b'$GNGGA,160944.80,4005.68162,N,08814.36427,W,1,09,1.24,231.7,M,-33.2,M,,*7B' 11-10-05-910
b'$GNVTG,,T,,M,0.005,N,0.010,K,A*39' 11-10-05-937
b'$GNGGA,160944.85,4005.68162,N,08814.36427,W,1,09,1.24,231.7,M,-33.2,M,,*7E' 11-10-05-960
b'$GNVTG,,T,,M,0.033,N,0.062,K,A*39' 11-10-05-987
b'$GNGGA,160944.90,4005.68162,N,08814.36428,W,1,09,1.24,231.7,M,-33.2,M,,*75' 11-10-06-010
b'$GNVTG,,T,,M,0.036,N,0.066,K,A*38' 11-10-06-037
b'$GNGGA,160944.95,4005.68162,N,08814.36427,W,1,09,1.24,231.7,M,-33.2,M,,*7F' 11-10-06-060
b'$GNVTG,,T,,M,0.011,N,0.021,K,A*3E' 11-10-06-090
b'$GNGGA,160945.00,4005.68162,N,08814.36427,W,1,09,1.24,231.7,M,-33.2,M,,*72' 11-10-06-114
b'$GNVTG,,T,,M,0.044,N,0.081,K,A*34' 11-10-06-137
b'$GNGGA,160945.05,4005.68161,N,08814.36427,W,1,09,1.24,231.7,M,-33.2,M,,*74' 11-10-06-160
b'$GNVTG,,T,,M,0.052,N,0.096,K,A*35' 11-10-06-187
b'$GNGGA,160945.10,4005.68161,N,08814.36427,W,1,09,1.24,231.7,M,-33.2,M,,*70' 11-10-06-210
b'$GNVTG,,T,,M,0.078,N,0.144,K,A*33' 11-10-06-237
b'$GNGGA,160945.15,4005.68161,N,08814.36427,W,1,09,1.24,231.7,M,-33.2,M,,*75' 11-10-06-260
b'$GNVTG,,T,,M,0.034,N,0.063,K,A*3F' 11-10-06-287
b'$GNGGA,160945.20,4005.68161,N,08814.36427,W,1,09,1.24,231.7,M,-33.2,M,,*73' 11-10-06-310
b'$GNVTG,,T,,M,0.053,N,0.097,K,A*35' 11-10-06-337
b'$GNGGA,160945.25,4005.68161,N,08814.36427,W,1,09,1.24,231.7,M,-33.2,M,,*76' 11-10-06-360
b'$GNVTG,,T,,M,0.112,N,0.208,K,A*35' 11-10-06-387
b'$GNGGA,160945.30,4005.68161,N,08814.36427,W,1,09,1.24,231.7,M,-33.2,M,,*72' 11-10-06-410
b'$GNVTG,,T,,M,0.032,N,0.060,K,A*3A' 11-10-06-436
b'$GNGGA,160945.35,4005.68161,N,08814.36428,W,1,09,1.24,231.7,M,-33.2,M,,*78' 11-10-06-459
b'$GNVTG,,T,,M,0.083,N,0.153,K,A*31' 11-10-06-487
b'$GNGGA,160945.40,4005.68161,N,08814.36428,W,1,09,1.24,231.7,M,-33.2,M,,*7A' 11-10-06-510
b'$GNVTG,,T,,M,0.080,N,0.148,K,A*38' 11-10-06-537
b'$GNGGA,160945.45,4005.68161,N,08814.36428,W,1,09,1.24,231.6,M,-33.2,M,,*7E' 11-10-06-560
b'$GNVTG,,T,,M,0.052,N,0.096,K,A*35' 11-10-06-587
b'$GNGGA,160945.50,4005.68161,N,08814.36427,W,1,09,1.24,231.7,M,-33.2,M,,*74' 11-10-06-610
b'$GNVTG,,T,,M,0.055,N,0.101,K,A*3D' 11-10-06-637
b'$GNGGA,160945.55,4005.68161,N,08814.36427,W,1,09,1.24,231.7,M,-33.2,M,,*71' 11-10-06-660
b'$GNVTG,,T,,M,0.038,N,0.071,K,A*30' 11-10-06-687
b'$GNGGA,160945.60,4005.68161,N,08814.36427,W,1,09,1.24,231.6,M,-33.2,M,,*76' 11-10-06-710
b'$GNVTG,,T,,M,0.014,N,0.026,K,A*3C' 11-10-06-736
b'$GNGGA,160945.65,4005.68161,N,08814.36428,W,1,09,1.24,231.6,M,-33.2,M,,*7C' 11-10-06-760
b'$GNVTG,,T,,M,0.039,N,0.071,K,A*31' 11-10-06-786
b'$GNGGA,160945.70,4005.68161,N,08814.36427,W,1,09,1.24,231.6,M,-33.2,M,,*77' 11-10-06-810
b'$GNVTG,,T,,M,0.043,N,0.079,K,A*34' 11-10-06-837
b'$GNGGA,160945.75,4005.68161,N,08814.36427,W,1,09,1.24,231.7,M,-33.2,M,,*73' 11-10-06-860
b'$GNVTG,,T,,M,0.007,N,0.012,K,A*39' 11-10-06-887
b'$GNGGA,160945.80,4005.68161,N,08814.36427,W,1,09,1.24,231.6,M,-33.2,M,,*78' 11-10-06-910
b'$GNVTG,,T,,M,0.044,N,0.082,K,A*37' 11-10-06-936
b'$GNGGA,160945.85,4005.68161,N,08814.36427,W,1,09,1.24,231.6,M,-33.2,M,,*7D' 11-10-06-960
b'$GNVTG,,T,,M,0.011,N,0.020,K,A*3F' 11-10-06-987
b'$GNGGA,160945.90,4005.68161,N,08814.36427,W,1,09,1.24,231.6,M,-33.2,M,,*79' 11-10-07-010
b'$GNVTG,,T,,M,0.059,N,0.110,K,A*31' 11-10-07-037
b'$GNGGA,160945.95,4005.68160,N,08814.36428,W,1,09,1.24,231.6,M,-33.2,M,,*72' 11-10-07-060
b'$GNVTG,,T,,M,0.051,N,0.094,K,A*34' 11-10-07-091
b'$GNGGA,160946.00,4005.68160,N,08814.36428,W,1,09,1.24,231.6,M,-33.2,M,,*7D' 11-10-07-114
b'$GNVTG,,T,,M,0.047,N,0.086,K,A*30' 11-10-07-138
b'$GNGGA,160946.05,4005.68160,N,08814.36428,W,1,09,1.24,231.6,M,-33.2,M,,*78' 11-10-07-161
b'$GNVTG,,T,,M,0.027,N,0.049,K,A*35' 11-10-07-187
b'$GNGGA,160946.10,4005.68160,N,08814.36427,W,1,09,1.24,231.6,M,-33.2,M,,*73' 11-10-07-211
b'$GNVTG,,T,,M,0.029,N,0.054,K,A*37' 11-10-07-237
b'$GNGGA,160946.15,4005.68160,N,08814.36428,W,1,09,1.24,231.6,M,-33.2,M,,*79' 11-10-07-260
b'$GNVTG,,T,,M,0.030,N,0.056,K,A*3D' 11-10-07-287
b'$GNGGA,160946.20,4005.68160,N,08814.36428,W,1,09,1.24,231.6,M,-33.2,M,,*7F' 11-10-07-311
b'$GNVTG,,T,,M,0.029,N,0.054,K,A*37' 11-10-07-337
b'$GNGGA,160946.25,4005.68160,N,08814.36427,W,1,09,1.24,231.6,M,-33.2,M,,*75' 11-10-07-360
b'$GNVTG,,T,,M,0.079,N,0.146,K,A*30' 11-10-07-387
b'$GNGGA,160946.30,4005.68160,N,08814.36428,W,1,09,1.24,231.6,M,-33.2,M,,*7E' 11-10-07-411
b'$GNVTG,,T,,M,0.043,N,0.079,K,A*34' 11-10-07-437
b'$GNGGA,160946.35,4005.68160,N,08814.36427,W,1,09,1.24,231.6,M,-33.2,M,,*74' 11-10-07-461
b'$GNVTG,,T,,M,0.019,N,0.035,K,A*33' 11-10-07-487
b'$GNGGA,160946.40,4005.68160,N,08814.36427,W,1,09,1.24,231.6,M,-33.2,M,,*76' 11-10-07-511
b'$GNVTG,,T,,M,0.053,N,0.098,K,A*3A' 11-10-07-537
