hello
CAN logging
Accel logging
Steering logging
Cooling loop logging
b'$GNVTG,,,,,,,,,N*2E' 08-23-25-095
b'$GNGGA,,,,,,0,00,99.99,,,,,,*56' 08-23-25-118
b'$GNVTG,,,,,,,,,N*2E' 08-23-25-139
b'$GNGGA,,,,,,0,00,99.99,,,,,,*56' 08-23-25-162
b'$GNVTG,,,,,,,,,N*2E' 08-23-25-184
b'$GNGGA,,,,,,0,00,99.99,,,,,,*56' 08-23-25-205
b'$GNVTG,,,,,,,,,N*2E' 08-23-25-228
b'$GNGGA,,,,,,0,00,99.99,,,,,,*56' 08-23-25-251
b'$GNVTG,,,,,,,,,N*2E' 08-23-25-272
b'$GNGGA,,,,,,0,00,99.99,,,,,,*56' 08-23-25-294
b'$GNVTG,,,,,,,,,N*2E' 08-23-25-315
b'$GNGGA,,,,,,0,00,99.99,,,,,,*56' 08-23-25-337
b'$GNVTG,,,,,,,,,N*2E' 08-23-25-358
b'$GNGGA,,,,,,0,00,99.99,,,,,,*56' 08-23-25-381
b'$GNVTG,,,,,,,,,N*2E' 08-23-25-405
b'$GNGGA,,,,,,0,00,99.99,,,,,,*56' 08-23-25-430
b'$GNVTG,,,,,,,,,N*2E' 08-23-25-456
b'$GNGGA,,,,,,0,00,99.99,,,,,,*56' 08-23-25-481
b'$GNVTG,,,,,,,,,N*2E' 08-23-25-505
b'$GNGGA,,,,,,0,00,99.99,,,,,,*56' 08-23-25-529
b'$GNVTG,,,,,,,,,N*2E' 08-23-25-553
b'$GNGGA,,,,,,0,00,99.99,,,,,,*56' 08-23-25-577
b'$GNVTG,,,,,,,,,N*2E' 08-23-25-601
b'$GNGGA,,,,,,0,00,99.99,,,,,,*56' 08-23-25-625
b'$GNVTG,,,,,,,,,N*2E' 08-23-25-649
b'$GNGGA,,,,,,0,00,99.99,,,,,,*56' 08-23-25-672
b'$GNVTG,,,,,,,,,N*2E' 08-23-25-694
b'$GNGGA,,,,,,0,00,99.99,,,,,,*56' 08-23-25-716
b'$GNVTG,,,,,,,,,N*2E' 08-23-25-738
b'$GNGGA,,,,,,0,00,99.99,,,,,,*56' 08-23-25-760
b'$GNVTG,,,,,,,,,N*2E' 08-23-25-782
b'$GNGGA,,,,,,0,00,99.99,,,,,,*56' 08-23-25-803
b'$GNVTG,,,,,,,,,N*2E' 08-23-25-825
b'$GNGGA,,,,,,0,00,99.99,,,,,,*56' 08-23-25-847
b'$GNVTG,,,,,,,,,N*2E' 08-23-25-869
b'$GNGGA,,,,,,0,00,99.99,,,,,,*56' 08-23-25-891
b'$GNVTG,,,,,,,,,N*2E' 08-23-25-912
b'$GNGGA,,,,,,0,00,99.99,,,,,,*56' 08-23-25-935
b'$GNVTG,,,,,,,,,N*2E' 08-23-25-959
b'$GNGGA,,,,,,0,00,99.99,,,,,,*56' 08-23-25-985
b'$GNVTG,,,,,,,,,N*2E' 08-23-26-008
b'$GNGGA,,,,,,0,00,99.99,,,,,,*56' 08-23-26-033
b'$GNVTG,,,,,,,,,N*2E' 08-23-26-057
b'$GNGGA,,,,,,0,00,99.99,,,,,,*56' 08-23-26-081
b'$GNVTG,,,,,,,,,N*2E' 08-23-26-105
b'$GNGGA,,,,,,0,00,99.99,,,,,,*56' 08-23-26-129
b'$GNVTG,,,,,,,,,N*2E' 08-23-26-152
b'$GNGGA,,,,,,0,00,99.99,,,,,,*56' 08-23-26-176
b'$GNVTG,,,,,,,,,N*2E' 08-23-26-198
b'$GNGGA,,,,,,0,00,99.99,,,,,,*56' 08-23-26-220
b'$GNVTG,,,,,,,,,N*2E' 08-23-26-242
b'$GNGGA,,,,,,0,00,99.99,,,,,,*56' 08-23-26-263
b'$GNVTG,,,,,,,,,N*2E' 08-23-26-285
b'$GNGGA,,,,,,0,00,99.99,,,,,,*56' 08-23-26-307
b'$GNVTG,,,,,,,,,N*2E' 08-23-26-329
b'$GNGGA,,,,,,0,00,99.99,,,,,,*56' 08-23-26-351
b'$GNVTG,,,,,,,,,N*2E' 08-23-26-372
b'$GNGGA,,,,,,0,00,99.99,,,,,,*56' 08-23-26-395
b'$GNVTG,,,,,,,,,N*2E' 08-23-26-416
b'$GNGGA,,,,,,0,00,99.99,,,,,,*56' 08-23-26-438
b'$GNVTG,,,,,,,,,N*2E' 08-23-26-464
b'$GNGGA,,,,,,0,00,99.99,,,,,,*56' 08-23-26-487
b'$GNVTG,,,,,,,,,N*2E' 08-23-26-508
b'$GNGGA,,,,,,0,00,99.99,,,,,,*56' 08-23-26-530
b'$GNVTG,,,,,,,,,N*2E' 08-23-26-551
b'$GNGGA,,,,,,0,00,99.99,,,,,,*56' 08-23-26-573
b'$GNVTG,,,,,,,,,N*2E' 08-23-26-594
b'$GNGGA,,,,,,0,00,99.99,,,,,,*56' 08-23-26-616
b'$GNVTG,,,,,,,,,N*2E' 08-23-26-637
b'$GNGGA,,,,,,0,00,99.99,,,,,,*56' 08-23-26-659
b'$GNVTG,,,,,,,,,N*2E' 08-23-26-680
b'$GNGGA,,,,,,0,00,99.99,,,,,,*56' 08-23-26-701
b'$GNVTG,,,,,,,,,N*2E' 08-23-26-723
b'$GNGGA,,,,,,0,00,99.99,,,,,,*56' 08-23-26-745
b'$GNVTG,,,,,,,,,N*2E' 08-23-26-766
b'$GNGGA,,,,,,0,00,99.99,,,,,,*56' 08-23-26-787
b'$GNVTG,,,,,,,,,N*2E' 08-23-26-812
b'$GNGGA,,,,,,0,00,99.99,,,,,,*56' 08-23-26-834
b'$GNVTG,,,,,,,,,N*2E' 08-23-26-855
b'$GNGGA,,,,,,0,00,99.99,,,,,,*56' 08-23-26-877
b'$GNVTG,,,,,,,,,N*2E' 08-23-26-898
b'$GNGGA,012300.10,,,,,0,00,99.99,,,,,,*79' 08-23-26-920
b'$GNVTG,,,,,,,,,N*2E' 08-23-26-942
b'$GNGGA,012300.15,,,,,0,00,99.99,,,,,,*7C' 08-23-26-964
b'$GNVTG,,,,,,,,,N*2E' 08-23-26-985
b'$GNGGA,012300.20,,,,,0,00,99.99,,,,,,*7A' 08-23-27-007
b'$GNVTG,,,,,,,,,N*2E' 08-23-27-028
b'$GNGGA,012300.25,,,,,0,00,99.99,,,,,,*7F' 08-23-27-050
b'$GNVTG,,,,,,,,,N*2E' 08-23-27-071
b'$GNGGA,012300.30,,,,,0,00,99.99,,,,,,*7B' 08-23-27-093
b'$GNVTG,,,,,,,,,N*2E' 08-23-27-115
b'$GNGGA,012300.35,,,,,0,00,99.99,,,,,,*7E' 08-23-27-137
b'$GNVTG,,,,,,,,,N*2E' 08-23-27-158
b'$GNGGA,012300.40,,,,,0,00,99.99,,,,,,*7C' 08-23-27-180
b'$GNVTG,,,,,,,,,N*2E' 08-23-27-202
b'$GNGGA,012300.45,,,,,0,00,99.99,,,,,,*79' 08-23-27-224
b'$GNVTG,,,,,,,,,N*2E' 08-23-27-245
b'$GNGGA,012300.50,,,,,0,00,99.99,,,,,,*7D' 08-23-27-267
b'$GNVTG,,,,,,,,,N*2E' 08-23-27-288
b'$GNGGA,012300.55,,,,,0,00,99.99,,,,,,*78' 08-23-27-310
b'$GNVTG,,,,,,,,,N*2E' 08-23-27-331
b'$GNGGA,012300.60,,,,,0,00,99.99,,,,,,*7E' 08-23-27-353
b'$GNVTG,,,,,,,,,N*2E' 08-23-27-374
b'$GNGGA,012300.65,,,,,0,00,99.99,,,,,,*7B' 08-23-27-396
b'$GNVTG,,,,,,,,,N*2E' 08-23-27-417
b'$GNGGA,012300.70,,,,,0,00,99.99,,,,,,*7F' 08-23-27-439
b'$GNVTG,,,,,,,,,N*2E' 08-23-27-460
b'$GNGGA,012300.75,,,,,0,00,99.99,,,,,,*7A' 08-23-27-482
b'$GNVTG,,,,,,,,,N*2E' 08-23-27-504
b'$GNGGA,012300.80,,,,,0,00,99.99,,,,,,*70' 08-23-27-525
b'$GNVTG,,,,,,,,,N*2E' 08-23-27-546
b'$GNGGA,012300.85,,,,,0,00,99.99,,,,,,*75' 08-23-27-568
b'$GNVTG,,,,,,,,,N*2E' 08-23-27-589
b'$GNGGA,012300.90,,,,,0,00,99.99,,,,,,*71' 08-23-27-612
b'$GNVTG,,,,,,,,,N*2E' 08-23-27-633
b'$GNGGA,012300.95,,,,,0,00,99.99,,,,,,*74' 08-23-27-654
b'$GNVTG,,,,,,,,,N*2E' 08-23-27-676
b'$GNGGA,012301.00,,,,,0,00,99.99,,,,,,*79' 08-23-27-698
b'$GNVTG,,,,,,,,,N*2E' 08-23-27-719
b'$GNGGA,012301.05,,,,,0,00,99.99,,,,,,*7C' 08-23-27-741
b'$GNVTG,,,,,,,,,N*2E' 08-23-27-762
b'$GNGGA,012301.10,,,,,0,00,99.99,,,,,,*78' 08-23-27-784
b'$GNVTG,,,,,,,,,N*2E' 08-23-27-805
b'$GNGGA,012301.15,,,,,0,00,99.99,,,,,,*7D' 08-23-27-827
b'$GNVTG,,,,,,,,,N*2E' 08-23-27-849
b'$GNGGA,012301.20,,,,,0,00,99.99,,,,,,*7B' 08-23-27-871
b'$GNVTG,,,,,,,,,N*2E' 08-23-27-892
b'$GNGGA,012301.25,,,,,0,00,99.99,,,,,,*7E' 08-23-27-914
b'$GNVTG,,,,,,,,,N*2E' 08-23-27-935
b'$GNGGA,012301.30,,,,,0,00,99.99,,,,,,*7A' 08-23-27-957
b'$GNVTG,,,,,,,,,N*2E' 08-23-27-979
b'$GNGGA,012301.35,,,,,0,00,99.99,,,,,,*7F' 08-23-28-001
b'$GNVTG,,,,,,,,,N*2E' 08-23-28-022
b'$GNGGA,012301.40,,,,,0,00,99.99,,,,,,*7D' 08-23-28-044
b'$GNVTG,,,,,,,,,N*2E' 08-23-28-066
b'$GNGGA,012301.45,,,,,0,00,99.99,,,,,,*78' 08-23-28-087
b'$GNVTG,,,,,,,,,N*2E' 08-23-28-108
b'$GNGGA,012301.50,,,,,0,00,99.99,,,,,,*7C' 08-23-28-130
b'$GNVTG,,,,,,,,,N*2E' 08-23-28-151
b'$GNGGA,012301.55,,,,,0,00,99.99,,,,,,*79' 08-23-28-173
b'$GNVTG,,,,,,,,,N*2E' 08-23-28-194
b'$GNGGA,012301.60,,,,,0,00,99.99,,,,,,*7F' 08-23-28-216
b'$GNVTG,,,,,,,,,N*2E' 08-23-28-237
b'$GNGGA,012301.65,,,,,0,00,99.99,,,,,,*7A' 08-23-28-259
b'$GNVTG,,,,,,,,,N*2E' 08-23-28-280
b'$GNGGA,012301.70,,,,,0,00,99.99,,,,,,*7E' 08-23-28-302
b'$GNVTG,,,,,,,,,N*2E' 08-23-28-323
b'$GNGGA,012301.75,,,,,0,00,99.99,,,,,,*7B' 08-23-28-345
b'$GNVTG,,,,,,,,,N*2E' 08-23-28-366
b'$GNGGA,012307.75,,,,,0,00,99.99,,,,,,*7D' 08-23-28-388
b'$GNVTG,,,,,,,,,N*2E' 08-23-28-410
b'$GNGGA,012307.80,,,,,0,00,99.99,,,,,,*77' 08-23-28-432
b'$GNVTG,,,,,,,,,N*2E' 08-23-28-453
b'$GNGGA,012307.85,,,,,0,00,99.99,,,,,,*72' 08-23-28-475
b'$GNVTG,,,,,,,,,N*2E' 08-23-28-496
b'$GNGGA,012307.90,,,,,0,00,99.99,,,,,,*76' 08-23-28-518
b'$GNVTG,,,,,,,,,N*2E' 08-23-28-539
b'$GNGGA,012307.95,,,,,0,00,99.99,,,,,,*73' 08-23-28-561
b'$GNVTG,,,,,,,,,N*2E' 08-23-28-582
b'$GNGGA,012308.00,,,,,0,00,99.99,,,,,,*70' 08-23-28-604
b'$GNVTG,,,,,,,,,N*2E' 08-23-28-625
b'$GNGGA,012308.05,,,,,0,00,99.99,,,,,,*75' 08-23-28-647
b'$GNVTG,,,,,,,,,N*2E' 08-23-28-669
b'$GNGGA,012308.10,,,,,0,00,99.99,,,,,,*71' 08-23-28-690
b'$GNVTG,,,,,,,,,N*2E' 08-23-28-712
b'$GNGGA,012308.15,,,,,0,00,99.99,,,,,,*74' 08-23-28-734
b'$GNVTG,,,,,,,,,N*2E' 08-23-28-755
b'$GNGGA,012308.20,,,,,0,00,99.99,,,,,,*72' 08-23-28-777
b'$GNVTG,,,,,,,,,N*2E' 08-23-28-798
b'$GNGGA,012308.25,,,,,0,00,99.99,,,,,,*77' 08-23-28-820
b'$GNVTG,,,,,,,,,N*2E' 08-23-28-842
b'$GNGGA,012308.30,,,,,0,00,99.99,,,,,,*73' 08-23-28-864
b'$GNVTG,,,,,,,,,N*2E' 08-23-28-885
b'$GNGGA,012308.35,,,,,0,00,99.99,,,,,,*76' 08-23-28-907
b'$GNVTG,,,,,,,,,N*2E' 08-23-28-928
b'$GNGGA,012308.40,,,,,0,00,99.99,,,,,,*74' 08-23-28-950
b'$GNVTG,,,,,,,,,N*2E' 08-23-28-973
b'$GNGGA,012308.45,,,,,0,00,99.99,,,,,,*71' 08-23-28-995
b'$GNVTG,,,,,,,,,N*2E' 08-23-29-023
b'$GNGGA,012308.50,,,,,0,00,99.99,,,,,,*75' 08-23-29-045
b'$GNVTG,,,,,,,,,N*2E' 08-23-29-073
b'$GNGGA,012308.55,,,,,0,00,99.99,,,,,,*70' 08-23-29-095
b'$GNVTG,,,,,,,,,N*2E' 08-23-29-123
b'$GNGGA,012308.60,,,,,0,00,99.99,,,,,,*76' 08-23-29-146
b'$GNVTG,,,,,,,,,N*2E' 08-23-29-173
b'$GNGGA,012308.65,,,,,0,00,99.99,,,,,,*73' 08-23-29-195
b'$GNVTG,,,,,,,,,N*2E' 08-23-29-224
b'$GNGGA,012308.70,,,,,0,00,99.99,,,,,,*77' 08-23-29-246
b'$GNVTG,,,,,,,,,N*2E' 08-23-29-273
b'$GNGGA,012308.75,,,,,0,00,99.99,,,,,,*72' 08-23-29-295
b'$GNVTG,,,,,,,,,N*2E' 08-23-29-323
b'$GNGGA,012308.80,,,,,0,00,99.99,,,,,,*78' 08-23-29-345
b'$GNVTG,,,,,,,,,N*2E' 08-23-29-373
b'$GNGGA,012308.85,,,,,0,00,99.99,,,,,,*7D' 08-23-29-395
b'$GNVTG,,,,,,,,,N*2E' 08-23-29-423
b'$GNGGA,012308.90,,,,,0,00,99.99,,,,,,*79' 08-23-29-445
b'$GNVTG,,,,,,,,,N*2E' 08-23-29-473
b'$GNGGA,012308.95,,,,,0,00,99.99,,,,,,*7C' 08-23-29-495
b'$GNVTG,,,,,,,,,N*2E' 08-23-29-523
b'$GNGGA,012309.00,,,,,0,00,99.99,,,,,,*71' 08-23-29-545
b'$GNVTG,,,,,,,,,N*2E' 08-23-29-573
b'$GNGGA,012309.05,,,,,0,00,99.99,,,,,,*74' 08-23-29-595
b'$GNVTG,,,,,,,,,N*2E' 08-23-29-623
b'$GNGGA,012309.10,,,,,0,00,99.99,,,,,,*70' 08-23-29-647
b'$GNVTG,,,,,,,,,N*2E' 08-23-29-673
b'$GNGGA,012309.15,,,,,0,00,99.99,,,,,,*75' 08-23-29-696
b'$GNVTG,,,,,,,,,N*2E' 08-23-29-723
b'$GNGGA,012309.20,,,,,0,00,99.99,,,,,,*73' 08-23-29-745
b'$GNVTG,,,,,,,,,N*2E' 08-23-29-773
b'$GNGGA,012309.25,,,,,0,00,99.99,,,,,,*76' 08-23-29-795
b'$GNVTG,,,,,,,,,N*2E' 08-23-29-823
b'$GNGGA,012309.30,,,,,0,00,99.99,,,,,,*72' 08-23-29-845
b'$GNVTG,,,,,,,,,N*2E' 08-23-29-873
b'$GNGGA,012309.35,,,,,0,00,99.99,,,,,,*77' 08-23-29-895
b'$GNVTG,,,,,,,,,N*2E' 08-23-29-923
b'$GNGGA,012309.40,,,,,0,00,99.99,,,,,,*75' 08-23-29-945
b'$GNVTG,,,,,,,,,N*2E' 08-23-29-973
b'$GNGGA,012309.45,,,,,0,00,99.99,,,,,,*70' 08-23-29-995
b'$GNVTG,,,,,,,,,N*2E' 08-23-30-023
b'$GNGGA,012309.50,,,,,0,00,99.99,,,,,,*74' 08-23-30-045
b'$GNVTG,,,,,,,,,N*2E' 08-23-30-073
b'$GNGGA,012309.55,,,,,0,00,99.99,,,,,,*71' 08-23-30-095
b'$GNVTG,,,,,,,,,N*2E' 08-23-30-123
b'$GNGGA,012309.60,,,,,0,00,99.99,,,,,,*77' 08-23-30-145
b'$GNVTG,,,,,,,,,N*2E' 08-23-30-173
b'$GNGGA,012309.65,,,,,0,00,99.99,,,,,,*72' 08-23-30-195
b'$GNVTG,,,,,,,,,N*2E' 08-23-30-223
b'$GNGGA,012309.70,,,,,0,00,99.99,,,,,,*76' 08-23-30-245
b'$GNVTG,,,,,,,,,N*2E' 08-23-30-273
b'$GNGGA,012309.75,,,,,0,00,99.99,,,,,,*73' 08-23-30-295
b'$GNVTG,,,,,,,,,N*2E' 08-23-30-323
b'$GNGGA,012309.80,,,,,0,00,99.99,,,,,,*79' 08-23-30-345
b'$GNVTG,,,,,,,,,N*2E' 08-23-30-373
b'$GNGGA,012309.85,,,,,0,00,99.99,,,,,,*7C' 08-23-30-395
b'$GNVTG,,,,,,,,,N*2E' 08-23-30-423
b'$GNGGA,012309.90,,,,,0,00,99.99,,,,,,*78' 08-23-30-446
b'$GNVTG,,,,,,,,,N*2E' 08-23-30-473
b'$GNGGA,012309.95,,,,,0,00,99.99,,,,,,*7D' 08-23-30-495
b'$GNVTG,,,,,,,,,N*2E' 08-23-30-523
b'$GNGGA,012310.00,,,,,0,00,99.99,,,,,,*79' 08-23-30-545
b'$GNVTG,,,,,,,,,N*2E' 08-23-30-573
b'$GNGGA,012310.05,,,,,0,00,99.99,,,,,,*7C' 08-23-30-596
b'$GNVTG,10.61,T,,M,6.821,N,12.633,K,A*2D' 08-23-30-657
b'$GNGGA,012310.10,4006.73081,N,08813.33574,W,1,05,1.70,223.0,M,-33.2,M,,*74' 08-23-30-681
b'$GNVTG,8.12,T,,M,6.626,N,12.270,K,A*1A' 08-23-30-705
b'$GNGGA,012310.15,4006.73089,N,08813.33573,W,1,05,1.70,223.0,M,-33.2,M,,*7E' 08-23-30-730
b'$GNVTG,7.49,T,,M,6.763,N,12.524,K,A*1D' 08-23-30-753
b'$GNGGA,012310.20,4006.73099,N,08813.33573,W,1,05,1.70,223.0,M,-33.2,M,,*79' 08-23-30-777
b'$GNVTG,8.44,T,,M,6.994,N,12.953,K,A*15' 08-23-30-800
b'$GNGGA,012310.25,4006.73109,N,08813.33570,W,1,05,1.70,223.0,M,-33.2,M,,*77' 08-23-30-824
b'$GNVTG,7.32,T,,M,6.853,N,12.691,K,A*10' 08-23-30-846
b'$GNGGA,012310.30,4006.73118,N,08813.33569,W,1,05,1.70,223.0,M,-33.2,M,,*7B' 08-23-30-870
b'$GNVTG,5.24,T,,M,6.620,N,12.259,K,A*1F' 08-23-30-893
b'$GNGGA,012310.35,4006.73126,N,08813.33569,W,1,05,1.70,223.1,M,-33.2,M,,*72' 08-23-30-917
b'$GNVTG,4.08,T,,M,6.624,N,12.268,K,A*16' 08-23-30-939
b'$GNGGA,012310.40,4006.73135,N,08813.33567,W,1,05,1.70,223.3,M,-33.2,M,,*7E' 08-23-30-963
b'$GNVTG,4.13,T,,M,6.849,N,12.684,K,A*1F' 08-23-30-986
b'$GNGGA,012310.45,4006.73143,N,08813.33565,W,1,05,1.70,223.5,M,-33.2,M,,*7E' 08-23-31-010
b'$GNVTG,5.27,T,,M,7.046,N,13.049,K,A*19' 08-23-31-032
b'$GNGGA,012310.50,4006.73152,N,08813.33560,W,1,05,1.70,223.8,M,-33.2,M,,*72' 08-23-31-056
b'$GNVTG,4.12,T,,M,7.002,N,12.969,K,A*14' 08-23-31-079
b'$GNGGA,012310.55,4006.73161,N,08813.33558,W,1,05,1.70,224.1,M,-33.2,M,,*72' 08-23-31-103
b'$GNVTG,0.71,T,,M,6.683,N,12.376,K,A*1F' 08-23-31-126
b'$GNGGA,012310.60,4006.73168,N,08813.33559,W,1,05,1.70,224.3,M,-33.2,M,,*7E' 08-23-31-150
b'$GNVTG,358.93,T,,M,6.666,N,12.345,K,A*16' 08-23-31-176
b'$GNGGA,012310.65,4006.73177,N,08813.33558,W,1,05,1.70,224.4,M,-33.2,M,,*73' 08-23-31-201
b'$GNVTG,359.47,T,,M,6.843,N,12.672,K,A*16' 08-23-31-226
b'$GNGGA,012310.70,4006.73186,N,08813.33556,W,1,05,1.70,224.5,M,-33.2,M,,*76' 08-23-31-249
b'$GNVTG,0.05,T,,M,7.079,N,13.111,K,A*1C' 08-23-31-276
b'$GNGGA,012310.75,4006.73197,N,08813.33555,W,1,05,1.70,224.6,M,-33.2,M,,*73' 08-23-31-300
b'$GNVTG,0.35,T,,M,7.202,N,13.338,K,A*18' 08-23-31-326
b'$GNGGA,012310.80,4006.73207,N,08813.33554,W,1,05,1.70,224.7,M,-33.2,M,,*73' 08-23-31-349
b'$GNVTG,359.22,T,,M,7.076,N,13.105,K,A*1C' 08-23-31-376
b'$GNGGA,012310.85,4006.73217,N,08813.33555,W,1,05,1.70,224.8,M,-33.2,M,,*79' 08-23-31-399
b'$GNVTG,355.93,T,,M,6.883,N,12.748,K,A*17' 08-23-31-426
b'$GNGGA,012310.90,4006.73226,N,08813.33556,W,1,05,1.70,224.9,M,-33.2,M,,*7D' 08-23-31-449
b'$GNVTG,353.51,T,,M,6.825,N,12.640,K,A*1A' 08-23-31-480
b'$GNGGA,012310.95,4006.73236,N,08813.33558,W,1,05,1.70,224.9,M,-33.2,M,,*77' 08-23-31-503
b'$GNVTG,354.44,T,,M,7.126,N,13.197,K,A*1E' 08-23-31-526
b'$GNGGA,012311.00,4006.73246,N,08813.33558,W,1,05,1.70,225.0,M,-33.2,M,,*75' 08-23-31-549
b'$GNVTG,353.99,T,,M,7.245,N,13.418,K,A*1D' 08-23-31-576
b'$GNGGA,012311.05,4006.73257,N,08813.33559,W,1,05,1.70,225.0,M,-33.2,M,,*71' 08-23-31-599
b'$GNVTG,353.27,T,,M,7.090,N,13.131,K,A*1C' 08-23-31-626
b'$GNGGA,012311.10,4006.73266,N,08813.33561,W,1,05,1.70,225.1,M,-33.2,M,,*7D' 08-23-31-649
b'$GNVTG,352.41,T,,M,7.044,N,13.045,K,A*16' 08-23-31-676
b'$GNGGA,012311.15,4006.73277,N,08813.33563,W,1,05,1.70,225.1,M,-33.2,M,,*7A' 08-23-31-699
b'$GNVTG,350.77,T,,M,7.105,N,13.158,K,A*18' 08-23-31-726
b'$GNGGA,012311.20,4006.73287,N,08813.33566,W,1,05,1.70,225.1,M,-33.2,M,,*76' 08-23-31-749
b'$GNVTG,348.86,T,,M,7.065,N,13.085,K,A*19' 08-23-31-777
b'$GNGGA,012311.25,4006.73298,N,08813.33569,W,1,05,1.70,225.1,M,-33.2,M,,*72' 08-23-31-800
b'$GNVTG,347.24,T,,M,7.349,N,13.610,K,A*19' 08-23-31-826
b'$GNGGA,012311.30,4006.73309,N,08813.33573,W,1,05,1.70,225.1,M,-33.2,M,,*74' 08-23-31-849
b'$GNVTG,345.59,T,,M,7.232,N,13.393,K,A*12' 08-23-31-876
b'$GNGGA,012311.35,4006.73319,N,08813.33577,W,1,05,1.70,225.1,M,-33.2,M,,*74' 08-23-31-899
b'$GNGGA,012311.40,4006.73330,N,08813.33579,W,1,05,1.70,225.1,M,-33.2,M,,*73' 08-23-31-928
b'$GNVTG,342.85,T,,M,6.956,N,12.883,K,A*17' 08-23-31-976
b'$GNGGA,012311.45,4006.73340,N,08813.33584,W,1,05,1.70,225.1,M,-33.2,M,,*73' 08-23-32-000
b'$GNVTG,341.72,T,,M,6.894,N,12.768,K,A*19' 08-23-32-026
b'$GNGGA,012311.50,4006.73350,N,08813.33588,W,1,05,1.70,225.1,M,-33.2,M,,*7A' 08-23-32-049
b'$GNVTG,339.34,T,,M,6.961,N,12.891,K,A*16' 08-23-32-077
b'$GNGGA,012311.55,4006.73360,N,08813.33593,W,1,05,1.70,225.1,M,-33.2,M,,*76' 08-23-32-100
b'$GNVTG,337.16,T,,M,7.131,N,13.206,K,A*11' 08-23-32-126
b'$GNGGA,012311.60,4006.73370,N,08813.33599,W,1,05,1.70,225.0,M,-33.2,M,,*7A' 08-23-32-149
b'$GNVTG,336.32,T,,M,7.231,N,13.392,K,A*19' 08-23-32-176
b'$GNGGA,012311.65,4006.73381,N,08813.33604,W,1,05,1.70,225.0,M,-33.2,M,,*76' 08-23-32-200
b'$GNVTG,333.51,T,,M,7.313,N,13.544,K,A*15' 08-23-32-227
b'$GNGGA,012311.70,4006.73391,N,08813.33611,W,1,05,1.70,225.0,M,-33.2,M,,*77' 08-23-32-250
b'$GNVTG,330.79,T,,M,7.389,N,13.685,K,A*11' 08-23-32-276
b'$GNGGA,012311.75,4006.73401,N,08813.33619,W,1,05,1.70,225.0,M,-33.2,M,,*74' 08-23-32-299
b'$GNVTG,329.97,T,,M,6.739,N,12.480,K,A*11' 08-23-32-327
b'$GNGGA,012311.80,4006.73409,N,08813.33624,W,1,05,1.70,224.9,M,-33.2,M,,*70' 08-23-32-350
b'$GNVTG,328.01,T,,M,6.822,N,12.634,K,A*17' 08-23-32-377
b'$GNGGA,012311.85,4006.73419,N,08813.33631,W,1,05,1.70,224.9,M,-33.2,M,,*70' 08-23-32-400
b'$GNVTG,328.01,T,,M,6.450,N,11.945,K,A*14' 08-23-32-426
b'$GNGGA,012311.90,4006.73427,N,08813.33635,W,1,05,1.70,224.9,M,-33.2,M,,*7D' 08-23-32-449
b'$GNVTG,326.36,T,,M,6.370,N,11.798,K,A*15' 08-23-32-480
b'$GNGGA,012311.95,4006.73436,N,08813.33641,W,1,05,1.70,224.9,M,-33.2,M,,*7B' 08-23-32-503
b'$GNVTG,324.23,T,,M,6.352,N,11.763,K,A*17' 08-23-32-527
b'$GNGGA,012312.00,4006.73444,N,08813.33648,W,1,05,1.70,224.8,M,-33.2,M,,*79' 08-23-32-552
b'$GNVTG,323.27,T,,M,6.562,N,12.153,K,A*17' 08-23-32-577
b'$GNGGA,012312.05,4006.73453,N,08813.33656,W,1,05,1.70,224.8,M,-33.2,M,,*75' 08-23-32-603
b'$GNVTG,319.99,T,,M,7.008,N,12.979,K,A*13' 08-23-32-627
b'$GNGGA,012312.10,4006.73461,N,08813.33666,W,1,05,1.70,224.8,M,-33.2,M,,*73' 08-23-32-652
b'$GNVTG,316.42,T,,M,7.265,N,13.455,K,A*11' 08-23-32-677
b'$GNGGA,012312.15,4006.73469,N,08813.33676,W,1,05,1.70,224.8,M,-33.2,M,,*7F' 08-23-32-701
b'$GNVTG,314.07,T,,M,7.243,N,13.413,K,A*14' 08-23-32-727
b'$GNGGA,012312.20,4006.73477,N,08813.33685,W,1,05,1.70,224.8,M,-33.2,M,,*7A' 08-23-32-751
b'$GNVTG,311.93,T,,M,7.050,N,13.056,K,A*19' 08-23-32-777
b'$GNGGA,012312.25,4006.73484,N,08813.33694,W,1,05,1.70,224.8,M,-33.2,M,,*73' 08-23-32-800
b'$GNVTG,311.74,T,,M,6.998,N,12.959,K,A*1B' 08-23-32-827
b'$GNGGA,012312.30,4006.73492,N,08813.33703,W,1,05,1.70,224.7,M,-33.2,M,,*70' 08-23-32-851
b'$GNVTG,310.74,T,,M,7.019,N,13.000,K,A*1F' 08-23-32-877
b'$GNGGA,012312.35,4006.73499,N,08813.33713,W,1,05,1.70,224.7,M,-33.2,M,,*7F' 08-23-32-901
b'$GNVTG,309.42,T,,M,6.778,N,12.554,K,A*16' 08-23-32-927
b'$GNGGA,012312.40,4006.73504,N,08813.33722,W,1,05,1.70,224.7,M,-33.2,M,,*7A' 08-23-32-951
b'$GNVTG,308.25,T,,M,5.888,N,10.904,K,A*1E' 08-23-32-977
b'$GNGGA,012312.45,4006.73508,N,08813.33729,W,1,05,1.70,224.7,M,-33.2,M,,*78' 08-23-33-001
b'$GNVTG,305.93,T,,M,5.178,N,9.590,K,A*21' 08-23-33-026
b'$GNGGA,012312.50,4006.73511,N,08813.33734,W,1,05,1.70,224.7,M,-33.2,M,,*78' 08-23-33-050
b'$GNVTG,304.19,T,,M,5.695,N,10.546,K,A*15' 08-23-33-077
b'$GNGGA,012312.55,4006.73516,N,08813.33742,W,1,05,1.70,224.6,M,-33.2,M,,*7A' 08-23-33-101
b'$GNVTG,302.90,T,,M,6.082,N,11.263,K,A*10' 08-23-33-127
b'$GNGGA,012312.60,4006.73520,N,08813.33752,W,1,05,1.70,224.6,M,-33.2,M,,*78' 08-23-33-151
b'$GNVTG,301.76,T,,M,6.474,N,11.990,K,A*11' 08-23-33-177
b'$GNGGA,012312.65,4006.73524,N,08813.33762,W,1,05,1.70,224.7,M,-33.2,M,,*7B' 08-23-33-200
b'$GNVTG,300.06,T,,M,6.733,N,12.469,K,A*1F' 08-23-33-227
b'$GNGGA,012312.70,4006.73527,N,08813.33772,W,1,05,1.70,224.7,M,-33.2,M,,*7D' 08-23-33-251
b'$GNVTG,298.97,T,,M,7.186,N,13.308,K,A*1F' 08-23-33-277
b'$GNGGA,012312.75,4006.73530,N,08813.33783,W,1,05,1.70,224.8,M,-33.2,M,,*7F' 08-23-33-301
b'$GNVTG,297.23,T,,M,7.189,N,13.315,K,A*1C' 08-23-33-327
b'$GNGGA,012312.80,4006.73533,N,08813.33795,W,1,05,1.70,224.8,M,-33.2,M,,*71' 08-23-33-351
b'$GNVTG,293.84,T,,M,6.995,N,12.955,K,A*1E' 08-23-33-377
b'$GNGGA,012312.85,4006.73535,N,08813.33806,W,1,05,1.70,224.8,M,-33.2,M,,*77' 08-23-33-401
b'$GNVTG,293.87,T,,M,7.099,N,13.148,K,A*1C' 08-23-33-427
b'$GNGGA,012312.90,4006.73538,N,08813.33817,W,1,05,1.70,224.9,M,-33.2,M,,*7F' 08-23-33-451
b'$GNVTG,295.35,T,,M,7.127,N,13.199,K,A*1B' 08-23-33-480
b'$GNGGA,012312.95,4006.73542,N,08813.33827,W,1,05,1.70,224.9,M,-33.2,M,,*74' 08-23-33-505
b'$GNVTG,293.55,T,,M,7.382,N,13.672,K,A*14' 08-23-33-527
b'$GNGGA,012313.00,4006.73544,N,08813.33839,W,1,05,1.70,225.0,M,-33.2,M,,*78' 08-23-33-551
b'$GNVTG,292.33,T,,M,7.468,N,13.831,K,A*1F' 08-23-33-577
b'$GNGGA,012313.05,4006.73546,N,08813.33851,W,1,05,1.70,225.0,M,-33.2,M,,*71' 08-23-33-601
b'$GNVTG,292.16,T,,M,7.098,N,13.146,K,A*1A' 08-23-33-627
b'$GNGGA,012313.10,4006.73549,N,08813.33860,W,1,05,1.70,225.0,M,-33.2,M,,*78' 08-23-33-651
b'$GNVTG,291.30,T,,M,6.996,N,12.957,K,A*12' 08-23-33-677
b'$GNGGA,012313.15,4006.73551,N,08813.33872,W,1,05,1.70,225.1,M,-33.2,M,,*76' 08-23-33-701
b'$GNVTG,291.03,T,,M,7.241,N,13.411,K,A*1C' 08-23-33-727
b'$GNGGA,012313.20,4006.73553,N,08813.33886,W,1,05,1.70,225.2,M,-33.2,M,,*7A' 08-23-33-751
b'$GNVTG,290.42,T,,M,7.282,N,13.487,K,A*18' 08-23-33-776
b'$GNGGA,012313.25,4006.73556,N,08813.33899,W,1,05,1.70,225.2,M,-33.2,M,,*74' 08-23-33-800
b'$GNVTG,288.88,T,,M,7.290,N,13.502,K,A*18' 08-23-33-827
b'$GNGGA,012313.30,4006.73558,N,08813.33912,W,1,05,1.70,225.3,M,-33.2,M,,*7D' 08-23-33-851
b'$GNVTG,287.76,T,,M,7.388,N,13.682,K,A*15' 08-23-33-877
b'$GNGGA,012313.35,4006.73560,N,08813.33925,W,1,05,1.70,225.3,M,-33.2,M,,*77' 08-23-33-901
b'$GNVTG,286.79,T,,M,7.484,N,13.860,K,A*12' 08-23-33-926
b'$GNGGA,012313.40,4006.73561,N,08813.33937,W,1,05,1.70,225.3,M,-33.2,M,,*77' 08-23-33-951
b'$GNVTG,286.58,T,,M,7.586,N,14.049,K,A*16' 08-23-33-977
b'$GNGGA,012313.45,4006.73563,N,08813.33949,W,1,05,1.70,225.4,M,-33.2,M,,*7E' 08-23-34-001
b'$GNVTG,284.70,T,,M,7.843,N,14.524,K,A*14' 08-23-34-027
b'$GNGGA,012313.50,4006.73564,N,08813.33962,W,1,05,1.70,225.4,M,-33.2,M,,*74' 08-23-34-051
b'$GNVTG,283.74,T,,M,7.590,N,14.056,K,A*14' 08-23-34-077
b'$GNGGA,012313.55,4006.73565,N,08813.33973,W,1,05,1.70,225.4,M,-33.2,M,,*70' 08-23-34-100
b'$GNVTG,282.17,T,,M,7.772,N,14.393,K,A*14' 08-23-34-127
b'$GNGGA,012313.60,4006.73565,N,08813.33984,W,1,05,1.70,225.4,M,-33.2,M,,*7E' 08-23-34-151
b'$GNVTG,281.90,T,,M,7.797,N,14.440,K,A*1A' 08-23-34-177
b'$GNGGA,012313.65,4006.73567,N,08813.33997,W,1,05,1.70,225.4,M,-33.2,M,,*7B' 08-23-34-201
b'$GNVTG,281.21,T,,M,7.811,N,14.466,K,A*15' 08-23-34-227
b'$GNGGA,012313.70,4006.73568,N,08813.34010,W,1,05,1.70,225.4,M,-33.2,M,,*71' 08-23-34-251
b'$GNVTG,280.30,T,,M,7.731,N,14.317,K,A*18' 08-23-34-276
b'$GNGGA,012313.75,4006.73568,N,08813.34021,W,1,05,1.70,225.4,M,-33.2,M,,*76' 08-23-34-300
b'$GNVTG,278.25,T,,M,7.869,N,14.574,K,A*1A' 08-23-34-327
b'$GNGGA,012313.80,4006.73568,N,08813.34032,W,1,05,1.70,225.4,M,-33.2,M,,*7E' 08-23-34-351
b'$GNVTG,277.41,T,,M,7.949,N,14.722,K,A*15' 08-23-34-377
b'$GNGGA,012313.85,4006.73568,N,08813.34043,W,1,05,1.70,225.4,M,-33.2,M,,*7D' 08-23-34-401
b'$GNVTG,277.19,T,,M,7.834,N,14.508,K,A*19' 08-23-34-427
b'$GNGGA,012313.90,4006.73568,N,08813.34053,W,1,05,1.70,225.3,M,-33.2,M,,*7F' 08-23-34-450
b'$GNVTG,277.77,T,,M,8.025,N,14.862,K,A*17' 08-23-34-480
b'$GNGGA,012313.95,4006.73569,N,08813.34066,W,1,05,1.70,225.3,M,-33.2,M,,*7D' 08-23-34-505
b'$GNVTG,276.19,T,,M,8.185,N,15.159,K,A*15' 08-23-34-528
b'$GNGGA,012314.00,4006.73568,N,08813.34081,W,1,05,1.70,225.4,M,-33.2,M,,*79' 08-23-34-552
b'$GNVTG,275.73,T,,M,8.179,N,15.148,K,A*19' 08-23-34-577
b'$GNGGA,012314.05,4006.73569,N,08813.34095,W,1,05,1.70,225.4,M,-33.2,M,,*78' 08-23-34-601
b'$GNVTG,275.33,T,,M,7.912,N,14.653,K,A*1B' 08-23-34-627
b'$GNGGA,012314.10,4006.73569,N,08813.34107,W,1,05,1.70,225.4,M,-33.2,M,,*76' 08-23-34-651
b'$GNVTG,274.90,T,,M,8.132,N,15.060,K,A*11' 08-23-34-677
b'$GNGGA,012314.15,4006.73569,N,08813.34119,W,1,05,1.70,225.3,M,-33.2,M,,*7B' 08-23-34-701
b'$GNVTG,274.26,T,,M,8.242,N,15.265,K,A*1F' 08-23-34-727
b'$GNGGA,012314.20,4006.73568,N,08813.34131,W,1,05,1.70,225.3,M,-33.2,M,,*76' 08-23-34-751
b'$GNVTG,272.87,T,,M,8.154,N,15.101,K,A*17' 08-23-34-777
b'$GNGGA,012314.25,4006.73568,N,08813.34142,W,1,05,1.70,225.2,M,-33.2,M,,*76' 08-23-34-801
b'$GNVTG,273.08,T,,M,8.364,N,15.490,K,A*1D' 08-23-34-826
b'$GNGGA,012314.30,4006.73567,N,08813.34154,W,1,05,1.70,225.2,M,-33.2,M,,*7A' 08-23-34-851
b'$GNVTG,273.57,T,,M,8.315,N,15.399,K,A*1F' 08-23-34-877
b'$GNGGA,012314.35,4006.73567,N,08813.34166,W,1,05,1.70,225.2,M,-33.2,M,,*7E' 08-23-34-900
b'$GNVTG,273.16,T,,M,8.279,N,15.332,K,A*10' 08-23-34-927
b'$GNGGA,012314.40,4006.73567,N,08813.34178,W,1,05,1.70,225.1,M,-33.2,M,,*70' 08-23-34-951
b'$GNVTG,272.45,T,,M,8.336,N,15.438,K,A*10' 08-23-34-977
b'$GNGGA,012314.45,4006.73566,N,08813.34190,W,1,05,1.70,225.1,M,-33.2,M,,*72' 08-23-35-001
b'$GNVTG,272.56,T,,M,8.622,N,15.968,K,A*1A' 08-23-35-027
b'$GNGGA,012314.50,4006.73566,N,08813.34204,W,1,05,1.70,225.1,M,-33.2,M,,*78' 08-23-35-051
b'$GNVTG,272.17,T,,M,8.661,N,16.040,K,A*18' 08-23-35-077
b'$GNGGA,012314.55,4006.73566,N,08813.34218,W,1,05,1.70,225.1,M,-33.2,M,,*70' 08-23-35-101
b'$GNVTG,271.63,T,,M,8.588,N,15.904,K,A*16' 08-23-35-127
b'$GNGGA,012314.60,4006.73566,N,08813.34233,W,1,05,1.70,225.0,M,-33.2,M,,*7E' 08-23-35-151
b'$GNVTG,271.69,T,,M,8.422,N,15.598,K,A*14' 08-23-35-176
b'$GNGGA,012314.65,4006.73567,N,08813.34246,W,1,05,1.70,225.0,M,-33.2,M,,*78' 08-23-35-200
b'$GNVTG,271.66,T,,M,8.782,N,16.264,K,A*15' 08-23-35-227
b'$GNGGA,012314.70,4006.73567,N,08813.34263,W,1,05,1.70,225.0,M,-33.2,M,,*7B' 08-23-35-251
b'$GNVTG,271.26,T,,M,8.854,N,16.397,K,A*18' 08-23-35-277
b'$GNGGA,012314.75,4006.73567,N,08813.34280,W,1,05,1.70,225.0,M,-33.2,M,,*73' 08-23-35-301
b'$GNVTG,271.34,T,,M,8.596,N,15.920,K,A*1D' 08-23-35-327
b'$GNGGA,012314.80,4006.73568,N,08813.34295,W,1,05,1.70,225.0,M,-33.2,M,,*72' 08-23-35-351
b'$GNVTG,271.43,T,,M,9.028,N,16.720,K,A*11' 08-23-35-378
b'$GNGGA,012314.85,4006.73569,N,08813.34314,W,1,05,1.70,225.1,M,-33.2,M,,*7F' 08-23-35-402
b'$GNVTG,270.72,T,,M,9.140,N,16.927,K,A*14' 08-23-35-427
b'$GNGGA,012314.90,4006.73569,N,08813.34332,W,1,05,1.70,225.1,M,-33.2,M,,*7F' 08-23-35-452
b'$GNVTG,268.65,T,,M,8.785,N,16.270,K,A*1C' 08-23-35-480
b'$GNGGA,012314.95,4006.73568,N,08813.34348,W,1,05,1.70,225.1,M,-33.2,M,,*76' 08-23-35-504
b'$GNVTG,267.69,T,,M,8.972,N,16.617,K,A*1C' 08-23-35-527
b'$GNGGA,012315.00,4006.73568,N,08813.34365,W,1,05,1.70,225.2,M,-33.2,M,,*77' 08-23-35-551
b'$GNVTG,267.51,T,,M,9.277,N,17.180,K,A*10' 08-23-35-577
b'$GNGGA,012315.05,4006.73567,N,08813.34383,W,1,05,1.70,225.2,M,-33.2,M,,*75' 08-23-35-601
b'$GNVTG,267.24,T,,M,9.197,N,17.033,K,A*16' 08-23-35-627
b'$GNGGA,012315.10,4006.73567,N,08813.34399,W,1,05,1.70,225.2,M,-33.2,M,,*7A' 08-23-35-651
b'$GNVTG,267.38,T,,M,9.197,N,17.034,K,A*1C' 08-23-35-677
b'$GNGGA,012315.15,4006.73566,N,08813.34415,W,1,05,1.70,225.2,M,-33.2,M,,*7D' 08-23-35-701
b'$GNVTG,267.76,T,,M,9.352,N,17.320,K,A*1B' 08-23-35-727
b'$GNGGA,012315.20,4006.73565,N,08813.34431,W,1,05,1.70,225.3,M,-33.2,M,,*7F' 08-23-35-751
b'$GNVTG,268.47,T,,M,9.523,N,17.636,K,A*14' 08-23-35-777
b'$GNGGA,012315.25,4006.73565,N,08813.34448,W,1,05,1.70,225.3,M,-33.2,M,,*74' 08-23-35-801
b'$GNVTG,268.04,T,,M,9.541,N,17.669,K,A*1D' 08-23-35-827
b'$GNGGA,012315.30,4006.73564,N,08813.34465,W,1,05,1.70,225.3,M,-33.2,M,,*7E' 08-23-35-851
b'$GNVTG,268.34,T,,M,9.479,N,17.555,K,A*18' 08-23-35-877
b'$GNGGA,012315.35,4006.73565,N,08813.34481,W,1,05,1.70,225.2,M,-33.2,M,,*71' 08-23-35-900
b'$GNVTG,269.08,T,,M,9.704,N,17.971,K,A*15' 08-23-35-927
b'$GNGGA,012315.40,4006.73565,N,08813.34499,W,1,05,1.70,225.2,M,-33.2,M,,*7A' 08-23-35-951
b'$GNVTG,269.04,T,,M,9.796,N,18.142,K,A*15' 08-23-35-977
b'$GNGGA,012315.45,4006.73565,N,08813.34517,W,1,05,1.70,225.2,M,-33.2,M,,*78' 08-23-36-001
b'$GNVTG,268.01,T,,M,9.798,N,18.146,K,A*1B' 08-23-36-027
b'$GNGGA,012315.50,4006.73564,N,08813.34535,W,1,05,1.70,225.2,M,-33.2,M,,*7D' 08-23-36-051
b'$GNVTG,263.93,T,,M,9.361,N,17.336,K,A*13' 08-23-36-076
b'$GNGGA,012315.55,4006.73559,N,08813.34552,W,1,05,1.70,225.4,M,-33.2,M,,*71' 08-23-36-100
b'$GNVTG,260.26,T,,M,9.401,N,17.411,K,A*1D' 08-23-36-127
b'$GNGGA,012315.60,4006.73552,N,08813.34568,W,1,05,1.70,225.6,M,-33.2,M,,*77' 08-23-36-151
b'$GNVTG,260.18,T,,M,9.992,N,18.505,K,A*1C' 08-23-36-177
b'$GNGGA,012315.65,4006.73550,N,08813.34586,W,1,05,1.70,225.6,M,-33.2,M,,*70' 08-23-36-200
b'$GNVTG,262.84,T,,M,10.135,N,18.770,K,A*26' 08-23-36-227
b'$GNGGA,012315.70,4006.73550,N,08813.34603,W,1,05,1.70,225.5,M,-33.2,M,,*79' 08-23-36-251
b'$GNVTG,264.53,T,,M,9.915,N,18.363,K,A*1E' 08-23-36-277
b'$GNGGA,012315.75,4006.73550,N,08813.34619,W,1,05,1.70,225.5,M,-33.2,M,,*77' 08-23-36-301
b'$GNVTG,265.19,T,,M,9.867,N,18.274,K,A*12' 08-23-36-327
b'$GNGGA,012315.80,4006.73549,N,08813.34635,W,1,05,1.70,225.5,M,-33.2,M,,*7B' 08-23-36-352
b'$GNVTG,264.72,T,,M,10.031,N,18.577,K,A*29' 08-23-36-377
b'$GNGGA,012315.85,4006.73547,N,08813.34654,W,1,05,1.70,225.5,M,-33.2,M,,*77' 08-23-36-401
b'$GNVTG,263.83,T,,M,10.178,N,18.850,K,A*24' 08-23-36-427
b'$GNGGA,012315.90,4006.73545,N,08813.34672,W,1,05,1.70,225.5,M,-33.2,M,,*75' 08-23-36-453
b'$GNVTG,263.21,T,,M,10.010,N,18.539,K,A*21' 08-23-36-480
b'$GNGGA,012315.95,4006.73543,N,08813.34689,W,1,05,1.70,225.5,M,-33.2,M,,*72' 08-23-36-504
b'$GNVTG,262.77,T,,M,9.986,N,18.493,K,A*1C' 08-23-36-527
b'$GNGGA,012316.00,4006.73541,N,08813.34705,W,1,05,1.70,225.5,M,-33.2,M,,*7A' 08-23-36-551
b'$GNVTG,264.02,T,,M,10.133,N,18.766,K,A*2F' 08-23-36-577
b'$GNGGA,012316.05,4006.73541,N,08813.34723,W,1,05,1.70,225.4,M,-33.2,M,,*7A' 08-23-36-601
b'$GNVTG,264.39,T,,M,10.047,N,18.607,K,A*23' 08-23-36-627
b'$GNGGA,012316.10,4006.73539,N,08813.34739,W,1,05,1.70,225.4,M,-33.2,M,,*7A' 08-23-36-651
b'$GNVTG,262.27,T,,M,9.912,N,18.357,K,A*1B' 08-23-36-677
b'$GNGGA,012316.15,4006.73536,N,08813.34756,W,1,05,1.70,225.5,M,-33.2,M,,*78' 08-23-36-701
b'$GNVTG,262.13,T,,M,10.078,N,18.664,K,A*24' 08-23-36-727
b'$GNGGA,012316.20,4006.73534,N,08813.34774,W,1,05,1.70,225.5,M,-33.2,M,,*7C' 08-23-36-751
b'$GNVTG,263.58,T,,M,10.158,N,18.813,K,A*27' 08-23-36-777
b'$GNGGA,012316.25,4006.73533,N,08813.34791,W,1,05,1.70,225.4,M,-33.2,M,,*74' 08-23-36-800
b'$GNVTG,263.67,T,,M,10.175,N,18.845,K,A*27' 08-23-36-827
b'$GNGGA,012316.30,4006.73531,N,08813.34809,W,1,05,1.70,225.4,M,-33.2,M,,*7C' 08-23-36-851
b'$GNVTG,263.19,T,,M,10.017,N,18.551,K,A*23' 08-23-36-877
b'$GNGGA,012316.35,4006.73529,N,08813.34826,W,1,05,1.70,225.4,M,-33.2,M,,*7D' 08-23-36-901
b'$GNVTG,262.76,T,,M,10.327,N,19.126,K,A*2E' 08-23-36-927
b'$GNGGA,012316.40,4006.73526,N,08813.34844,W,1,05,1.70,225.4,M,-33.2,M,,*74' 08-23-36-951
b'$GNVTG,262.30,T,,M,10.317,N,19.106,K,A*2D' 08-23-36-977
b'$GNGGA,012316.45,4006.73525,N,08813.34862,W,1,05,1.70,225.4,M,-33.2,M,,*76' 08-23-36-999
b'$GNVTG,262.76,T,,M,10.213,N,18.915,K,A*21' 08-23-37-027
b'$GNGGA,012316.50,4006.73523,N,08813.34879,W,1,05,1.70,225.4,M,-33.2,M,,*7E' 08-23-37-050
b'$GNVTG,262.93,T,,M,10.133,N,18.766,K,A*21' 08-23-37-077
b'$GNGGA,012316.55,4006.73522,N,08813.34896,W,1,05,1.70,225.4,M,-33.2,M,,*7B' 08-23-37-100
b'$GNVTG,262.06,T,,M,9.904,N,18.342,K,A*1B' 08-23-37-127
b'$GNGGA,012316.60,4006.73519,N,08813.34913,W,1,05,1.70,225.4,M,-33.2,M,,*79' 08-23-37-150
b'$GNVTG,261.90,T,,M,9.913,N,18.358,K,A*1A' 08-23-37-177
b'$GNGGA,012316.65,4006.73518,N,08813.34930,W,1,05,1.70,225.3,M,-33.2,M,,*7B' 08-23-37-200
b'$GNVTG,263.06,T,,M,10.048,N,18.608,K,A*28' 08-23-37-227
b'$GNGGA,012316.70,4006.73516,N,08813.34947,W,1,05,1.70,225.3,M,-33.2,M,,*71' 08-23-37-250
b'$GNVTG,263.50,T,,M,10.271,N,19.021,K,A*2F' 08-23-37-277
b'$GNGGA,012316.75,4006.73514,N,08813.34965,W,1,05,1.70,225.3,M,-33.2,M,,*76' 08-23-37-300
b'$GNVTG,263.64,T,,M,10.144,N,18.786,K,A*26' 08-23-37-327
b'$GNGGA,012316.80,4006.73512,N,08813.34983,W,1,05,1.70,225.4,M,-33.2,M,,*75' 08-23-37-350
b'$GNVTG,262.33,T,,M,9.901,N,18.336,K,A*1B' 08-23-37-377
b'$GNGGA,012316.85,4006.73510,N,08813.34999,W,1,05,1.70,225.4,M,-33.2,M,,*79' 08-23-37-400
b'$GNVTG,261.49,T,,M,9.851,N,18.245,K,A*14' 08-23-37-427
b'$GNGGA,012316.90,4006.73508,N,08813.35017,W,1,05,1.70,225.4,M,-33.2,M,,*7A' 08-23-37-450
b'$GNVTG,261.94,T,,M,10.039,N,18.592,K,A*27' 08-23-37-481
b'$GNGGA,012316.95,4006.73506,N,08813.35035,W,1,05,1.70,225.4,M,-33.2,M,,*71' 08-23-37-504
b'$GNVTG,262.38,T,,M,9.994,N,18.508,K,A*17' 08-23-37-526
b'$GNGGA,012317.00,4006.73504,N,08813.35052,W,1,05,1.70,225.4,M,-33.2,M,,*7F' 08-23-37-549
b'$GNVTG,263.51,T,,M,10.033,N,18.582,K,A*27' 08-23-37-577
b'$GNGGA,012317.05,4006.73502,N,08813.35070,W,1,05,1.70,225.4,M,-33.2,M,,*7C' 08-23-37-599
b'$GNVTG,263.60,T,,M,9.858,N,18.258,K,A*18' 08-23-37-627
b'$GNGGA,012317.10,4006.73501,N,08813.35087,W,1,05,1.70,225.4,M,-33.2,M,,*73' 08-23-37-651
b'$GNVTG,263.38,T,,M,9.835,N,18.214,K,A*16' 08-23-37-677
b'$GNGGA,012317.15,4006.73499,N,08813.35105,W,1,05,1.70,225.4,M,-33.2,M,,*7D' 08-23-37-699
b'$GNVTG,261.62,T,,M,9.919,N,18.370,K,A*17' 08-23-37-727
b'$GNGGA,012317.20,4006.73497,N,08813.35122,W,1,05,1.70,225.4,M,-33.2,M,,*70' 08-23-37-750
b'$GNVTG,261.97,T,,M,9.725,N,18.011,K,A*18' 08-23-37-777
b'$GNGGA,012317.25,4006.73495,N,08813.35138,W,1,05,1.70,225.4,M,-33.2,M,,*7C' 08-23-37-800
b'$GNVTG,262.34,T,,M,9.817,N,18.182,K,A*17' 08-23-37-827
b'$GNGGA,012317.30,4006.73493,N,08813.35155,W,1,05,1.70,225.3,M,-33.2,M,,*72' 08-23-37-850
b'$GNVTG,261.57,T,,M,9.726,N,18.012,K,A*14' 08-23-37-877
b'$GNGGA,012317.35,4006.73491,N,08813.35172,W,1,05,1.70,225.3,M,-33.2,M,,*70' 08-23-37-900
b'$GNVTG,260.02,T,,M,9.649,N,17.870,K,A*1E' 08-23-37-927
b'$GNGGA,012317.40,4006.73489,N,08813.35189,W,1,05,1.70,225.3,M,-33.2,M,,*7F' 08-23-37-950
b'$GNVTG,260.23,T,,M,9.757,N,18.070,K,A*14' 08-23-37-977
b'$GNGGA,012317.45,4006.73486,N,08813.35207,W,1,05,1.70,225.4,M,-33.2,M,,*77' 08-23-38-000
b'$GNVTG,260.01,T,,M,9.890,N,18.316,K,A*13' 08-23-38-027
b'$GNGGA,012317.50,4006.73484,N,08813.35224,W,1,05,1.70,225.3,M,-33.2,M,,*77' 08-23-38-050
b'$GNVTG,258.05,T,,M,9.788,N,18.127,K,A*1A' 08-23-38-077
b'$GNGGA,012317.55,4006.73481,N,08813.35241,W,1,05,1.70,225.3,M,-33.2,M,,*74' 08-23-38-100
b'$GNVTG,257.81,T,,M,9.648,N,17.868,K,A*19' 08-23-38-127
b'$GNGGA,012317.60,4006.73478,N,08813.35257,W,1,05,1.70,225.3,M,-33.2,M,,*73' 08-23-38-150
b'$GNVTG,258.26,T,,M,9.526,N,17.642,K,A*16' 08-23-38-177
b'$GNGGA,012317.65,4006.73476,N,08813.35273,W,1,05,1.70,225.3,M,-33.2,M,,*7E' 08-23-38-200
b'$GNVTG,258.45,T,,M,9.441,N,17.485,K,A*1A' 08-23-38-227
b'$GNGGA,012317.70,4006.73474,N,08813.35289,W,1,05,1.70,225.3,M,-33.2,M,,*7D' 08-23-38-250
b'$GNVTG,257.12,T,,M,9.596,N,17.773,K,A*16' 08-23-38-277
b'$GNGGA,012317.75,4006.73470,N,08813.35306,W,1,05,1.70,225.3,M,-33.2,M,,*7A' 08-23-38-300
b'$GNVTG,256.04,T,,M,9.994,N,18.509,K,A*1E' 08-23-38-327
b'$GNGGA,012317.80,4006.73465,N,08813.35323,W,1,05,1.70,225.3,M,-33.2,M,,*73' 08-23-38-350
b'$GNVTG,256.51,T,,M,9.260,N,17.149,K,A*11' 08-23-38-377
b'$GNGGA,012317.85,4006.73463,N,08813.35336,W,1,05,1.70,225.3,M,-33.2,M,,*74' 08-23-38-400
b'$GNVTG,256.39,T,,M,8.850,N,16.390,K,A*10' 08-23-38-426
b'$GNGGA,012317.90,4006.73461,N,08813.35349,W,1,05,1.70,225.3,M,-33.2,M,,*7A' 08-23-38-449
b'$GNVTG,255.89,T,,M,9.688,N,17.943,K,A*17' 08-23-38-480
b'$GNGGA,012317.95,4006.73457,N,08813.35368,W,1,05,1.70,225.2,M,-33.2,M,,*78' 08-23-38-503
b'$GNVTG,256.02,T,,M,9.565,N,17.715,K,A*1A' 08-23-38-527
b'$GNGGA,012318.00,4006.73454,N,08813.35383,W,1,05,1.70,225.2,M,-33.2,M,,*7D' 08-23-38-550
b'$GNVTG,255.83,T,,M,8.206,N,15.198,K,A*12' 08-23-38-577
b'$GNGGA,012318.05,4006.73452,N,08813.35393,W,1,05,1.70,225.2,M,-33.2,M,,*7F' 08-23-38-599
b'$GNVTG,254.17,T,,M,8.705,N,16.121,K,A*19' 08-23-38-627
b'$GNGGA,012318.10,4006.73448,N,08813.35407,W,1,05,1.70,225.2,M,-33.2,M,,*7A' 08-23-38-650
b'$GNVTG,254.39,T,,M,9.391,N,17.392,K,A*16' 08-23-38-677
b'$GNGGA,012318.15,4006.73444,N,08813.35424,W,1,05,1.70,225.1,M,-33.2,M,,*71' 08-23-38-700
b'$GNVTG,254.58,T,,M,8.959,N,16.593,K,A*18' 08-23-38-727
b'$GNGGA,012318.20,4006.73441,N,08813.35437,W,1,05,1.70,225.1,M,-33.2,M,,*70' 08-23-38-750
b'$GNVTG,253.33,T,,M,8.280,N,15.335,K,A*14' 08-23-38-776
b'$GNGGA,012318.25,4006.73438,N,08813.35449,W,1,05,1.70,225.1,M,-33.2,M,,*72' 08-23-38-799
b'$GNVTG,251.98,T,,M,9.165,N,16.974,K,A*12' 08-23-38-827
b'$GNGGA,012318.30,4006.73433,N,08813.35466,W,1,05,1.70,225.1,M,-33.2,M,,*70' 08-23-38-850
b'$GNVTG,251.36,T,,M,8.797,N,16.293,K,A*1E' 08-23-38-877
b'$GNGGA,012318.35,4006.73429,N,08813.35479,W,1,05,1.70,225.1,M,-33.2,M,,*70' 08-23-38-900
b'$GNVTG,250.23,T,,M,8.655,N,16.029,K,A*17' 08-23-38-927
b'$GNGGA,012318.40,4006.73425,N,08813.35492,W,1,05,1.70,225.1,M,-33.2,M,,*7B' 08-23-38-950
b'$GNVTG,248.65,T,,M,8.969,N,16.610,K,A*10' 08-23-38-977
b'$GNGGA,012318.45,4006.73419,N,08813.35507,W,1,05,1.70,225.0,M,-33.2,M,,*7D' 08-23-39-000
b'$GNVTG,247.50,T,,M,8.805,N,16.307,K,A*11' 08-23-39-027
b'$GNGGA,012318.50,4006.73415,N,08813.35520,W,1,05,1.70,225.0,M,-33.2,M,,*70' 08-23-39-050
b'$GNVTG,247.09,T,,M,8.429,N,15.611,K,A*1E' 08-23-39-077
b'$GNGGA,012318.55,4006.73411,N,08813.35532,W,1,05,1.70,225.0,M,-33.2,M,,*72' 08-23-39-099
b'$GNVTG,246.89,T,,M,9.003,N,16.673,K,A*1D' 08-23-39-127
b'$GNGGA,012318.60,4006.73406,N,08813.35548,W,1,05,1.70,225.0,M,-33.2,M,,*7F' 08-23-39-150
b'$GNVTG,246.65,T,,M,8.494,N,15.731,K,A*10' 08-23-39-177
b'$GNGGA,012318.65,4006.73402,N,08813.35560,W,1,05,1.70,225.0,M,-33.2,M,,*74' 08-23-39-200
b'$GNVTG,247.39,T,,M,7.579,N,14.036,K,A*14' 08-23-39-227
b'$GNGGA,012318.70,4006.73401,N,08813.35569,W,1,05,1.70,224.9,M,-33.2,M,,*72' 08-23-39-250
b'$GNVTG,247.55,T,,M,6.840,N,12.668,K,A*13' 08-23-39-277
b'$GNGGA,012318.75,4006.73398,N,08813.35578,W,1,05,1.70,224.9,M,-33.2,M,,*70' 08-23-39-300
b'$GNVTG,247.02,T,,M,7.009,N,12.982,K,A*1E' 08-23-39-326
b'$GNGGA,012318.80,4006.73393,N,08813.35590,W,1,05,1.70,224.9,M,-33.2,M,,*77' 08-23-39-349
b'$GNVTG,246.09,T,,M,7.578,N,14.035,K,A*14' 08-23-39-377
b'$GNGGA,012318.85,4006.73388,N,08813.35603,W,1,05,1.70,224.9,M,-33.2,M,,*71' 08-23-39-399
b'$GNVTG,245.26,T,,M,8.917,N,16.514,K,A*14' 08-23-39-427
b'$GNGGA,012318.90,4006.73381,N,08813.35621,W,1,05,1.70,224.9,M,-33.2,M,,*7C' 08-23-39-450
b'$GNVTG,245.35,T,,M,8.967,N,16.607,K,A*10' 08-23-39-480
b'$GNGGA,012318.95,4006.73377,N,08813.35636,W,1,05,1.70,224.9,M,-33.2,M,,*76' 08-23-39-503
b'$GNVTG,246.03,T,,M,7.747,N,14.348,K,A*19' 08-23-39-527
b'$GNGGA,012319.00,4006.73374,N,08813.35645,W,1,05,1.70,224.9,M,-33.2,M,,*7C' 08-23-39-550
b'$GNVTG,246.31,T,,M,8.211,N,15.207,K,A*1A' 08-23-39-577
b'$GNGGA,012319.05,4006.73369,N,08813.35660,W,1,05,1.70,224.9,M,-33.2,M,,*72' 08-23-39-600
b'$GNVTG,245.76,T,,M,8.586,N,15.902,K,A*1D' 08-23-39-627
b'$GNGGA,012319.10,4006.73364,N,08813.35675,W,1,05,1.70,224.9,M,-33.2,M,,*7F' 08-23-39-650
b'$GNVTG,245.52,T,,M,8.164,N,15.120,K,A*1B' 08-23-39-676
b'$GNGGA,012319.15,4006.73360,N,08813.35687,W,1,05,1.70,224.9,M,-33.2,M,,*73' 08-23-39-699
b'$GNVTG,245.10,T,,M,8.622,N,15.967,K,A*13' 08-23-39-727
b'$GNGGA,012319.20,4006.73354,N,08813.35702,W,1,05,1.70,224.9,M,-33.2,M,,*7E' 08-23-39-750
b'$GNVTG,244.95,T,,M,7.650,N,14.168,K,A*13' 08-23-39-776
b'$GNGGA,012319.25,4006.73351,N,08813.35712,W,1,05,1.70,224.9,M,-33.2,M,,*7F' 08-23-39-799
b'$GNGGA,012319.30,4006.73347,N,08813.35722,W,1,05,1.70,224.9,M,-33.2,M,,*7F' 08-23-39-828
b'$GNVTG,244.61,T,,M,7.361,N,13.633,K,A*11' 08-23-39-877
b'$GNGGA,012319.35,4006.73343,N,08813.35734,W,1,05,1.70,224.9,M,-33.2,M,,*79' 08-23-39-900
b'$GNVTG,244.55,T,,M,7.682,N,14.227,K,A*18' 08-23-39-927
b'$GNGGA,012319.40,4006.73337,N,08813.35748,W,1,05,1.70,224.9,M,-33.2,M,,*73' 08-23-39-950
b'$GNVTG,243.98,T,,M,7.705,N,14.271,K,A*13' 08-23-39-977
b'$GNGGA,012319.45,4006.73332,N,08813.35760,W,1,05,1.70,224.9,M,-33.2,M,,*79' 08-23-40-000
b'$GNVTG,243.56,T,,M,7.844,N,14.526,K,A*1E' 08-23-40-027
b'$GNGGA,012319.50,4006.73327,N,08813.35773,W,1,05,1.70,225.0,M,-33.2,M,,*73' 08-23-40-050
b'$GNVTG,243.40,T,,M,8.120,N,15.038,K,A*16' 08-23-40-077
b'$GNGGA,012319.55,4006.73321,N,08813.35787,W,1,05,1.70,225.0,M,-33.2,M,,*7B' 08-23-40-100
b'$GNVTG,242.78,T,,M,8.566,N,15.864,K,A*1B' 08-23-40-127
b'$GNGGA,012319.60,4006.73314,N,08813.35802,W,1,05,1.70,225.0,M,-33.2,M,,*79' 08-23-40-150
b'$GNVTG,242.35,T,,M,8.690,N,16.094,K,A*1C' 08-23-40-177
b'$GNGGA,012319.65,4006.73308,N,08813.35817,W,1,05,1.70,225.1,M,-33.2,M,,*74' 08-23-40-200
b'$GNVTG,242.25,T,,M,8.369,N,15.500,K,A*15' 08-23-40-227
b'$GNGGA,012319.70,4006.73301,N,08813.35829,W,1,05,1.70,225.1,M,-33.2,M,,*74' 08-23-40-250
b'$GNVTG,242.32,T,,M,8.333,N,15.434,K,A*1A' 08-23-40-277
b'$GNGGA,012319.75,4006.73295,N,08813.35842,W,1,05,1.70,225.2,M,-33.2,M,,*73' 08-23-40-299
b'$GNVTG,241.96,T,,M,8.351,N,15.466,K,A*14' 08-23-40-327
b'$GNGGA,012319.80,4006.73289,N,08813.35855,W,1,05,1.70,225.3,M,-33.2,M,,*73' 08-23-40-350
b'$GNVTG,242.13,T,,M,8.472,N,15.690,K,A*17' 08-23-40-377
b'$GNGGA,012319.85,4006.73282,N,08813.35869,W,1,05,1.70,225.3,M,-33.2,M,,*72' 08-23-40-400
b'$GNVTG,242.70,T,,M,8.479,N,15.703,K,A*12' 08-23-40-427
b'$GNGGA,012319.90,4006.73276,N,08813.35883,W,1,05,1.70,225.4,M,-33.2,M,,*7E' 08-23-40-450
b'$GNVTG,243.05,T,,M,8.379,N,15.518,K,A*1E' 08-23-40-481
b'$GNGGA,012319.95,4006.73272,N,08813.35896,W,1,05,1.70,225.4,M,-33.2,M,,*7B' 08-23-40-504
b'$GNVTG,243.75,T,,M,8.296,N,15.364,K,A*14' 08-23-40-527
b'$GNGGA,012320.00,4006.73267,N,08813.35910,W,1,05,1.70,225.4,M,-33.2,M,,*76' 08-23-40-550
b'$GNVTG,244.41,T,,M,8.335,N,15.436,K,A*1C' 08-23-40-577
b'$GNGGA,012320.05,4006.73263,N,08813.35923,W,1,05,1.70,225.4,M,-33.2,M,,*77' 08-23-40-600
b'$GNVTG,245.06,T,,M,8.228,N,15.238,K,A*1B' 08-23-40-627
b'$GNGGA,012320.10,4006.73260,N,08813.35937,W,1,05,1.70,225.4,M,-33.2,M,,*75' 08-23-40-650
b'$GNVTG,245.57,T,,M,8.240,N,15.260,K,A*1C' 08-23-40-677
b'$GNGGA,012320.15,4006.73255,N,08813.35950,W,1,05,1.70,225.4,M,-33.2,M,,*77' 08-23-40-700
b'$GNVTG,245.88,T,,M,8.201,N,15.189,K,A*1F' 08-23-40-727
b'$GNGGA,012320.20,4006.73250,N,08813.35964,W,1,05,1.70,225.4,M,-33.2,M,,*73' 08-23-40-750
b'$GNVTG,244.68,T,,M,8.166,N,15.123,K,A*12' 08-23-40-777
b'$GNGGA,012320.25,4006.73245,N,08813.35977,W,1,05,1.70,225.4,M,-33.2,M,,*70' 08-23-40-800
b'$GNVTG,244.84,T,,M,8.034,N,14.879,K,A*11' 08-23-40-827
b'$GNGGA,012320.30,4006.73241,N,08813.35990,W,1,05,1.70,225.4,M,-33.2,M,,*79' 08-23-40-850
b'$GNVTG,244.13,T,,M,8.090,N,14.983,K,A*15' 08-23-40-877
b'$GNGGA,012320.35,4006.73235,N,08813.36004,W,1,05,1.70,225.5,M,-33.2,M,,*79' 08-23-40-900
b'$GNVTG,243.86,T,,M,8.088,N,14.979,K,A*12' 08-23-40-927
b'$GNGGA,012320.40,4006.73230,N,08813.36017,W,1,05,1.70,225.5,M,-33.2,M,,*7C' 08-23-40-950
b'$GNVTG,242.66,T,,M,8.022,N,14.857,K,A*10' 08-23-40-977
b'$GNGGA,012320.45,4006.73225,N,08813.36029,W,1,05,1.70,225.5,M,-33.2,M,,*70' 08-23-41-000
b'$GNVTG,241.72,T,,M,8.034,N,14.880,K,A*1B' 08-23-41-027
b'$GNGGA,012320.50,4006.73220,N,08813.36042,W,1,05,1.70,225.5,M,-33.2,M,,*7C' 08-23-41-050
b'$GNVTG,240.95,T,,M,7.981,N,14.781,K,A*15' 08-23-41-077
b'$GNGGA,012320.55,4006.73215,N,08813.36055,W,1,05,1.70,225.5,M,-33.2,M,,*79' 08-23-41-100
b'$GNVTG,239.97,T,,M,7.876,N,14.586,K,A*15' 08-23-41-127
b'$GNGGA,012320.60,4006.73210,N,08813.36067,W,1,05,1.70,225.5,M,-33.2,M,,*7B' 08-23-41-149
b'$GNVTG,239.26,T,,M,7.754,N,14.360,K,A*1E' 08-23-41-177
b'$GNGGA,012320.65,4006.73205,N,08813.36078,W,1,05,1.70,225.5,M,-33.2,M,,*74' 08-23-41-200
b'$GNVTG,237.44,T,,M,7.778,N,14.405,K,A*1E' 08-23-41-227
b'$GNGGA,012320.70,4006.73198,N,08813.36090,W,1,05,1.70,225.5,M,-33.2,M,,*71' 08-23-41-250
b'$GNVTG,235.98,T,,M,7.865,N,14.566,K,A*1A' 08-23-41-277
b'$GNGGA,012320.75,4006.73192,N,08813.36102,W,1,05,1.70,225.5,M,-33.2,M,,*74' 08-23-41-300
b'$GNVTG,234.54,T,,M,7.737,N,14.329,K,A*1E' 08-23-41-327
b'$GNGGA,012320.80,4006.73187,N,08813.36113,W,1,05,1.70,225.4,M,-33.2,M,,*7B' 08-23-41-350
b'$GNVTG,234.09,T,,M,7.756,N,14.364,K,A*18' 08-23-41-377
b'$GNGGA,012320.85,4006.73181,N,08813.36124,W,1,05,1.70,225.4,M,-33.2,M,,*7C' 08-23-41-400
b'$GNVTG,234.11,T,,M,7.800,N,14.445,K,A*19' 08-23-41-427
b'$GNGGA,012320.90,4006.73174,N,08813.36136,W,1,05,1.70,225.4,M,-33.2,M,,*71' 08-23-41-450
b'$GNVTG,233.22,T,,M,7.663,N,14.192,K,A*1A' 08-23-41-481
b'$GNGGA,012320.95,4006.73168,N,08813.36147,W,1,05,1.70,225.5,M,-33.2,M,,*7E' 08-23-41-504
b'$GNVTG,231.65,T,,M,7.656,N,14.178,K,A*19' 08-23-41-527
b'$GNGGA,012321.00,4006.73160,N,08813.36158,W,1,05,1.70,225.5,M,-33.2,M,,*75' 08-23-41-550
b'$GNVTG,231.20,T,,M,7.616,N,14.104,K,A*17' 08-23-41-577
b'$GNGGA,012321.05,4006.73153,N,08813.36169,W,1,05,1.70,225.5,M,-33.2,M,,*72' 08-23-41-600
b'$GNVTG,231.05,T,,M,7.616,N,14.104,K,A*10' 08-23-41-627
b'$GNGGA,012321.10,4006.73145,N,08813.36180,W,1,05,1.70,225.6,M,-33.2,M,,*75' 08-23-41-650
b'$GNVTG,230.37,T,,M,7.587,N,14.051,K,A*1A' 08-23-41-677
b'$GNGGA,012321.15,4006.73138,N,08813.36190,W,1,05,1.70,225.6,M,-33.2,M,,*7B' 08-23-41-700
b'$GNVTG,228.00,T,,M,7.494,N,13.879,K,A*11' 08-23-41-727
b'$GNGGA,012321.20,4006.73129,N,08813.36200,W,1,05,1.70,225.7,M,-33.2,M,,*76' 08-23-41-750
b'$GNVTG,226.88,T,,M,7.430,N,13.760,K,A*16' 08-23-41-777
b'$GNGGA,012321.25,4006.73120,N,08813.36210,W,1,05,1.70,225.8,M,-33.2,M,,*74' 08-23-41-800
b'$GNVTG,226.79,T,,M,7.411,N,13.726,K,A*19' 08-23-41-827
b'$GNGGA,012321.30,4006.73113,N,08813.36220,W,1,05,1.70,225.8,M,-33.2,M,,*73' 08-23-41-851
b'$GNVTG,226.48,T,,M,7.450,N,13.797,K,A*14' 08-23-41-877
b'$GNGGA,012321.35,4006.73105,N,08813.36230,W,1,05,1.70,225.8,M,-33.2,M,,*70' 08-23-41-900
b'$GNVTG,225.57,T,,M,7.297,N,13.515,K,A*1C' 08-23-41-927
b'$GNGGA,012321.40,4006.73097,N,08813.36239,W,1,05,1.70,225.8,M,-33.2,M,,*71' 08-23-41-950
b'$GNVTG,223.85,T,,M,7.318,N,13.553,K,A*11' 08-23-41-978
b'$GNGGA,012321.45,4006.73089,N,08813.36248,W,1,05,1.70,225.9,M,-33.2,M,,*7C' 08-23-42-001
b'$GNVTG,222.24,T,,M,7.285,N,13.492,K,A*12' 08-23-42-027
b'$GNGGA,012321.50,4006.73081,N,08813.36257,W,1,05,1.70,225.9,M,-33.2,M,,*7E' 08-23-42-050
b'$GNVTG,220.57,T,,M,7.168,N,13.274,K,A*1A' 08-23-42-077
b'$GNGGA,012321.55,4006.73073,N,08813.36265,W,1,05,1.70,225.9,M,-33.2,M,,*77' 08-23-42-100
b'$GNVTG,218.12,T,,M,7.131,N,13.206,K,A*19' 08-23-42-128
b'$GNGGA,012321.60,4006.73064,N,08813.36273,W,1,05,1.70,226.0,M,-33.2,M,,*7A' 08-23-42-151
b'$GNVTG,216.66,T,,M,7.145,N,13.232,K,A*10' 08-23-42-177
b'$GNGGA,012321.65,4006.73056,N,08813.36281,W,1,05,1.70,226.0,M,-33.2,M,,*73' 08-23-42-201
b'$GNVTG,215.23,T,,M,7.116,N,13.180,K,A*1E' 08-23-42-227
b'$GNGGA,012321.70,4006.73047,N,08813.36288,W,1,05,1.70,226.0,M,-33.2,M,,*7E' 08-23-42-250
b'$GNVTG,213.36,T,,M,7.207,N,13.347,K,A*16' 08-23-42-277
b'$GNGGA,012321.75,4006.73038,N,08813.36295,W,1,05,1.70,226.0,M,-33.2,M,,*7F' 08-23-42-300
b'$GNVTG,211.10,T,,M,7.068,N,13.090,K,A*12' 08-23-42-327
b'$GNGGA,012321.80,4006.73029,N,08813.36301,W,1,05,1.70,226.1,M,-33.2,M,,*78' 08-23-42-350
b'$GNVTG,208.63,T,,M,7.005,N,12.974,K,A*17' 08-23-42-377
b'$GNGGA,012321.85,4006.73020,N,08813.36307,W,1,05,1.70,226.1,M,-33.2,M,,*72' 08-23-42-400
b'$GNVTG,206.10,T,,M,7.000,N,12.964,K,A*19' 08-23-42-428
b'$GNGGA,012321.90,4006.73011,N,08813.36312,W,1,05,1.70,226.1,M,-33.2,M,,*70' 08-23-42-450
b'$GNVTG,203.74,T,,M,7.125,N,13.195,K,A*1F' 08-23-42-481
b'$GNGGA,012321.95,4006.73002,N,08813.36317,W,1,05,1.70,226.1,M,-33.2,M,,*72' 08-23-42-504
b'$GNVTG,200.93,T,,M,6.960,N,12.890,K,A*10' 08-23-42-527
b'$GNGGA,012322.00,4006.72993,N,08813.36321,W,1,05,1.70,226.1,M,-33.2,M,,*78' 08-23-42-550
b'$GNVTG,197.78,T,,M,7.094,N,13.138,K,A*11' 08-23-42-577
b'$GNGGA,012322.05,4006.72983,N,08813.36324,W,1,05,1.70,226.1,M,-33.2,M,,*79' 08-23-42-600
b'$GNVTG,194.66,T,,M,7.120,N,13.187,K,A*17' 08-23-42-628
b'$GNGGA,012322.10,4006.72973,N,08813.36327,W,1,05,1.70,226.2,M,-33.2,M,,*72' 08-23-42-650
b'$GNVTG,192.22,T,,M,7.014,N,12.991,K,A*19' 08-23-42-677
b'$GNGGA,012322.15,4006.72964,N,08813.36329,W,1,05,1.70,226.1,M,-33.2,M,,*7C' 08-23-42-700
b'$GNVTG,189.83,T,,M,6.899,N,12.777,K,A*12' 08-23-42-728
b'$GNGGA,012322.20,4006.72955,N,08813.36330,W,1,05,1.70,226.1,M,-33.2,M,,*70' 08-23-42-751
b'$GNVTG,187.10,T,,M,7.010,N,12.982,K,A*1A' 08-23-42-777
b'$GNGGA,012322.25,4006.72946,N,08813.36331,W,1,05,1.70,226.1,M,-33.2,M,,*76' 08-23-42-800
b'$GNVTG,184.93,T,,M,6.910,N,12.796,K,A*11' 08-23-42-827
b'$GNGGA,012322.30,4006.72936,N,08813.36332,W,1,05,1.70,226.1,M,-33.2,M,,*76' 08-23-42-851
b'$GNVTG,183.13,T,,M,6.794,N,12.582,K,A*1B' 08-23-42-877
b'$GNGGA,012322.35,4006.72927,N,08813.36332,W,1,05,1.70,226.1,M,-33.2,M,,*73' 08-23-42-900
b'$GNVTG,181.18,T,,M,6.792,N,12.578,K,A*11' 08-23-42-927
b'$GNGGA,012322.40,4006.72918,N,08813.36331,W,1,05,1.70,226.1,M,-33.2,M,,*7E' 08-23-42-950
b'$GNVTG,180.22,T,,M,6.710,N,12.427,K,A*18' 08-23-42-977
b'$GNGGA,012322.45,4006.72909,N,08813.36331,W,1,05,1.70,226.1,M,-33.2,M,,*7B' 08-23-43-000
b'$GNVTG,179.71,T,,M,6.526,N,12.087,K,A*11' 08-23-43-027
b'$GNGGA,012322.50,4006.72900,N,08813.36331,W,1,05,1.70,226.1,M,-33.2,M,,*76' 08-23-43-050
b'$GNVTG,178.79,T,,M,6.399,N,11.852,K,A*19' 08-23-43-077
b'$GNGGA,012322.55,4006.72891,N,08813.36331,W,1,05,1.70,226.1,M,-33.2,M,,*7A' 08-23-43-100
b'$GNVTG,177.04,T,,M,6.504,N,12.045,K,A*13' 08-23-43-127
b'$GNGGA,012322.60,4006.72882,N,08813.36330,W,1,05,1.70,226.1,M,-33.2,M,,*7F' 08-23-43-150
b'$GNVTG,175.82,T,,M,6.498,N,12.034,K,A*1D' 08-23-43-177
b'$GNGGA,012322.65,4006.72874,N,08813.36329,W,1,05,1.70,226.1,M,-33.2,M,,*7B' 08-23-43-200
b'$GNVTG,175.96,T,,M,6.347,N,11.754,K,A*1F' 08-23-43-227
b'$GNGGA,012322.70,4006.72865,N,08813.36328,W,1,05,1.70,226.1,M,-33.2,M,,*7E' 08-23-43-250
b'$GNVTG,176.72,T,,M,6.065,N,11.233,K,A*11' 08-23-43-277
b'$GNGGA,012322.75,4006.72857,N,08813.36328,W,1,05,1.70,226.1,M,-33.2,M,,*7A' 08-23-43-300
b'$GNVTG,177.24,T,,M,5.939,N,10.999,K,A*1A' 08-23-43-328
b'$GNGGA,012322.80,4006.72849,N,08813.36328,W,1,05,1.70,226.1,M,-33.2,M,,*7F' 08-23-43-352
b'$GNVTG,177.17,T,,M,5.902,N,10.930,K,A*11' 08-23-43-377
b'$GNGGA,012322.85,4006.72841,N,08813.36328,W,1,05,1.70,226.1,M,-33.2,M,,*72' 08-23-43-400
b'$GNVTG,176.86,T,,M,6.005,N,11.121,K,A*1C' 08-23-43-428
b'$GNGGA,012322.90,4006.72833,N,08813.36327,W,1,05,1.70,226.1,M,-33.2,M,,*7C' 08-23-43-450
b'$GNVTG,177.31,T,,M,6.039,N,11.185,K,A*10' 08-23-43-482
b'$GNGGA,012322.95,4006.72825,N,08813.36328,W,1,05,1.70,226.1,M,-33.2,M,,*71' 08-23-43-505
b'$GNVTG,178.29,T,,M,5.985,N,11.084,K,A*1B' 08-23-43-527
b'$GNGGA,012323.00,4006.72817,N,08813.36328,W,1,05,1.70,226.1,M,-33.2,M,,*7D' 08-23-43-550
b'$GNVTG,178.98,T,,M,5.924,N,10.970,K,A*19' 08-23-43-577
b'$GNGGA,012323.05,4006.72809,N,08813.36328,W,1,05,1.70,226.0,M,-33.2,M,,*76' 08-23-43-600
b'$GNVTG,179.42,T,,M,5.896,N,10.919,K,A*18' 08-23-43-628
b'$GNGGA,012323.10,4006.72801,N,08813.36329,W,1,05,1.70,226.0,M,-33.2,M,,*7B' 08-23-43-651
b'$GNVTG,181.18,T,,M,5.978,N,11.072,K,A*14' 08-23-43-678
b'$GNGGA,012323.15,4006.72793,N,08813.36330,W,1,05,1.70,226.0,M,-33.2,M,,*72' 08-23-43-701
b'$GNVTG,180.96,T,,M,6.055,N,11.214,K,A*14' 08-23-43-728
b'$GNGGA,012323.20,4006.72785,N,08813.36330,W,1,05,1.70,226.0,M,-33.2,M,,*73' 08-23-43-750
b'$GNVTG,180.05,T,,M,6.134,N,11.360,K,A*1A' 08-23-43-777
b'$GNGGA,012323.25,4006.72776,N,08813.36330,W,1,05,1.70,226.0,M,-33.2,M,,*7A' 08-23-43-800
b'$GNVTG,179.68,T,,M,5.941,N,11.002,K,A*19' 08-23-43-827
b'$GNGGA,012323.30,4006.72768,N,08813.36330,W,1,05,1.70,226.0,M,-33.2,M,,*71' 08-23-43-850
b'$GNVTG,180.88,T,,M,6.096,N,11.290,K,A*18' 08-23-43-877
b'$GNGGA,012323.35,4006.72760,N,08813.36331,W,1,05,1.70,226.0,M,-33.2,M,,*7D' 08-23-43-900
b'$GNVTG,181.24,T,,M,6.163,N,11.414,K,A*1E' 08-23-43-928
b'$GNGGA,012323.40,4006.72751,N,08813.36332,W,1,05,1.70,226.0,M,-33.2,M,,*7E' 08-23-43-951
b'$GNVTG,180.77,T,,M,5.989,N,11.092,K,A*1C' 08-23-43-977
b'$GNGGA,012323.45,4006.72744,N,08813.36332,W,1,05,1.70,226.0,M,-33.2,M,,*7F' 08-23-44-000
b'$GNVTG,180.99,T,,M,6.049,N,11.204,K,A*17' 08-23-44-028
b'$GNGGA,012323.50,4006.72736,N,08813.36333,W,1,05,1.70,226.0,M,-33.2,M,,*7F' 08-23-44-050
b'$GNVTG,181.59,T,,M,6.080,N,11.260,K,A*1D' 08-23-44-078
b'$GNGGA,012323.55,4006.72728,N,08813.36333,W,1,05,1.70,225.9,M,-33.2,M,,*7F' 08-23-44-101
b'$GNVTG,181.35,T,,M,6.138,N,11.368,K,A*1C' 08-23-44-128
b'$GNGGA,012323.60,4006.72720,N,08813.36334,W,1,05,1.70,225.9,M,-33.2,M,,*76' 08-23-44-150
b'$GNVTG,180.93,T,,M,6.076,N,11.252,K,A*12' 08-23-44-177
b'$GNGGA,012323.65,4006.72712,N,08813.36334,W,1,05,1.70,225.9,M,-33.2,M,,*72' 08-23-44-201
b'$GNVTG,180.83,T,,M,6.004,N,11.119,K,A*1A' 08-23-44-228
b'$GNGGA,012323.70,4006.72704,N,08813.36335,W,1,05,1.70,225.9,M,-33.2,M,,*70' 08-23-44-251
b'$GNVTG,180.99,T,,M,5.976,N,11.067,K,A*16' 08-23-44-278
b'$GNGGA,012323.75,4006.72696,N,08813.36335,W,1,05,1.70,225.9,M,-33.2,M,,*7F' 08-23-44-301
b'$GNVTG,180.71,T,,M,5.913,N,10.952,K,A*1D' 08-23-44-328
b'$GNGGA,012323.80,4006.72688,N,08813.36335,W,1,05,1.70,225.9,M,-33.2,M,,*7A' 08-23-44-351
b'$GNVTG,180.62,T,,M,5.989,N,11.092,K,A*18' 08-23-44-378
b'$GNGGA,012323.85,4006.72680,N,08813.36336,W,1,05,1.70,225.9,M,-33.2,M,,*74' 08-23-44-400
b'$GNVTG,180.65,T,,M,5.955,N,11.028,K,A*1F' 08-23-44-427
b'$GNGGA,012323.90,4006.72672,N,08813.36336,W,1,05,1.70,225.9,M,-33.2,M,,*7D' 08-23-44-450
b'$GNVTG,181.00,T,,M,5.996,N,11.104,K,A*1D' 08-23-44-482
b'$GNGGA,012323.95,4006.72664,N,08813.36337,W,1,05,1.70,225.9,M,-33.2,M,,*7E' 08-23-44-505
b'$GNVTG,181.02,T,,M,5.856,N,10.846,K,A*1C' 08-23-44-528
b'$GNGGA,012324.00,4006.72656,N,08813.36337,W,1,05,1.70,225.8,M,-33.2,M,,*75' 08-23-44-550
b'$GNVTG,180.30,T,,M,6.018,N,11.145,K,A*16' 08-23-44-578
b'$GNGGA,012324.05,4006.72648,N,08813.36337,W,1,05,1.70,225.9,M,-33.2,M,,*7E' 08-23-44-600
b'$GNVTG,179.50,T,,M,5.961,N,11.040,K,A*16' 08-23-44-637
b'$GNGGA,012324.10,4006.72640,N,08813.36337,W,1,10,1.07,225.8,M,-33.2,M,,*77' 08-23-44-660
b'$GNVTG,178.19,T,,M,5.987,N,11.088,K,A*16' 08-23-44-682
b'$GNGGA,012324.15,4006.72632,N,08813.36336,W,1,10,1.07,225.8,M,-33.2,M,,*76' 08-23-44-704
b'$GNVTG,176.64,T,,M,5.854,N,10.841,K,A*11' 08-23-44-729
b'$GNGGA,012324.20,4006.72624,N,08813.36335,W,1,10,1.07,225.8,M,-33.2,M,,*74' 08-23-44-752
b'$GNVTG,174.93,T,,M,5.710,N,10.575,K,A*1E' 08-23-44-786
b'$GNGGA,012324.25,4006.72619,N,08813.36331,W,1,10,1.07,225.7,M,-33.2,M,,*74' 08-23-44-809
b'$GNVTG,172.75,T,,M,5.817,N,10.773,K,A*1C' 08-23-44-830
b'$GNGGA,012324.30,4006.72612,N,08813.36326,W,1,10,1.07,225.7,M,-33.2,M,,*7D' 08-23-44-853
b'$GNVTG,171.02,T,,M,5.882,N,10.894,K,A*15' 08-23-44-879
b'$GNGGA,012324.35,4006.72606,N,08813.36322,W,1,10,1.07,225.6,M,-33.2,M,,*78' 08-23-44-902
b'$GNVTG,169.43,T,,M,5.958,N,11.034,K,A*1C' 08-23-44-929
b'$GNGGA,012324.40,4006.72599,N,08813.36317,W,1,10,1.07,225.6,M,-33.2,M,,*79' 08-23-44-952
b'$GNVTG,167.62,T,,M,5.900,N,10.927,K,A*16' 08-23-44-980
b'$GNGGA,012324.45,4006.72593,N,08813.36313,W,1,10,1.07,225.5,M,-33.2,M,,*71' 08-23-45-003
b'$GNVTG,166.44,T,,M,5.781,N,10.706,K,A*19' 08-23-45-029
b'$GNGGA,012324.50,4006.72587,N,08813.36308,W,1,10,1.07,225.5,M,-33.2,M,,*7A' 08-23-45-052
b'$GNVTG,167.40,T,,M,5.801,N,10.743,K,A*1A' 08-23-45-079
b'$GNGGA,012324.55,4006.72581,N,08813.36304,W,1,10,1.07,225.4,M,-33.2,M,,*74' 08-23-45-102
b'$GNVTG,167.04,T,,M,5.701,N,10.558,K,A*1D' 08-23-45-130
b'$GNGGA,012324.60,4006.72575,N,08813.36300,W,1,10,1.07,225.3,M,-33.2,M,,*7A' 08-23-45-153
b'$GNVTG,165.12,T,,M,5.732,N,10.615,K,A*12' 08-23-45-179
b'$GNGGA,012324.65,4006.72569,N,08813.36295,W,1,10,1.07,225.3,M,-33.2,M,,*7F' 08-23-45-202
b'$GNVTG,163.72,T,,M,5.758,N,10.665,K,A*19' 08-23-45-229
b'$GNGGA,012324.70,4006.72563,N,08813.36290,W,1,10,1.07,225.2,M,-33.2,M,,*75' 08-23-45-253
b'$GNVTG,162.16,T,,M,5.729,N,10.610,K,A*1E' 08-23-45-280
b'$GNGGA,012324.75,4006.72557,N,08813.36285,W,1,10,1.07,225.2,M,-33.2,M,,*73' 08-23-45-303
b'$GNVTG,161.31,T,,M,5.684,N,10.528,K,A*16' 08-23-45-330
b'$GNGGA,012324.80,4006.72551,N,08813.36280,W,1,10,1.07,225.1,M,-33.2,M,,*79' 08-23-45-353
b'$GNVTG,160.32,T,,M,5.757,N,10.661,K,A*15' 08-23-45-380
b'$GNGGA,012324.85,4006.72545,N,08813.36274,W,1,10,1.07,225.1,M,-33.2,M,,*72' 08-23-45-403
b'$GNVTG,159.58,T,,M,5.631,N,10.429,K,A*1C' 08-23-45-430
b'$GNGGA,012324.90,4006.72539,N,08813.36269,W,1,10,1.07,225.0,M,-33.2,M,,*70' 08-23-45-454
b'$GNVTG,157.67,T,,M,5.662,N,10.487,K,A*1C' 08-23-45-484
b'$GNGGA,012324.95,4006.72533,N,08813.36263,W,1,10,1.07,225.0,M,-33.2,M,,*75' 08-23-45-507
b'$GNVTG,156.16,T,,M,5.547,N,10.273,K,A*12' 08-23-45-531
b'$GNGGA,012325.00,4006.72528,N,08813.36258,W,1,10,1.07,224.9,M,-33.2,M,,*72' 08-23-45-554
b'$GNVTG,154.11,T,,M,5.711,N,10.576,K,A*14' 08-23-45-581
b'$GNGGA,012325.05,4006.72522,N,08813.36251,W,1,10,1.07,224.9,M,-33.2,M,,*74' 08-23-45-604
b'$GNVTG,153.16,T,,M,5.671,N,10.503,K,A*11' 08-23-45-631
b'$GNGGA,012325.10,4006.72516,N,08813.36245,W,1,10,1.07,224.9,M,-33.2,M,,*72' 08-23-45-654
b'$GNVTG,152.21,T,,M,5.573,N,10.320,K,A*12' 08-23-45-681
b'$GNGGA,012325.15,4006.72510,N,08813.36239,W,1,10,1.07,224.8,M,-33.2,M,,*7B' 08-23-45-704
b'$GNVTG,150.24,T,,M,5.625,N,10.417,K,A*16' 08-23-45-732
b'$GNGGA,012325.20,4006.72504,N,08813.36232,W,1,10,1.07,224.8,M,-33.2,M,,*73' 08-23-45-755
b'$GNVTG,147.94,T,,M,5.612,N,10.394,K,A*13' 08-23-45-781
b'$GNGGA,012325.25,4006.72499,N,08813.36225,W,1,10,1.07,224.8,M,-33.2,M,,*75' 08-23-45-804
b'$GNVTG,145.40,T,,M,5.905,N,10.937,K,A*12' 08-23-45-832
b'$GNGGA,012325.30,4006.72493,N,08813.36217,W,1,10,1.07,224.7,M,-33.2,M,,*75' 08-23-45-854
b'$GNVTG,145.17,T,,M,5.815,N,10.769,K,A*15' 08-23-45-882
b'$GNGGA,012325.35,4006.72488,N,08813.36211,W,1,10,1.07,224.7,M,-33.2,M,,*7C' 08-23-45-905
b'$GNVTG,142.87,T,,M,5.416,N,10.030,K,A*1F' 08-23-45-932
b'$GNGGA,012325.40,4006.72483,N,08813.36203,W,1,10,1.07,224.7,M,-33.2,M,,*76' 08-23-45-954
b'$GNVTG,140.33,T,,M,5.482,N,10.153,K,A*1B' 08-23-45-982
b'$GNGGA,012325.45,4006.72479,N,08813.36195,W,1,10,1.07,224.6,M,-33.2,M,,*7B' 08-23-46-005
b'$GNVTG,139.53,T,,M,5.567,N,10.309,K,A*14' 08-23-46-031
b'$GNGGA,012325.50,4006.72474,N,08813.36188,W,1,10,1.07,224.6,M,-33.2,M,,*7E' 08-23-46-054
b'$GNVTG,138.76,T,,M,5.522,N,10.227,K,A*1E' 08-23-46-081
b'$GNGGA,012325.55,4006.72469,N,08813.36180,W,1,10,1.07,224.6,M,-33.2,M,,*7F' 08-23-46-104
b'$GNVTG,136.64,T,,M,5.656,N,10.475,K,A*12' 08-23-46-131
b'$GNGGA,012325.60,4006.72464,N,08813.36172,W,1,10,1.07,224.5,M,-33.2,M,,*7A' 08-23-46-154
b'$GNVTG,134.59,T,,M,5.612,N,10.394,K,A*16' 08-23-46-182
b'$GNGGA,012325.65,4006.72460,N,08813.36163,W,1,10,1.07,224.5,M,-33.2,M,,*7B' 08-23-46-205
b'$GNVTG,132.37,T,,M,5.442,N,10.078,K,A*1E' 08-23-46-231
b'$GNGGA,012325.70,4006.72456,N,08813.36155,W,1,10,1.07,224.5,M,-33.2,M,,*7F' 08-23-46-254
b'$GNVTG,130.54,T,,M,5.544,N,10.267,K,A*12' 08-23-46-281
b'$GNGGA,012325.75,4006.72452,N,08813.36146,W,1,10,1.07,224.4,M,-33.2,M,,*7D' 08-23-46-304
b'$GNVTG,130.05,T,,M,5.508,N,10.201,K,A*1E' 08-23-46-332
b'$GNGGA,012325.80,4006.72449,N,08813.36137,W,1,10,1.07,224.4,M,-33.2,M,,*7B' 08-23-46-354
b'$GNVTG,129.32,T,,M,5.623,N,10.414,K,A*1A' 08-23-46-381
b'$GNGGA,012325.85,4006.72445,N,08813.36128,W,1,10,1.07,224.3,M,-33.2,M,,*7B' 08-23-46-404
b'$GNVTG,127.26,T,,M,5.620,N,10.407,K,A*10' 08-23-46-432
b'$GNGGA,012325.90,4006.72441,N,08813.36119,W,1,10,1.07,224.3,M,-33.2,M,,*79' 08-23-46-454
b'$GNVTG,124.48,T,,M,5.631,N,10.428,K,A*16' 08-23-46-486
b'$GNGGA,012325.95,4006.72438,N,08813.36110,W,1,10,1.07,224.3,M,-33.2,M,,*7B' 08-23-46-510
b'$GNVTG,122.71,T,,M,5.489,N,10.166,K,A*14' 08-23-46-533
b'$GNGGA,012326.00,4006.72435,N,08813.36100,W,1,10,1.07,224.2,M,-33.2,M,,*79' 08-23-46-556
b'$GNVTG,121.79,T,,M,5.494,N,10.174,K,A*10' 08-23-46-582
b'$GNGGA,012326.05,4006.72432,N,08813.36091,W,1,10,1.07,224.2,M,-33.2,M,,*72' 08-23-46-605
b'$GNVTG,121.33,T,,M,5.521,N,10.225,K,A*16' 08-23-46-632
b'$GNGGA,012326.10,4006.72429,N,08813.36082,W,1,10,1.07,224.2,M,-33.2,M,,*7E' 08-23-46-655
b'$GNVTG,119.89,T,,M,5.698,N,10.552,K,A*1A' 08-23-46-682
b'$GNGGA,012326.15,4006.72427,N,08813.36072,W,1,10,1.07,224.1,M,-33.2,M,,*79' 08-23-46-705
b'$GNVTG,118.48,T,,M,5.614,N,10.398,K,A*12' 08-23-46-732
b'$GNGGA,012326.20,4006.72424,N,08813.36062,W,1,10,1.07,224.1,M,-33.2,M,,*7D' 08-23-46-755
b'$GNVTG,117.42,T,,M,5.476,N,10.142,K,A*14' 08-23-46-782
b'$GNGGA,012326.25,4006.72421,N,08813.36052,W,1,10,1.07,224.1,M,-33.2,M,,*7E' 08-23-46-805
b'$GNVTG,117.09,T,,M,5.342,N,9.894,K,A*21' 08-23-46-832
b'$GNGGA,012326.30,4006.72419,N,08813.36043,W,1,10,1.07,224.0,M,-33.2,M,,*70' 08-23-46-855
b'$GNVTG,115.96,T,,M,5.486,N,10.159,K,A*1A' 08-23-46-882
b'$GNGGA,012326.35,4006.72416,N,08813.36033,W,1,10,1.07,224.0,M,-33.2,M,,*7D' 08-23-46-905
b'$GNVTG,115.10,T,,M,5.514,N,10.213,K,A*13' 08-23-46-932
b'$GNGGA,012326.40,4006.72414,N,08813.36023,W,1,10,1.07,224.0,M,-33.2,M,,*7C' 08-23-46-955
b'$GNVTG,113.79,T,,M,5.436,N,10.068,K,A*15' 08-23-46-981
b'$GNGGA,012326.45,4006.72412,N,08813.36014,W,1,10,1.07,224.0,M,-33.2,M,,*7B' 08-23-47-005
b'$GNVTG,111.28,T,,M,5.493,N,10.172,K,A*16' 08-23-47-031
b'$GNGGA,012326.50,4006.72410,N,08813.36004,W,1,10,1.07,223.9,M,-33.2,M,,*72' 08-23-47-055
b'$GNVTG,111.31,T,,M,5.378,N,9.960,K,A*2F' 08-23-47-082
b'$GNGGA,012326.55,4006.72408,N,08813.35994,W,1,10,1.07,223.9,M,-33.2,M,,*7D' 08-23-47-105
b'$GNVTG,112.23,T,,M,5.406,N,10.013,K,A*14' 08-23-47-131
b'$GNGGA,012326.60,4006.72405,N,08813.35984,W,1,10,1.07,223.9,M,-33.2,M,,*77' 08-23-47-155
b'$GNVTG,109.92,T,,M,5.710,N,10.574,K,A*14' 08-23-47-181
b'$GNGGA,012326.65,4006.72403,N,08813.35974,W,1,10,1.07,223.9,M,-33.2,M,,*7B' 08-23-47-204
