hello
CAN logging
Accel logging
Steering logging
Cooling loop logging
b'$GNVTG,,,,,,,,,N*2E' 08-49-37-065
b'$GNGGA,,,,,,0,00,99.99,,,,,,*56' 08-49-37-088
b'$GNVTG,,,,,,,,,N*2E' 08-49-37-110
b'$GNGGA,,,,,,0,00,99.99,,,,,,*56' 08-49-37-133
b'$GNVTG,,,,,,,,,N*2E' 08-49-37-155
b'$GNGGA,,,,,,0,00,99.99,,,,,,*56' 08-49-37-177
b'$GNVTG,,,,,,,,,N*2E' 08-49-37-198
b'$GNGGA,,,,,,0,00,99.99,,,,,,*56' 08-49-37-221
b'$GNVTG,,,,,,,,,N*2E' 08-49-37-242
b'$GNGGA,,,,,,0,00,99.99,,,,,,*56' 08-49-37-265
b'$GNVTG,,,,,,,,,N*2E' 08-49-37-290
b'$GNGGA,,,,,,0,00,99.99,,,,,,*56' 08-49-37-314
b'$GNVTG,,,,,,,,,N*2E' 08-49-37-341
b'$GNGGA,,,,,,0,00,99.99,,,,,,*56' 08-49-37-367
b'$GNVTG,,,,,,,,,N*2E' 08-49-37-392
b'$GNGGA,,,,,,0,00,99.99,,,,,,*56' 08-49-37-418
b'$GNVTG,,,,,,,,,N*2E' 08-49-37-443
b'$GNGGA,,,,,,0,00,99.99,,,,,,*56' 08-49-37-468
b'$GNVTG,,,,,,,,,N*2E' 08-49-37-493
b'$GNGGA,,,,,,0,00,99.99,,,,,,*56' 08-49-37-517
b'$GNVTG,,,,,,,,,N*2E' 08-49-37-541
b'$GNGGA,,,,,,0,00,99.99,,,,,,*56' 08-49-37-565
b'$GNVTG,,,,,,,,,N*2E' 08-49-37-586
b'$GNGGA,,,,,,0,00,99.99,,,,,,*56' 08-49-37-609
b'$GNVTG,,,,,,,,,N*2E' 08-49-37-631
b'$GNGGA,,,,,,0,00,99.99,,,,,,*56' 08-49-37-654
b'$GNVTG,,,,,,,,,N*2E' 08-49-37-676
b'$GNGGA,,,,,,0,00,99.99,,,,,,*56' 08-49-37-698
b'$GNVTG,,,,,,,,,N*2E' 08-49-37-720
b'$GNGGA,,,,,,0,00,99.99,,,,,,*56' 08-49-37-743
b'$GNVTG,,,,,,,,,N*2E' 08-49-37-765
b'$GNGGA,,,,,,0,00,99.99,,,,,,*56' 08-49-37-787
b'$GNVTG,,,,,,,,,N*2E' 08-49-37-809
b'$GNGGA,,,,,,0,00,99.99,,,,,,*56' 08-49-37-833
b'$GNVTG,,,,,,,,,N*2E' 08-49-37-857
b'$GNGGA,,,,,,0,00,99.99,,,,,,*56' 08-49-37-881
b'$GNVTG,,,,,,,,,N*2E' 08-49-37-906
b'$GNGGA,,,,,,0,00,99.99,,,,,,*56' 08-49-37-932
b'$GNVTG,,,,,,,,,N*2E' 08-49-37-957
b'$GNGGA,,,,,,0,00,99.99,,,,,,*56' 08-49-37-981
b'$GNVTG,,,,,,,,,N*2E' 08-49-38-006
b'$GNGGA,,,,,,0,00,99.99,,,,,,*56' 08-49-38-030
b'$GNVTG,,,,,,,,,N*2E' 08-49-38-055
b'$GNGGA,,,,,,0,00,99.99,,,,,,*56' 08-49-38-078
b'$GNVTG,,,,,,,,,N*2E' 08-49-38-100
b'$GNGGA,,,,,,0,00,99.99,,,,,,*56' 08-49-38-123
b'$GNVTG,,,,,,,,,N*2E' 08-49-38-145
b'$GNGGA,,,,,,0,00,99.99,,,,,,*56' 08-49-38-167
b'$GNVTG,,,,,,,,,N*2E' 08-49-38-189
b'$GNGGA,,,,,,0,00,99.99,,,,,,*56' 08-49-38-212
b'$GNVTG,,,,,,,,,N*2E' 08-49-38-234
b'$GNGGA,,,,,,0,00,99.99,,,,,,*56' 08-49-38-257
b'$GNVTG,,,,,,,,,N*2E' 08-49-38-279
b'$GNGGA,,,,,,0,00,99.99,,,,,,*56' 08-49-38-301
b'$GNVTG,,,,,,,,,N*2E' 08-49-38-323
b'$GNGGA,,,,,,0,00,99.99,,,,,,*56' 08-49-38-350
b'$GNVTG,,,,,,,,,N*2E' 08-49-38-375
b'$GNGGA,,,,,,0,00,99.99,,,,,,*56' 08-49-38-396
b'$GNVTG,,,,,,,,,N*2E' 08-49-38-418
b'$GNGGA,,,,,,0,00,99.99,,,,,,*56' 08-49-38-439
b'$GNVTG,,,,,,,,,N*2E' 08-49-38-460
b'$GNGGA,,,,,,0,00,99.99,,,,,,*56' 08-49-38-482
b'$GNVTG,,,,,,,,,N*2E' 08-49-38-504
b'$GNGGA,,,,,,0,00,99.99,,,,,,*56' 08-49-38-525
b'$GNVTG,,,,,,,,,N*2E' 08-49-38-547
b'$GNGGA,,,,,,0,00,99.99,,,,,,*56' 08-49-38-568
b'$GNVTG,,,,,,,,,N*2E' 08-49-38-589
b'$GNGGA,,,,,,0,00,99.99,,,,,,*56' 08-49-38-610
b'$GNVTG,,,,,,,,,N*2E' 08-49-38-631
b'$GNGGA,,,,,,0,00,99.99,,,,,,*56' 08-49-38-652
b'$GNVTG,,,,,,,,,N*2E' 08-49-38-673
b'$GNGGA,,,,,,0,00,99.99,,,,,,*56' 08-49-38-694
b'$GNVTG,,,,,,,,,N*2E' 08-49-38-718
b'$GNGGA,,,,,,0,00,99.99,,,,,,*56' 08-49-38-740
b'$GNVTG,,,,,,,,,N*2E' 08-49-38-762
b'$GNGGA,,,,,,0,00,99.99,,,,,,*56' 08-49-38-784
b'$GNVTG,,,,,,,,,N*2E' 08-49-38-806
b'$GNGGA,,,,,,0,00,99.99,,,,,,*56' 08-49-38-829
b'$GNVTG,,,,,,,,,N*2E' 08-49-38-851
b'$GNGGA,,,,,,0,00,99.99,,,,,,*56' 08-49-38-873
b'$GNVTG,,,,,,,,,N*2E' 08-49-38-895
b'$GNGGA,014912.10,,,,,0,00,99.99,,,,,,*76' 08-49-38-917
b'$GNVTG,,,,,,,,,N*2E' 08-49-38-939
b'$GNGGA,014912.15,,,,,0,00,99.99,,,,,,*73' 08-49-38-961
b'$GNVTG,,,,,,,,,N*2E' 08-49-38-983
b'$GNGGA,014912.20,,,,,0,00,99.99,,,,,,*75' 08-49-39-005
b'$GNVTG,,,,,,,,,N*2E' 08-49-39-027
b'$GNGGA,014912.25,,,,,0,00,99.99,,,,,,*70' 08-49-39-049
b'$GNVTG,,,,,,,,,N*2E' 08-49-39-071
b'$GNGGA,014912.30,,,,,0,00,99.99,,,,,,*74' 08-49-39-093
b'$GNVTG,,,,,,,,,N*2E' 08-49-39-115
b'$GNGGA,014912.35,,,,,0,00,99.99,,,,,,*71' 08-49-39-137
b'$GNVTG,,,,,,,,,N*2E' 08-49-39-159
b'$GNGGA,014912.40,,,,,0,00,99.99,,,,,,*73' 08-49-39-182
b'$GNVTG,,,,,,,,,N*2E' 08-49-39-203
b'$GNGGA,014912.45,,,,,0,00,99.99,,,,,,*76' 08-49-39-226
b'$GNVTG,,,,,,,,,N*2E' 08-49-39-248
b'$GNGGA,014912.50,,,,,0,00,99.99,,,,,,*72' 08-49-39-270
b'$GNVTG,,,,,,,,,N*2E' 08-49-39-292
b'$GNGGA,014912.55,,,,,0,00,99.99,,,,,,*77' 08-49-39-314
b'$GNVTG,,,,,,,,,N*2E' 08-49-39-336
b'$GNGGA,014912.60,,,,,0,00,99.99,,,,,,*71' 08-49-39-359
b'$GNVTG,,,,,,,,,N*2E' 08-49-39-381
b'$GNGGA,014912.65,,,,,0,00,99.99,,,,,,*74' 08-49-39-403
b'$GNVTG,,,,,,,,,N*2E' 08-49-39-425
b'$GNGGA,014912.70,,,,,0,00,99.99,,,,,,*70' 08-49-39-447
b'$GNVTG,,,,,,,,,N*2E' 08-49-39-468
b'$GNGGA,014912.75,,,,,0,00,99.99,,,,,,*75' 08-49-39-491
b'$GNVTG,,,,,,,,,N*2E' 08-49-39-512
b'$GNGGA,014912.80,,,,,0,00,99.99,,,,,,*7F' 08-49-39-535
b'$GNVTG,,,,,,,,,N*2E' 08-49-39-556
b'$GNGGA,014912.85,,,,,0,00,99.99,,,,,,*7A' 08-49-39-579
b'$GNVTG,,,,,,,,,N*2E' 08-49-39-600
b'$GNGGA,014912.90,,,,,0,00,99.99,,,,,,*7E' 08-49-39-623
b'$GNVTG,,,,,,,,,N*2E' 08-49-39-645
b'$GNGGA,014912.95,,,,,0,00,99.99,,,,,,*7B' 08-49-39-667
b'$GNVTG,,,,,,,,,N*2E' 08-49-39-688
b'$GNGGA,014913.00,,,,,0,00,99.99,,,,,,*76' 08-49-39-711
b'$GNVTG,,,,,,,,,N*2E' 08-49-39-733
b'$GNGGA,014913.05,,,,,0,00,99.99,,,,,,*73' 08-49-39-755
b'$GNVTG,,,,,,,,,N*2E' 08-49-39-777
b'$GNGGA,014913.10,,,,,0,00,99.99,,,,,,*77' 08-49-39-799
b'$GNVTG,,,,,,,,,N*2E' 08-49-39-821
b'$GNGGA,014913.15,,,,,0,00,99.99,,,,,,*72' 08-49-39-843
b'$GNVTG,,,,,,,,,N*2E' 08-49-39-865
b'$GNGGA,014913.20,,,,,0,00,99.99,,,,,,*74' 08-49-39-887
b'$GNVTG,,,,,,,,,N*2E' 08-49-39-909
b'$GNGGA,014913.25,,,,,0,00,99.99,,,,,,*71' 08-49-39-932
b'$GNVTG,,,,,,,,,N*2E' 08-49-39-953
b'$GNGGA,014913.30,,,,,0,00,99.99,,,,,,*75' 08-49-39-976
b'$GNVTG,,,,,,,,,N*2E' 08-49-39-997
b'$GNGGA,014913.35,,,,,0,00,99.99,,,,,,*70' 08-49-40-020
b'$GNVTG,,,,,,,,,N*2E' 08-49-40-042
b'$GNGGA,014913.40,,,,,0,00,99.99,,,,,,*72' 08-49-40-064
b'$GNVTG,,,,,,,,,N*2E' 08-49-40-086
b'$GNGGA,014913.45,,,,,0,00,99.99,,,,,,*77' 08-49-40-108
b'$GNVTG,,,,,,,,,N*2E' 08-49-40-130
b'$GNGGA,014913.50,,,,,0,00,99.99,,,,,,*73' 08-49-40-153
b'$GNVTG,,,,,,,,,N*2E' 08-49-40-174
b'$GNGGA,014913.55,,,,,0,00,99.99,,,,,,*76' 08-49-40-196
b'$GNVTG,,,,,,,,,N*2E' 08-49-40-218
b'$GNGGA,014913.60,,,,,0,00,99.99,,,,,,*70' 08-49-40-241
b'$GNVTG,,,,,,,,,N*2E' 08-49-40-262
b'$GNGGA,014913.65,,,,,0,00,99.99,,,,,,*75' 08-49-40-285
b'$GNVTG,,,,,,,,,N*2E' 08-49-40-307
b'$GNGGA,014913.70,,,,,0,00,99.99,,,,,,*71' 08-49-40-329
b'$GNVTG,,,,,,,,,N*2E' 08-49-40-351
b'$GNGGA,014913.75,,,,,0,00,99.99,,,,,,*74' 08-49-40-373
b'$GNVTG,,,,,,,,,N*2E' 08-49-40-395
b'$GNGGA,014919.75,,,,,0,00,99.99,,,,,,*7E' 08-49-40-417
b'$GNVTG,,,,,,,,,N*2E' 08-49-40-439
b'$GNGGA,014919.80,,,,,0,00,99.99,,,,,,*74' 08-49-40-462
b'$GNVTG,,,,,,,,,N*2E' 08-49-40-483
b'$GNGGA,014919.85,,,,,0,00,99.99,,,,,,*71' 08-49-40-506
b'$GNVTG,,,,,,,,,N*2E' 08-49-40-528
b'$GNGGA,014919.90,,,,,0,00,99.99,,,,,,*75' 08-49-40-550
b'$GNVTG,,,,,,,,,N*2E' 08-49-40-572
b'$GNGGA,014919.95,,,,,0,00,99.99,,,,,,*70' 08-49-40-595
b'$GNVTG,,,,,,,,,N*2E' 08-49-40-617
b'$GNGGA,014920.00,,,,,0,00,99.99,,,,,,*76' 08-49-40-639
b'$GNVTG,,,,,,,,,N*2E' 08-49-40-660
b'$GNGGA,014920.05,,,,,0,00,99.99,,,,,,*73' 08-49-40-683
b'$GNVTG,,,,,,,,,N*2E' 08-49-40-704
b'$GNGGA,014920.10,,,,,0,00,99.99,,,,,,*77' 08-49-40-727
b'$GNVTG,,,,,,,,,N*2E' 08-49-40-749
b'$GNGGA,014920.15,,,,,0,00,99.99,,,,,,*72' 08-49-40-771
b'$GNVTG,,,,,,,,,N*2E' 08-49-40-792
b'$GNGGA,014920.20,,,,,0,00,99.99,,,,,,*74' 08-49-40-815
b'$GNVTG,,,,,,,,,N*2E' 08-49-40-837
b'$GNGGA,014920.25,,,,,0,00,99.99,,,,,,*71' 08-49-40-859
b'$GNVTG,,,,,,,,,N*2E' 08-49-40-881
b'$GNGGA,014920.30,,,,,0,00,99.99,,,,,,*75' 08-49-40-903
b'$GNVTG,,,,,,,,,N*2E' 08-49-40-925
b'$GNGGA,014920.35,,,,,0,00,99.99,,,,,,*70' 08-49-40-947
b'$GNVTG,,,,,,,,,N*2E' 08-49-40-971
b'$GNGGA,014920.40,,,,,0,00,99.99,,,,,,*72' 08-49-40-993
b'$GNVTG,,,,,,,,,N*2E' 08-49-41-013
b'$GNGGA,014920.45,,,,,0,00,99.99,,,,,,*77' 08-49-41-035
b'$GNVTG,,,,,,,,,N*2E' 08-49-41-056
b'$GNGGA,014920.50,,,,,0,00,99.99,,,,,,*73' 08-49-41-078
b'$GNVTG,,,,,,,,,N*2E' 08-49-41-099
b'$GNGGA,014920.55,,,,,0,00,99.99,,,,,,*76' 08-49-41-120
b'$GNVTG,,,,,,,,,N*2E' 08-49-41-148
b'$GNGGA,014920.60,,,,,0,00,99.99,,,,,,*70' 08-49-41-169
b'$GNVTG,,,,,,,,,N*2E' 08-49-41-198
b'$GNGGA,014920.65,,,,,0,00,99.99,,,,,,*75' 08-49-41-220
b'$GNVTG,,,,,,,,,N*2E' 08-49-41-248
b'$GNGGA,014920.70,,,,,0,00,99.99,,,,,,*71' 08-49-41-269
b'$GNVTG,,,,,,,,,N*2E' 08-49-41-298
b'$GNGGA,014920.75,,,,,0,00,99.99,,,,,,*74' 08-49-41-320
b'$GNVTG,,,,,,,,,N*2E' 08-49-41-348
b'$GNGGA,014920.80,,,,,0,00,99.99,,,,,,*7E' 08-49-41-369
b'$GNVTG,,,,,,,,,N*2E' 08-49-41-398
b'$GNGGA,014920.85,,,,,0,00,99.99,,,,,,*7B' 08-49-41-420
b'$GNVTG,,,,,,,,,N*2E' 08-49-41-448
b'$GNGGA,014920.90,,,,,0,00,99.99,,,,,,*7F' 08-49-41-469
b'$GNVTG,,,,,,,,,N*2E' 08-49-41-501
b'$GNGGA,014920.95,,,,,0,00,99.99,,,,,,*7A' 08-49-41-523
b'$GNVTG,,,,,,,,,N*2E' 08-49-41-548
b'$GNGGA,014921.00,,,,,0,00,99.99,,,,,,*77' 08-49-41-570
b'$GNVTG,,,,,,,,,N*2E' 08-49-41-598
b'$GNGGA,014921.05,,,,,0,00,99.99,,,,,,*72' 08-49-41-619
b'$GNVTG,,,,,,,,,N*2E' 08-49-41-648
b'$GNGGA,014921.10,,,,,0,00,99.99,,,,,,*76' 08-49-41-670
b'$GNVTG,,,,,,,,,N*2E' 08-49-41-698
b'$GNGGA,014921.15,,,,,0,00,99.99,,,,,,*73' 08-49-41-720
b'$GNVTG,,,,,,,,,N*2E' 08-49-41-748
b'$GNGGA,014921.20,,,,,0,00,99.99,,,,,,*75' 08-49-41-770
b'$GNVTG,,,,,,,,,N*2E' 08-49-41-798
b'$GNGGA,014921.25,,,,,0,00,99.99,,,,,,*70' 08-49-41-819
b'$GNVTG,,,,,,,,,N*2E' 08-49-41-848
b'$GNGGA,014921.30,,,,,0,00,99.99,,,,,,*74' 08-49-41-869
b'$GNVTG,,,,,,,,,N*2E' 08-49-41-898
b'$GNGGA,014921.35,,,,,0,00,99.99,,,,,,*71' 08-49-41-920
b'$GNVTG,,,,,,,,,N*2E' 08-49-41-948
b'$GNGGA,014921.40,,,,,0,00,99.99,,,,,,*73' 08-49-41-971
b'$GNVTG,,,,,,,,,N*2E' 08-49-41-998
b'$GNGGA,014921.45,,,,,0,00,99.99,,,,,,*76' 08-49-42-019
b'$GNVTG,,,,,,,,,N*2E' 08-49-42-048
b'$GNGGA,014921.50,,,,,0,00,99.99,,,,,,*72' 08-49-42-070
b'$GNVTG,,,,,,,,,N*2E' 08-49-42-098
b'$GNGGA,014921.55,,,,,0,00,99.99,,,,,,*77' 08-49-42-119
b'$GNVTG,,,,,,,,,N*2E' 08-49-42-148
b'$GNGGA,014921.60,,,,,0,00,99.99,,,,,,*71' 08-49-42-170
b'$GNVTG,,,,,,,,,N*2E' 08-49-42-198
b'$GNGGA,014921.65,,,,,0,00,99.99,,,,,,*74' 08-49-42-219
b'$GNVTG,,,,,,,,,N*2E' 08-49-42-248
b'$GNGGA,014921.70,,,,,0,00,99.99,,,,,,*70' 08-49-42-269
b'$GNVTG,,,,,,,,,N*2E' 08-49-42-298
b'$GNGGA,014921.75,,,,,0,00,99.99,,,,,,*75' 08-49-42-319
b'$GNVTG,,,,,,,,,N*2E' 08-49-42-348
b'$GNGGA,014921.80,,,,,0,00,99.99,,,,,,*7F' 08-49-42-370
b'$GNVTG,,,,,,,,,N*2E' 08-49-42-398
b'$GNGGA,014921.85,,,,,0,00,99.99,,,,,,*7A' 08-49-42-420
b'$GNVTG,,,,,,,,,N*2E' 08-49-42-448
b'$GNGGA,014921.90,,,,,0,00,99.99,,,,,,*7E' 08-49-42-470
b'$GNVTG,,,,,,,,,N*2E' 08-49-42-501
b'$GNGGA,014921.95,,,,,0,00,99.99,,,,,,*7B' 08-49-42-524
b'$GNVTG,,,,,,,,,N*2E' 08-49-42-548
b'$GNGGA,014922.00,,,,,0,00,99.99,,,,,,*74' 08-49-42-570
b'$GNVTG,,,,,,,,,N*2E' 08-49-42-598
b'$GNGGA,014922.05,,,,,0,00,99.99,,,,,,*71' 08-49-42-619
b'$GNVTG,,,,,,,,,N*2E' 08-49-42-648
b'$GNGGA,014922.10,,,,,0,00,99.99,,,,,,*75' 08-49-42-670
b'$GNVTG,,,,,,,,,N*2E' 08-49-42-698
b'$GNGGA,014922.15,,,,,0,00,99.99,,,,,,*70' 08-49-42-720
b'$GNVTG,,,,,,,,,N*2E' 08-49-42-748
b'$GNGGA,014922.20,,,,,0,00,99.99,,,,,,*76' 08-49-42-769
b'$GNVTG,,,,,,,,,N*2E' 08-49-42-798
b'$GNGGA,014922.25,,,,,0,00,99.99,,,,,,*73' 08-49-42-820
b'$GNVTG,,,,,,,,,N*2E' 08-49-42-848
b'$GNGGA,014922.30,,,,,0,00,99.99,,,,,,*77' 08-49-42-870
b'$GNVTG,,,,,,,,,N*2E' 08-49-42-898
b'$GNGGA,014922.35,,,,,0,00,99.99,,,,,,*72' 08-49-42-919
b'$GNVTG,,,,,,,,,N*2E' 08-49-42-948
b'$GNGGA,014922.40,,,,,0,00,99.99,,,,,,*70' 08-49-42-970
b'$GNVTG,,,,,,,,,N*2E' 08-49-42-998
b'$GNGGA,014922.45,,,,,0,00,99.99,,,,,,*75' 08-49-43-020
b'$GNVTG,,,,,,,,,N*2E' 08-49-43-048
b'$GNGGA,014922.50,,,,,0,00,99.99,,,,,,*71' 08-49-43-069
b'$GNVTG,,,,,,,,,N*2E' 08-49-43-098
b'$GNGGA,014922.55,,,,,0,00,99.99,,,,,,*74' 08-49-43-120
b'$GNVTG,,,,,,,,,N*2E' 08-49-43-148
b'$GNGGA,014922.60,,,,,0,00,99.99,,,,,,*72' 08-49-43-169
b'$GNVTG,,,,,,,,,N*2E' 08-49-43-198
b'$GNGGA,014922.65,,,,,0,00,99.99,,,,,,*77' 08-49-43-219
b'$GNVTG,,,,,,,,,N*2E' 08-49-43-248
b'$GNGGA,014922.70,,,,,0,00,99.99,,,,,,*73' 08-49-43-269
b'$GNVTG,,,,,,,,,N*2E' 08-49-43-298
b'$GNGGA,014922.75,,,,,0,00,99.99,,,,,,*76' 08-49-43-319
b'$GNVTG,,,,,,,,,N*2E' 08-49-43-348
b'$GNGGA,014922.80,,,,,0,00,99.99,,,,,,*7C' 08-49-43-371
b'$GNVTG,,,,,,,,,N*2E' 08-49-43-398
b'$GNGGA,014922.85,,,,,0,00,99.99,,,,,,*79' 08-49-43-419
b'$GNVTG,,,,,,,,,N*2E' 08-49-43-448
b'$GNGGA,014922.90,,,,,0,00,99.99,,,,,,*7D' 08-49-43-470
b'$GNVTG,,,,,,,,,N*2E' 08-49-43-501
b'$GNGGA,014922.95,,,,,0,00,99.99,,,,,,*78' 08-49-43-523
b'$GNVTG,,,,,,,,,N*2E' 08-49-43-548
b'$GNGGA,014923.00,,,,,0,00,99.99,,,,,,*75' 08-49-43-569
b'$GNVTG,,,,,,,,,N*2E' 08-49-43-598
b'$GNGGA,014923.05,,,,,0,00,99.99,,,,,,*70' 08-49-43-620
b'$GNVTG,,,,,,,,,N*2E' 08-49-43-648
b'$GNGGA,014923.10,,,,,0,00,99.99,,,,,,*74' 08-49-43-671
b'$GNVTG,,,,,,,,,N*2E' 08-49-43-698
b'$GNGGA,014923.15,,,,,0,00,99.99,,,,,,*71' 08-49-43-719
b'$GNVTG,,,,,,,,,N*2E' 08-49-43-748
b'$GNGGA,014923.20,,,,,0,00,99.99,,,,,,*77' 08-49-43-770
b'$GNVTG,,,,,,,,,N*2E' 08-49-43-798
b'$GNGGA,014923.25,,,,,0,00,99.99,,,,,,*72' 08-49-43-821
b'$GNVTG,,,,,,,,,N*2E' 08-49-43-848
b'$GNGGA,014923.30,,,,,0,00,99.99,,,,,,*76' 08-49-43-869
b'$GNVTG,,,,,,,,,N*2E' 08-49-43-898
b'$GNGGA,014923.35,,,,,0,00,99.99,,,,,,*73' 08-49-43-920
b'$GNVTG,,,,,,,,,N*2E' 08-49-43-948
b'$GNGGA,014923.40,,,,,0,00,99.99,,,,,,*71' 08-49-43-970
b'$GNVTG,,,,,,,,,N*2E' 08-49-43-998
b'$GNGGA,014923.45,,,,,0,00,99.99,,,,,,*74' 08-49-44-019
b'$GNVTG,,,,,,,,,N*2E' 08-49-44-048
b'$GNGGA,014923.50,,,,,0,00,99.99,,,,,,*70' 08-49-44-070
b'$GNVTG,,,,,,,,,N*2E' 08-49-44-098
b'$GNGGA,014923.55,,,,,0,00,99.99,,,,,,*75' 08-49-44-120
b'$GNVTG,,,,,,,,,N*2E' 08-49-44-148
b'$GNGGA,014923.60,,,,,0,00,99.99,,,,,,*73' 08-49-44-169
b'$GNVTG,,,,,,,,,N*2E' 08-49-44-198
b'$GNGGA,014923.65,,,,,0,00,99.99,,,,,,*76' 08-49-44-221
b'$GNVTG,,,,,,,,,N*2E' 08-49-44-248
b'$GNGGA,014923.70,,,,,0,00,99.99,,,,,,*72' 08-49-44-269
b'$GNVTG,,,,,,,,,N*2E' 08-49-44-298
b'$GNGGA,014923.75,,,,,0,00,99.99,,,,,,*77' 08-49-44-319
b'$GNVTG,,,,,,,,,N*2E' 08-49-44-348
b'$GNGGA,014923.80,,,,,0,00,99.99,,,,,,*7D' 08-49-44-370
b'$GNVTG,,,,,,,,,N*2E' 08-49-44-398
b'$GNGGA,014923.85,,,,,0,00,99.99,,,,,,*78' 08-49-44-420
b'$GNVTG,,,,,,,,,N*2E' 08-49-44-448
b'$GNGGA,014923.90,,,,,0,00,99.99,,,,,,*7C' 08-49-44-469
b'$GNVTG,,,,,,,,,N*2E' 08-49-44-502
b'$GNGGA,014923.95,,,,,0,00,99.99,,,,,,*79' 08-49-44-524
b'$GNVTG,,,,,,,,,N*2E' 08-49-44-548
b'$GNGGA,014924.00,,,,,0,00,99.99,,,,,,*72' 08-49-44-569
b'$GNVTG,,,,,,,,,N*2E' 08-49-44-598
b'$GNGGA,014924.05,,,,,0,00,99.99,,,,,,*77' 08-49-44-620
b'$GNVTG,,,,,,,,,N*2E' 08-49-44-648
b'$GNGGA,014924.10,,,,,0,00,99.99,,,,,,*73' 08-49-44-669
b'$GNVTG,,,,,,,,,N*2E' 08-49-44-698
b'$GNGGA,014924.15,,,,,0,00,99.99,,,,,,*76' 08-49-44-720
b'$GNVTG,,,,,,,,,N*2E' 08-49-44-748
b'$GNGGA,014924.20,,,,,0,00,99.99,,,,,,*70' 08-49-44-771
b'$GNVTG,,,,,,,,,N*2E' 08-49-44-798
b'$GNGGA,014924.25,,,,,0,00,99.99,,,,,,*75' 08-49-44-820
b'$GNVTG,,,,,,,,,N*2E' 08-49-44-848
b'$GNGGA,014924.30,,,,,0,00,99.99,,,,,,*71' 08-49-44-871
b'$GNVTG,,,,,,,,,N*2E' 08-49-44-898
b'$GNGGA,014924.35,,,,,0,00,99.99,,,,,,*74' 08-49-44-920
b'$GNVTG,,,,,,,,,N*2E' 08-49-44-948
b'$GNGGA,014924.40,,,,,0,00,99.99,,,,,,*76' 08-49-44-971
b'$GNVTG,,,,,,,,,N*2E' 08-49-44-998
b'$GNGGA,014924.45,,,,,0,00,99.99,,,,,,*73' 08-49-45-019
b'$GNVTG,,,,,,,,,N*2E' 08-49-45-048
b'$GNGGA,014924.50,,,,,0,00,99.99,,,,,,*77' 08-49-45-071
b'$GNVTG,,,,,,,,,N*2E' 08-49-45-098
b'$GNGGA,014924.55,,,,,0,00,99.99,,,,,,*72' 08-49-45-120
b'$GNVTG,,,,,,,,,N*2E' 08-49-45-148
b'$GNGGA,014924.60,,,,,0,00,99.99,,,,,,*74' 08-49-45-170
b'$GNVTG,,,,,,,,,N*2E' 08-49-45-198
b'$GNGGA,014924.65,,,,,0,00,99.99,,,,,,*71' 08-49-45-219
b'$GNVTG,,,,,,,,,N*2E' 08-49-45-248
b'$GNGGA,014924.70,,,,,0,00,99.99,,,,,,*75' 08-49-45-270
b'$GNVTG,,,,,,,,,N*2E' 08-49-45-298
b'$GNGGA,014924.75,,,,,0,00,99.99,,,,,,*70' 08-49-45-319
b'$GNVTG,,,,,,,,,N*2E' 08-49-45-348
b'$GNGGA,014924.80,,,,,0,00,99.99,,,,,,*7A' 08-49-45-371
b'$GNVTG,,,,,,,,,N*2E' 08-49-45-398
b'$GNGGA,014924.85,,,,,0,00,99.99,,,,,,*7F' 08-49-45-420
b'$GNVTG,,,,,,,,,N*2E' 08-49-45-448
b'$GNGGA,014924.90,,,,,0,00,99.99,,,,,,*7B' 08-49-45-469
b'$GNVTG,,,,,,,,,N*2E' 08-49-45-502
b'$GNGGA,014924.95,,,,,0,00,99.99,,,,,,*7E' 08-49-45-524
b'$GNVTG,,,,,,,,,N*2E' 08-49-45-548
b'$GNGGA,014925.00,,,,,0,00,99.99,,,,,,*73' 08-49-45-569
b'$GNVTG,,,,,,,,,N*2E' 08-49-45-598
b'$GNGGA,014925.05,,,,,0,00,99.99,,,,,,*76' 08-49-45-621
b'$GNVTG,,,,,,,,,N*2E' 08-49-45-648
b'$GNGGA,014925.10,,,,,0,00,99.99,,,,,,*72' 08-49-45-670
b'$GNVTG,,,,,,,,,N*2E' 08-49-45-698
b'$GNGGA,014925.15,,,,,0,00,99.99,,,,,,*77' 08-49-45-720
b'$GNVTG,,,,,,,,,N*2E' 08-49-45-748
b'$GNGGA,014925.20,,,,,0,00,99.99,,,,,,*71' 08-49-45-770
b'$GNVTG,,,,,,,,,N*2E' 08-49-45-798
b'$GNGGA,014925.25,,,,,0,00,99.99,,,,,,*74' 08-49-45-820
b'$GNVTG,,,,,,,,,N*2E' 08-49-45-848
b'$GNGGA,014925.30,,,,,0,00,99.99,,,,,,*70' 08-49-45-870
b'$GNVTG,,,,,,,,,N*2E' 08-49-45-898
b'$GNGGA,014925.35,,,,,0,00,99.99,,,,,,*75' 08-49-45-919
b'$GNVTG,,,,,,,,,N*2E' 08-49-45-948
b'$GNGGA,014925.40,,,,,0,00,99.99,,,,,,*77' 08-49-45-971
b'$GNVTG,,,,,,,,,N*2E' 08-49-45-998
b'$GNGGA,014925.45,,,,,0,00,99.99,,,,,,*72' 08-49-46-019
b'$GNVTG,,,,,,,,,N*2E' 08-49-46-048
b'$GNGGA,014925.50,,,,,0,00,99.99,,,,,,*76' 08-49-46-069
b'$GNVTG,,,,,,,,,N*2E' 08-49-46-098
b'$GNGGA,014925.55,,,,,0,00,99.99,,,,,,*73' 08-49-46-119
b'$GNVTG,,,,,,,,,N*2E' 08-49-46-148
b'$GNGGA,014925.60,,,,,0,00,99.99,,,,,,*75' 08-49-46-169
b'$GNVTG,,,,,,,,,N*2E' 08-49-46-198
b'$GNGGA,014925.65,,,,,0,00,99.99,,,,,,*70' 08-49-46-220
b'$GNVTG,,,,,,,,,N*2E' 08-49-46-248
b'$GNGGA,014925.70,,,,,0,00,99.99,,,,,,*74' 08-49-46-271
b'$GNVTG,,,,,,,,,N*2E' 08-49-46-298
b'$GNGGA,014925.75,,,,,0,00,99.99,,,,,,*71' 08-49-46-319
b'$GNVTG,,,,,,,,,N*2E' 08-49-46-348
b'$GNGGA,014925.80,,,,,0,00,99.99,,,,,,*7B' 08-49-46-370
b'$GNVTG,,,,,,,,,N*2E' 08-49-46-398
b'$GNGGA,014925.85,,,,,0,00,99.99,,,,,,*7E' 08-49-46-420
b'$GNVTG,,,,,,,,,N*2E' 08-49-46-448
b'$GNGGA,014925.90,,,,,0,00,99.99,,,,,,*7A' 08-49-46-470
b'$GNVTG,,,,,,,,,N*2E' 08-49-46-502
b'$GNGGA,014925.95,,,,,0,00,99.99,,,,,,*7F' 08-49-46-524
b'$GNVTG,,,,,,,,,N*2E' 08-49-46-548
b'$GNGGA,014926.00,,,,,0,00,99.99,,,,,,*70' 08-49-46-569
b'$GNVTG,,,,,,,,,N*2E' 08-49-46-598
b'$GNGGA,014926.05,,,,,0,00,99.99,,,,,,*75' 08-49-46-620
b'$GNVTG,,,,,,,,,N*2E' 08-49-46-648
b'$GNGGA,014926.10,,,,,0,00,99.99,,,,,,*71' 08-49-46-670
b'$GNVTG,,,,,,,,,N*2E' 08-49-46-698
b'$GNGGA,014926.15,,,,,0,00,99.99,,,,,,*74' 08-49-46-719
b'$GNVTG,,,,,,,,,N*2E' 08-49-46-748
b'$GNGGA,014926.20,,,,,0,00,99.99,,,,,,*72' 08-49-46-771
b'$GNVTG,,,,,,,,,N*2E' 08-49-46-798
b'$GNGGA,014926.25,,,,,0,00,99.99,,,,,,*77' 08-49-46-819
b'$GNVTG,,,,,,,,,N*2E' 08-49-46-848
b'$GNGGA,014926.30,,,,,0,00,99.99,,,,,,*73' 08-49-46-871
b'$GNVTG,,,,,,,,,N*2E' 08-49-46-898
b'$GNGGA,014926.35,,,,,0,00,99.99,,,,,,*76' 08-49-46-919
b'$GNVTG,,,,,,,,,N*2E' 08-49-46-948
b'$GNGGA,014926.40,,,,,0,00,99.99,,,,,,*74' 08-49-46-970
b'$GNVTG,,,,,,,,,N*2E' 08-49-46-998
b'$GNGGA,014926.45,,,,,0,00,99.99,,,,,,*71' 08-49-47-020
b'$GNVTG,,,,,,,,,N*2E' 08-49-47-048
b'$GNGGA,014926.50,,,,,0,00,99.99,,,,,,*75' 08-49-47-069
b'$GNVTG,,,,,,,,,N*2E' 08-49-47-098
b'$GNGGA,014926.55,,,,,0,00,99.99,,,,,,*70' 08-49-47-121
b'$GNVTG,,,,,,,,,N*2E' 08-49-47-148
b'$GNGGA,014926.60,,,,,0,00,99.99,,,,,,*76' 08-49-47-170
b'$GNVTG,,,,,,,,,N*2E' 08-49-47-198
b'$GNGGA,014926.65,,,,,0,00,99.99,,,,,,*73' 08-49-47-221
b'$GNVTG,,,,,,,,,N*2E' 08-49-47-248
b'$GNGGA,014926.70,,,,,0,00,99.99,,,,,,*77' 08-49-47-269
b'$GNVTG,,,,,,,,,N*2E' 08-49-47-298
b'$GNGGA,014926.75,,,,,0,00,99.99,,,,,,*72' 08-49-47-321
b'$GNVTG,,,,,,,,,N*2E' 08-49-47-348
b'$GNGGA,014926.80,,,,,0,00,99.99,,,,,,*78' 08-49-47-369
b'$GNVTG,,,,,,,,,N*2E' 08-49-47-398
b'$GNGGA,014926.85,,,,,0,00,99.99,,,,,,*7D' 08-49-47-421
b'$GNVTG,,,,,,,,,N*2E' 08-49-47-448
b'$GNGGA,014926.90,,,,,0,00,99.99,,,,,,*79' 08-49-47-469
b'$GNVTG,,,,,,,,,N*2E' 08-49-47-502
b'$GNGGA,014926.95,,,,,0,00,99.99,,,,,,*7C' 08-49-47-523
b'$GNVTG,,,,,,,,,N*2E' 08-49-47-548
b'$GNGGA,014927.00,,,,,0,00,99.99,,,,,,*71' 08-49-47-570
b'$GNVTG,,,,,,,,,N*2E' 08-49-47-598
b'$GNGGA,014927.05,,,,,0,00,99.99,,,,,,*74' 08-49-47-621
b'$GNVTG,,,,,,,,,N*2E' 08-49-47-648
b'$GNGGA,014927.10,,,,,0,00,99.99,,,,,,*70' 08-49-47-670
b'$GNVTG,,,,,,,,,N*2E' 08-49-47-698
b'$GNGGA,014927.15,,,,,0,00,99.99,,,,,,*75' 08-49-47-719
b'$GNVTG,,,,,,,,,N*2E' 08-49-47-748
b'$GNGGA,014927.20,,,,,0,00,99.99,,,,,,*73' 08-49-47-771
b'$GNVTG,,,,,,,,,N*2E' 08-49-47-798
b'$GNGGA,014927.25,,,,,0,00,99.99,,,,,,*76' 08-49-47-819
b'$GNVTG,,,,,,,,,N*2E' 08-49-47-848
b'$GNGGA,014927.30,,,,,0,00,99.99,,,,,,*72' 08-49-47-871
b'$GNGGA,014927.35,,,,,0,00,99.99,,,,,,*77' 08-49-47-899
b'$GNVTG,,,,,,,,,N*2E' 08-49-47-948
b'$GNGGA,014927.40,,,,,0,00,99.99,,,,,,*75' 08-49-47-970
b'$GNVTG,,,,,,,,,N*2E' 08-49-47-998
b'$GNGGA,014927.45,,,,,0,00,99.99,,,,,,*70' 08-49-48-019
b'$GNVTG,,,,,,,,,N*2E' 08-49-48-048
b'$GNGGA,014927.50,,,,,0,00,99.99,,,,,,*74' 08-49-48-069
b'$GNVTG,,,,,,,,,N*2E' 08-49-48-098
b'$GNGGA,014927.55,,,,,0,00,99.99,,,,,,*71' 08-49-48-120
b'$GNVTG,,,,,,,,,N*2E' 08-49-48-148
b'$GNGGA,014927.60,,,,,0,00,99.99,,,,,,*77' 08-49-48-170
b'$GNVTG,,,,,,,,,N*2E' 08-49-48-198
b'$GNGGA,014927.65,,,,,0,00,99.99,,,,,,*72' 08-49-48-221
b'$GNVTG,,,,,,,,,N*2E' 08-49-48-248
b'$GNGGA,014927.70,,,,,0,00,99.99,,,,,,*76' 08-49-48-269
b'$GNVTG,,,,,,,,,N*2E' 08-49-48-298
b'$GNGGA,014927.75,,,,,0,00,99.99,,,,,,*73' 08-49-48-321
b'$GNVTG,,,,,,,,,N*2E' 08-49-48-348
b'$GNGGA,014927.80,,,,,0,00,99.99,,,,,,*79' 08-49-48-369
b'$GNVTG,,,,,,,,,N*2E' 08-49-48-398
b'$GNGGA,014927.85,,,,,0,00,99.99,,,,,,*7C' 08-49-48-420
b'$GNVTG,,,,,,,,,N*2E' 08-49-48-448
b'$GNGGA,014927.90,,,,,0,00,99.99,,,,,,*78' 08-49-48-471
b'$GNVTG,,,,,,,,,N*2E' 08-49-48-501
b'$GNGGA,014927.95,,,,,0,00,99.99,,,,,,*7D' 08-49-48-523
b'$GNVTG,,,,,,,,,N*2E' 08-49-48-548
b'$GNGGA,014928.00,,,,,0,00,99.99,,,,,,*7E' 08-49-48-571
b'$GNVTG,,,,,,,,,N*2E' 08-49-48-598
b'$GNGGA,014928.05,,,,,0,00,99.99,,,,,,*7B' 08-49-48-621
b'$GNVTG,,,,,,,,,N*2E' 08-49-48-648
b'$GNGGA,014928.10,,,,,0,00,99.99,,,,,,*7F' 08-49-48-671
b'$GNVTG,,,,,,,,,N*2E' 08-49-48-698
b'$GNGGA,014928.15,,,,,0,00,99.99,,,,,,*7A' 08-49-48-720
b'$GNVTG,,,,,,,,,N*2E' 08-49-48-748
b'$GNGGA,014928.20,,,,,0,00,99.99,,,,,,*7C' 08-49-48-771
b'$GNVTG,,,,,,,,,N*2E' 08-49-48-798
b'$GNGGA,014928.25,,,,,0,00,99.99,,,,,,*79' 08-49-48-820
b'$GNVTG,,,,,,,,,N*2E' 08-49-48-848
b'$GNGGA,014928.30,,,,,0,00,99.99,,,,,,*7D' 08-49-48-871
b'$GNVTG,,,,,,,,,N*2E' 08-49-48-898
b'$GNGGA,014928.35,,,,,0,00,99.99,,,,,,*78' 08-49-48-919
b'$GNVTG,,,,,,,,,N*2E' 08-49-48-948
b'$GNGGA,014928.40,,,,,0,00,99.99,,,,,,*7A' 08-49-48-970
b'$GNVTG,,,,,,,,,N*2E' 08-49-48-998
b'$GNGGA,014928.45,,,,,0,00,99.99,,,,,,*7F' 08-49-49-020
b'$GNVTG,,,,,,,,,N*2E' 08-49-49-048
b'$GNGGA,014928.50,,,,,0,00,99.99,,,,,,*7B' 08-49-49-070
b'$GNVTG,,,,,,,,,N*2E' 08-49-49-098
b'$GNGGA,014928.55,,,,,0,00,99.99,,,,,,*7E' 08-49-49-120
b'$GNVTG,,,,,,,,,N*2E' 08-49-49-148
b'$GNGGA,014928.60,,,,,0,00,99.99,,,,,,*78' 08-49-49-170
b'$GNVTG,,,,,,,,,N*2E' 08-49-49-198
b'$GNGGA,014928.65,,,,,0,00,99.99,,,,,,*7D' 08-49-49-220
b'$GNVTG,,,,,,,,,N*2E' 08-49-49-248
b'$GNGGA,014928.70,,,,,0,00,99.99,,,,,,*79' 08-49-49-270
b'$GNVTG,,,,,,,,,N*2E' 08-49-49-299
b'$GNGGA,014928.75,,,,,0,00,99.99,,,,,,*7C' 08-49-49-322
b'$GNVTG,,,,,,,,,N*2E' 08-49-49-348
b'$GNGGA,014928.80,,,,,0,00,99.99,,,,,,*76' 08-49-49-371
b'$GNVTG,,,,,,,,,N*2E' 08-49-49-398
b'$GNGGA,014928.85,,,,,0,00,99.99,,,,,,*73' 08-49-49-420
b'$GNVTG,,,,,,,,,N*2E' 08-49-49-448
b'$GNGGA,014928.90,,,,,0,00,99.99,,,,,,*77' 08-49-49-471
b'$GNVTG,,,,,,,,,N*2E' 08-49-49-502
b'$GNGGA,014928.95,,,,,0,00,99.99,,,,,,*72' 08-49-49-524
b'$GNVTG,,,,,,,,,N*2E' 08-49-49-548
b'$GNGGA,014929.00,,,,,0,00,99.99,,,,,,*7F' 08-49-49-571
b'$GNVTG,,,,,,,,,N*2E' 08-49-49-598
b'$GNGGA,014929.05,,,,,0,00,99.99,,,,,,*7A' 08-49-49-621
b'$GNVTG,,,,,,,,,N*2E' 08-49-49-648
b'$GNGGA,014929.10,,,,,0,00,99.99,,,,,,*7E' 08-49-49-670
b'$GNVTG,,,,,,,,,N*2E' 08-49-49-698
b'$GNGGA,014929.15,,,,,0,00,99.99,,,,,,*7B' 08-49-49-720
b'$GNVTG,,,,,,,,,N*2E' 08-49-49-748
b'$GNGGA,014929.20,,,,,0,00,99.99,,,,,,*7D' 08-49-49-770
b'$GNVTG,,,,,,,,,N*2E' 08-49-49-798
b'$GNGGA,014929.25,,,,,0,00,99.99,,,,,,*78' 08-49-49-820
b'$GNVTG,,,,,,,,,N*2E' 08-49-49-848
b'$GNGGA,014929.30,,,,,0,00,99.99,,,,,,*7C' 08-49-49-869
b'$GNVTG,,,,,,,,,N*2E' 08-49-49-898
b'$GNGGA,014929.35,,,,,0,00,99.99,,,,,,*79' 08-49-49-921
b'$GNVTG,,,,,,,,,N*2E' 08-49-49-948
b'$GNGGA,014929.40,,,,,0,00,99.99,,,,,,*7B' 08-49-49-970
b'$GNVTG,,,,,,,,,N*2E' 08-49-49-998
b'$GNGGA,014929.45,,,,,0,00,99.99,,,,,,*7E' 08-49-50-021
b'$GNVTG,,,,,,,,,N*2E' 08-49-50-048
b'$GNGGA,014929.50,,,,,0,00,99.99,,,,,,*7A' 08-49-50-069
b'$GNVTG,,,,,,,,,N*2E' 08-49-50-098
b'$GNGGA,014929.55,,,,,0,00,99.99,,,,,,*7F' 08-49-50-121
b'$GNVTG,,,,,,,,,N*2E' 08-49-50-148
b'$GNGGA,014929.60,,,,,0,00,99.99,,,,,,*79' 08-49-50-170
b'$GNVTG,,,,,,,,,N*2E' 08-49-50-198
b'$GNGGA,014929.65,,,,,0,00,99.99,,,,,,*7C' 08-49-50-220
b'$GNVTG,,,,,,,,,N*2E' 08-49-50-248
b'$GNGGA,014929.70,,,,,0,00,99.99,,,,,,*78' 08-49-50-271
b'$GNVTG,,,,,,,,,N*2E' 08-49-50-298
b'$GNGGA,014929.75,,,,,0,00,99.99,,,,,,*7D' 08-49-50-321
b'$GNVTG,,,,,,,,,N*2E' 08-49-50-348
b'$GNGGA,014929.80,,,,,0,00,99.99,,,,,,*77' 08-49-50-369
b'$GNVTG,,,,,,,,,N*2E' 08-49-50-398
b'$GNGGA,014929.85,,,,,0,00,99.99,,,,,,*72' 08-49-50-421
b'$GNVTG,,,,,,,,,N*2E' 08-49-50-448
b'$GNGGA,014929.90,,,,,0,00,99.99,,,,,,*76' 08-49-50-470
b'$GNVTG,,,,,,,,,N*2E' 08-49-50-502
b'$GNGGA,014929.95,,,,,0,00,99.99,,,,,,*73' 08-49-50-524
b'$GNVTG,,,,,,,,,N*2E' 08-49-50-548
b'$GNGGA,014930.00,,,,,0,00,99.99,,,,,,*77' 08-49-50-571
b'$GNVTG,,,,,,,,,N*2E' 08-49-50-598
b'$GNGGA,014930.05,,,,,0,00,99.99,,,,,,*72' 08-49-50-620
b'$GNVTG,145.01,T,,M,1.337,N,2.476,K,A*23' 08-49-50-680
b'$GNGGA,014930.10,4006.72972,N,08813.33695,W,1,03,2.97,256.2,M,-33.2,M,,*7E' 08-49-50-704
b'$GNVTG,,,,,,,,,N*2E' 08-49-50-725
b'$GNGGA,014930.15,,,,,0,03,2.97,,,,,,*4C' 08-49-50-748
b'$GNVTG,135.67,T,,M,1.494,N,2.767,K,A*29' 08-49-50-769
b'$GNGGA,014930.20,4006.73054,N,08813.33686,W,1,03,2.97,256.6,M,-33.2,M,,*77' 08-49-50-793
b'$GNVTG,115.01,T,,M,1.488,N,2.756,K,A*24' 08-49-50-815
b'$GNGGA,014930.25,4006.73052,N,08813.33682,W,1,03,2.97,256.5,M,-33.2,M,,*73' 08-49-50-839
b'$GNVTG,107.70,T,,M,1.271,N,2.355,K,A*26' 08-49-50-860
b'$GNGGA,014930.30,4006.73051,N,08813.33679,W,1,03,2.97,256.4,M,-33.2,M,,*71' 08-49-50-884
b'$GNVTG,101.05,T,,M,1.343,N,2.488,K,A*25' 08-49-50-906
b'$GNGGA,014930.35,4006.73051,N,08813.33676,W,1,03,2.97,256.4,M,-33.2,M,,*7B' 08-49-50-929
b'$GNVTG,95.11,T,,M,1.382,N,2.560,K,A*16' 08-49-50-953
b'$GNGGA,014930.40,4006.73051,N,08813.33673,W,1,03,2.97,256.4,M,-33.2,M,,*7C' 08-49-50-977
b'$GNVTG,97.00,T,,M,1.289,N,2.387,K,A*11' 08-49-51-004
b'$GNGGA,014930.45,4006.73051,N,08813.33671,W,1,03,2.97,256.4,M,-33.2,M,,*7B' 08-49-51-030
b'$GNVTG,90.92,T,,M,1.309,N,2.425,K,A*1B' 08-49-51-053
b'$GNGGA,014930.50,4006.73052,N,08813.33668,W,1,03,2.97,256.3,M,-33.2,M,,*73' 08-49-51-076
b'$GNVTG,88.07,T,,M,1.759,N,3.257,K,A*1D' 08-49-51-103
b'$GNGGA,014930.55,4006.73052,N,08813.33665,W,1,03,2.97,256.3,M,-33.2,M,,*7B' 08-49-51-126
b'$GNVTG,91.47,T,,M,1.692,N,3.133,K,A*16' 08-49-51-154
b'$GNGGA,014930.60,4006.73052,N,08813.33662,W,1,03,2.97,256.3,M,-33.2,M,,*7A' 08-49-51-176
b'$GNVTG,88.52,T,,M,1.554,N,2.878,K,A*14' 08-49-51-203
b'$GNGGA,014930.65,4006.73053,N,08813.33659,W,1,03,2.97,256.3,M,-33.2,M,,*76' 08-49-51-226
b'$GNVTG,83.65,T,,M,1.543,N,2.857,K,A*10' 08-49-51-254
b'$GNGGA,014930.70,4006.73054,N,08813.33656,W,1,03,2.97,256.3,M,-33.2,M,,*7A' 08-49-51-276
b'$GNVTG,82.03,T,,M,1.801,N,3.335,K,A*14' 08-49-51-303
b'$GNGGA,014930.75,4006.73054,N,08813.33652,W,1,03,2.97,256.3,M,-33.2,M,,*7B' 08-49-51-326
b'$GNVTG,81.66,T,,M,2.108,N,3.905,K,A*1E' 08-49-51-353
b'$GNGGA,014930.80,4006.73055,N,08813.33647,W,1,03,2.97,256.3,M,-33.2,M,,*74' 08-49-51-376
b'$GNVTG,80.03,T,,M,1.922,N,3.560,K,A*10' 08-49-51-403
b'$GNGGA,014930.85,4006.73056,N,08813.33644,W,1,03,2.97,256.3,M,-33.2,M,,*71' 08-49-51-427
b'$GNVTG,76.23,T,,M,1.970,N,3.649,K,A*14' 08-49-51-453
b'$GNGGA,014930.90,4006.73057,N,08813.33640,W,1,03,2.97,256.3,M,-33.2,M,,*70' 08-49-51-476
b'$GNVTG,74.76,T,,M,1.967,N,3.644,K,A*1D' 08-49-51-503
b'$GNGGA,014930.95,4006.73058,N,08813.33637,W,1,03,2.97,256.3,M,-33.2,M,,*7A' 08-49-51-526
b'$GNVTG,74.50,T,,M,1.944,N,3.600,K,A*18' 08-49-51-556
b'$GNGGA,014931.00,4006.73059,N,08813.33633,W,1,03,2.97,256.3,M,-33.2,M,,*72' 08-49-51-580
b'$GNVTG,72.79,T,,M,2.045,N,3.788,K,A*1F' 08-49-51-603
b'$GNGGA,014931.05,4006.73060,N,08813.33630,W,1,03,2.97,256.3,M,-33.2,M,,*7E' 08-49-51-626
b'$GNVTG,70.42,T,,M,2.125,N,3.935,K,A*1A' 08-49-51-653
b'$GNGGA,014931.10,4006.73062,N,08813.33626,W,1,03,2.97,256.3,M,-33.2,M,,*7F' 08-49-51-676
b'$GNVTG,69.61,T,,M,2.361,N,4.373,K,A*1E' 08-49-51-703
b'$GNGGA,014931.15,4006.73063,N,08813.33622,W,1,03,2.97,256.3,M,-33.2,M,,*7F' 08-49-51-726
b'$GNVTG,71.13,T,,M,2.475,N,4.584,K,A*1E' 08-49-51-754
b'$GNGGA,014931.20,4006.73064,N,08813.33618,W,1,03,2.97,256.3,M,-33.2,M,,*77' 08-49-51-776
b'$GNVTG,72.11,T,,M,2.430,N,4.499,K,A*13' 08-49-51-803
b'$GNGGA,014931.25,4006.73065,N,08813.33614,W,1,03,2.97,256.3,M,-33.2,M,,*7F' 08-49-51-826
b'$GNVTG,70.78,T,,M,2.261,N,4.188,K,A*19' 08-49-51-854
b'$GNGGA,014931.30,4006.73067,N,08813.33610,W,1,03,2.97,256.3,M,-33.2,M,,*7D' 08-49-51-876
b'$GNVTG,69.12,T,,M,2.019,N,3.739,K,A*1B' 08-49-51-903
b'$GNGGA,014931.35,4006.73067,N,08813.33607,W,1,03,2.97,256.3,M,-33.2,M,,*7E' 08-49-51-926
b'$GNVTG,69.27,T,,M,2.196,N,4.067,K,A*10' 08-49-51-953
b'$GNGGA,014931.40,4006.73068,N,08813.33604,W,1,03,2.97,256.3,M,-33.2,M,,*70' 08-49-51-976
b'$GNVTG,70.82,T,,M,2.254,N,4.175,K,A*18' 08-49-52-003
b'$GNGGA,014931.45,4006.73069,N,08813.33600,W,1,03,2.97,256.2,M,-33.2,M,,*71' 08-49-52-027
b'$GNVTG,70.65,T,,M,2.269,N,4.202,K,A*1C' 08-49-52-053
b'$GNGGA,014931.50,4006.73071,N,08813.33596,W,1,03,2.97,256.2,M,-33.2,M,,*70' 08-49-52-076
b'$GNVTG,70.73,T,,M,2.200,N,4.074,K,A*17' 08-49-52-103
b'$GNGGA,014931.55,4006.73072,N,08813.33592,W,1,03,2.97,256.2,M,-33.2,M,,*72' 08-49-52-126
b'$GNVTG,69.18,T,,M,2.248,N,4.163,K,A*19' 08-49-52-153
b'$GNGGA,014931.60,4006.73073,N,08813.33589,W,1,03,2.97,256.3,M,-33.2,M,,*7E' 08-49-52-176
b'$GNVTG,66.72,T,,M,2.325,N,4.306,K,A*11' 08-49-52-203
b'$GNGGA,014931.65,4006.73075,N,08813.33585,W,1,03,2.97,256.3,M,-33.2,M,,*71' 08-49-52-225
b'$GNVTG,67.18,T,,M,2.353,N,4.358,K,A*16' 08-49-52-253
b'$GNGGA,014931.70,4006.73076,N,08813.33581,W,1,03,2.97,256.2,M,-33.2,M,,*73' 08-49-52-276
b'$GNVTG,69.83,T,,M,2.177,N,4.032,K,A*11' 08-49-52-303
b'$GNGGA,014931.75,4006.73077,N,08813.33578,W,1,03,2.97,256.2,M,-33.2,M,,*71' 08-49-52-327
b'$GNVTG,69.20,T,,M,2.403,N,4.450,K,A*1E' 08-49-52-353
b'$GNGGA,014931.80,4006.73079,N,08813.33573,W,1,03,2.97,256.2,M,-33.2,M,,*7E' 08-49-52-376
b'$GNVTG,71.03,T,,M,2.058,N,3.811,K,A*12' 08-49-52-403
b'$GNGGA,014931.85,4006.73079,N,08813.33570,W,1,03,2.97,256.2,M,-33.2,M,,*78' 08-49-52-426
b'$GNVTG,69.93,T,,M,2.208,N,4.088,K,A*1A' 08-49-52-453
b'$GNGGA,014931.90,4006.73081,N,08813.33566,W,1,03,2.97,256.3,M,-33.2,M,,*7D' 08-49-52-476
b'$GNVTG,67.97,T,,M,2.064,N,3.822,K,A*17' 08-49-52-503
b'$GNGGA,014931.95,4006.73082,N,08813.33564,W,1,03,2.97,256.3,M,-33.2,M,,*79' 08-49-52-526
b'$GNVTG,62.21,T,,M,2.211,N,4.095,K,A*1C' 08-49-52-556
b'$GNGGA,014932.00,4006.73085,N,08813.33560,W,1,03,2.97,256.3,M,-33.2,M,,*75' 08-49-52-579
b'$GNVTG,60.84,T,,M,2.292,N,4.245,K,A*15' 08-49-52-603
b'$GNGGA,014932.05,4006.73087,N,08813.33556,W,1,03,2.97,256.3,M,-33.2,M,,*77' 08-49-52-627
b'$GNVTG,66.33,T,,M,2.316,N,4.290,K,A*1A' 08-49-52-654
b'$GNGGA,014932.10,4006.73087,N,08813.33552,W,1,03,2.97,256.3,M,-33.2,M,,*77' 08-49-52-676
b'$GNVTG,70.91,T,,M,2.511,N,4.651,K,A*1D' 08-49-52-703
b'$GNGGA,014932.15,4006.73088,N,08813.33548,W,1,03,2.97,256.2,M,-33.2,M,,*77' 08-49-52-726
b'$GNVTG,71.50,T,,M,2.328,N,4.311,K,A*1C' 08-49-52-753
b'$GNGGA,014932.20,4006.73089,N,08813.33544,W,1,03,2.97,256.2,M,-33.2,M,,*7C' 08-49-52-776
b'$GNVTG,69.47,T,,M,2.024,N,3.749,K,A*12' 08-49-52-803
b'$GNGGA,014932.25,4006.73090,N,08813.33541,W,1,03,2.97,256.2,M,-33.2,M,,*74' 08-49-52-826
b'$GNVTG,66.28,T,,M,1.945,N,3.603,K,A*16' 08-49-52-853
b'$GNGGA,014932.30,4006.73091,N,08813.33539,W,1,03,2.97,256.2,M,-33.2,M,,*7E' 08-49-52-876
b'$GNVTG,62.24,T,,M,1.920,N,3.555,K,A*1D' 08-49-52-904
b'$GNGGA,014932.35,4006.73093,N,08813.33536,W,1,03,2.97,256.2,M,-33.2,M,,*76' 08-49-52-927
b'$GNVTG,63.84,T,,M,1.995,N,3.695,K,A*17' 08-49-52-954
b'$GNGGA,014932.40,4006.73094,N,08813.33532,W,1,03,2.97,256.2,M,-33.2,M,,*77' 08-49-52-976
b'$GNVTG,68.67,T,,M,2.364,N,4.379,K,A*16' 08-49-53-003
b'$GNGGA,014932.45,4006.73095,N,08813.33528,W,1,03,2.97,256.3,M,-33.2,M,,*79' 08-49-53-026
b'$GNVTG,71.69,T,,M,2.441,N,4.521,K,A*1B' 08-49-53-053
b'$GNGGA,014932.50,4006.73096,N,08813.33523,W,1,03,2.97,256.3,M,-33.2,M,,*75' 08-49-53-076
b'$GNVTG,71.60,T,,M,2.369,N,4.388,K,A*1A' 08-49-53-103
b'$GNGGA,014932.55,4006.73098,N,08813.33519,W,1,03,2.97,256.3,M,-33.2,M,,*77' 08-49-53-126
b'$GNVTG,68.74,T,,M,1.985,N,3.676,K,A*1F' 08-49-53-153
b'$GNGGA,014932.60,4006.73099,N,08813.33517,W,1,03,2.97,256.3,M,-33.2,M,,*7E' 08-49-53-176
b'$GNVTG,65.22,T,,M,1.665,N,3.083,K,A*1C' 08-49-53-203
b'$GNGGA,014932.65,4006.73100,N,08813.33515,W,1,03,2.97,256.3,M,-33.2,M,,*78' 08-49-53-227
b'$GNVTG,59.48,T,,M,1.803,N,3.339,K,A*13' 08-49-53-253
b'$GNGGA,014932.70,4006.73102,N,08813.33512,W,1,03,2.97,256.3,M,-33.2,M,,*79' 08-49-53-276
b'$GNVTG,62.03,T,,M,2.232,N,4.134,K,A*17' 08-49-53-303
b'$GNGGA,014932.75,4006.73104,N,08813.33507,W,1,03,2.97,256.3,M,-33.2,M,,*7E' 08-49-53-326
b'$GNVTG,65.76,T,,M,2.681,N,4.966,K,A*11' 08-49-53-353
b'$GNGGA,014932.80,4006.73105,N,08813.33502,W,1,03,2.97,256.3,M,-33.2,M,,*70' 08-49-53-376
b'$GNVTG,66.44,T,,M,2.574,N,4.767,K,A*15' 08-49-53-403
b'$GNGGA,014932.85,4006.73107,N,08813.33498,W,1,03,2.97,256.3,M,-33.2,M,,*75' 08-49-53-426
b'$GNVTG,62.97,T,,M,2.233,N,4.136,K,A*19' 08-49-53-453
b'$GNGGA,014932.90,4006.73108,N,08813.33495,W,1,03,2.97,256.3,M,-33.2,M,,*73' 08-49-53-475
b'$GNVTG,57.06,T,,M,1.781,N,3.298,K,A*18' 08-49-53-503
b'$GNGGA,014932.95,4006.73110,N,08813.33494,W,1,03,2.97,256.3,M,-33.2,M,,*7E' 08-49-53-526
b'$GNVTG,59.19,T,,M,2.109,N,3.905,K,A*12' 08-49-53-557
b'$GNGGA,014933.00,4006.73111,N,08813.33490,W,1,03,2.97,256.3,M,-33.2,M,,*76' 08-49-53-579
b'$GNVTG,63.80,T,,M,2.425,N,4.491,K,A*17' 08-49-53-603
b'$GNGGA,014933.05,4006.73113,N,08813.33485,W,1,03,2.97,256.3,M,-33.2,M,,*75' 08-49-53-627
b'$GNVTG,62.58,T,,M,2.552,N,4.726,K,A*1D' 08-49-53-653
b'$GNGGA,014933.10,4006.73116,N,08813.33481,W,1,03,2.97,256.3,M,-33.2,M,,*70' 08-49-53-676
b'$GNVTG,58.51,T,,M,1.918,N,3.551,K,A*19' 08-49-53-703
b'$GNGGA,014933.15,4006.73117,N,08813.33479,W,1,03,2.97,256.3,M,-33.2,M,,*73' 08-49-53-727
b'$GNVTG,50.69,T,,M,2.001,N,3.706,K,A*18' 08-49-53-753
b'$GNGGA,014933.20,4006.73119,N,08813.33476,W,1,03,2.97,256.3,M,-33.2,M,,*74' 08-49-53-776
b'$GNVTG,52.29,T,,M,2.144,N,3.971,K,A*10' 08-49-53-803
b'$GNGGA,014933.25,4006.73121,N,08813.33473,W,1,03,2.97,256.3,M,-33.2,M,,*7F' 08-49-53-827
b'$GNVTG,58.14,T,,M,2.266,N,4.196,K,A*11' 08-49-53-853
b'$GNGGA,014933.30,4006.73122,N,08813.33469,W,1,03,2.97,256.3,M,-33.2,M,,*73' 08-49-53-876
b'$GNVTG,59.29,T,,M,2.538,N,4.701,K,A*1A' 08-49-53-903
b'$GNGGA,014933.35,4006.73125,N,08813.33464,W,1,03,2.97,256.3,M,-33.2,M,,*7C' 08-49-53-927
b'$GNVTG,54.88,T,,M,2.277,N,4.218,K,A*1D' 08-49-53-953
b'$GNGGA,014933.40,4006.73127,N,08813.33462,W,1,03,2.97,256.3,M,-33.2,M,,*7A' 08-49-53-976
b'$GNVTG,50.53,T,,M,1.889,N,3.498,K,A*1E' 08-49-54-003
b'$GNGGA,014933.45,4006.73128,N,08813.33460,W,1,03,2.97,256.3,M,-33.2,M,,*72' 08-49-54-027
b'$GNVTG,52.32,T,,M,2.267,N,4.199,K,A*11' 08-49-54-053
b'$GNGGA,014933.50,4006.73130,N,08813.33456,W,1,03,2.97,256.3,M,-33.2,M,,*7A' 08-49-54-075
b'$GNVTG,56.78,T,,M,2.431,N,4.502,K,A*18' 08-49-54-103
b'$GNGGA,014933.55,4006.73131,N,08813.33452,W,1,03,2.97,256.3,M,-33.2,M,,*7A' 08-49-54-126
b'$GNVTG,55.62,T,,M,2.243,N,4.155,K,A*15' 08-49-54-153
b'$GNGGA,014933.60,4006.73133,N,08813.33449,W,1,03,2.97,256.3,M,-33.2,M,,*74' 08-49-54-176
b'$GNVTG,50.77,T,,M,2.168,N,4.015,K,A*1B' 08-49-54-203
b'$GNGGA,014933.65,4006.73136,N,08813.33446,W,1,03,2.97,256.3,M,-33.2,M,,*7B' 08-49-54-226
b'$GNVTG,48.07,T,,M,2.080,N,3.852,K,A*1E' 08-49-54-253
b'$GNGGA,014933.70,4006.73137,N,08813.33444,W,1,03,2.97,256.3,M,-33.2,M,,*7C' 08-49-54-277
b'$GNVTG,49.69,T,,M,2.205,N,4.084,K,A*1C' 08-49-54-303
b'$GNGGA,014933.75,4006.73139,N,08813.33440,W,1,03,2.97,256.3,M,-33.2,M,,*73' 08-49-54-326
b'$GNVTG,51.69,T,,M,2.352,N,4.357,K,A*1B' 08-49-54-353
b'$GNGGA,014933.80,4006.73141,N,08813.33437,W,1,03,2.97,256.3,M,-33.2,M,,*76' 08-49-54-376
b'$GNVTG,50.44,T,,M,2.008,N,3.718,K,A*11' 08-49-54-403
b'$GNGGA,014933.85,4006.73142,N,08813.33435,W,1,03,2.97,256.3,M,-33.2,M,,*72' 08-49-54-427
b'$GNVTG,43.00,T,,M,2.160,N,4.000,K,A*15' 08-49-54-453
b'$GNGGA,014933.90,4006.73146,N,08813.33432,W,1,03,2.97,256.2,M,-33.2,M,,*74' 08-49-54-476
b'$GNVTG,43.17,T,,M,2.428,N,4.497,K,A*10' 08-49-54-503
b'$GNGGA,014933.95,4006.73149,N,08813.33428,W,1,03,2.97,256.3,M,-33.2,M,,*74' 08-49-54-526
b'$GNVTG,48.26,T,,M,2.241,N,4.151,K,A*1F' 08-49-54-556
b'$GNGGA,014934.00,4006.73149,N,08813.33425,W,1,03,2.97,256.3,M,-33.2,M,,*72' 08-49-54-579
b'$GNVTG,52.36,T,,M,1.965,N,3.640,K,A*1B' 08-49-54-603
b'$GNGGA,014934.05,4006.73149,N,08813.33423,W,1,03,2.97,256.3,M,-33.2,M,,*71' 08-49-54-626
b'$GNVTG,46.45,T,,M,2.152,N,3.986,K,A*10' 08-49-54-653
b'$GNGGA,014934.10,4006.73153,N,08813.33420,W,1,03,2.97,256.3,M,-33.2,M,,*7D' 08-49-54-676
b'$GNVTG,41.35,T,,M,1.907,N,3.532,K,A*18' 08-49-54-703
b'$GNGGA,014934.15,4006.73155,N,08813.33419,W,1,03,2.97,256.3,M,-33.2,M,,*74' 08-49-54-727
b'$GNVTG,43.50,T,,M,2.243,N,4.155,K,A*13' 08-49-54-753
b'$GNGGA,014934.20,4006.73158,N,08813.33415,W,1,03,2.97,256.2,M,-33.2,M,,*72' 08-49-54-776
b'$GNVTG,46.97,T,,M,2.318,N,4.293,K,A*1B' 08-49-54-803
b'$GNGGA,014934.25,4006.73159,N,08813.33411,W,1,03,2.97,256.3,M,-33.2,M,,*73' 08-49-54-825
b'$GNVTG,47.64,T,,M,1.880,N,3.482,K,A*1E' 08-49-54-853
b'$GNGGA,014934.30,4006.73160,N,08813.33410,W,1,03,2.97,256.2,M,-33.2,M,,*7D' 08-49-54-876
b'$GNVTG,43.05,T,,M,1.766,N,3.270,K,A*11' 08-49-54-903
b'$GNGGA,014934.35,4006.73162,N,08813.33408,W,1,03,2.97,256.2,M,-33.2,M,,*73' 08-49-54-925
b'$GNVTG,41.70,T,,M,2.038,N,3.774,K,A*1F' 08-49-54-953
b'$GNGGA,014934.40,4006.73165,N,08813.33405,W,1,03,2.97,256.3,M,-33.2,M,,*7A' 08-49-54-975
b'$GNVTG,43.65,T,,M,2.014,N,3.729,K,A*1F' 08-49-55-003
b'$GNGGA,014934.45,4006.73166,N,08813.33402,W,1,03,2.97,256.2,M,-33.2,M,,*7A' 08-49-55-027
b'$GNVTG,45.87,T,,M,1.718,N,3.182,K,A*1A' 08-49-55-053
b'$GNGGA,014934.50,4006.73167,N,08813.33401,W,1,03,2.97,256.2,M,-33.2,M,,*7C' 08-49-55-077
b'$GNVTG,44.88,T,,M,1.865,N,3.454,K,A*1F' 08-49-55-103
b'$GNGGA,014934.55,4006.73169,N,08813.33398,W,1,03,2.97,256.2,M,-33.2,M,,*70' 08-49-55-126
b'$GNVTG,41.18,T,,M,2.070,N,3.834,K,A*16' 08-49-55-153
b'$GNGGA,014934.60,4006.73173,N,08813.33395,W,1,03,2.97,256.2,M,-33.2,M,,*70' 08-49-55-176
b'$GNVTG,40.55,T,,M,1.812,N,3.356,K,A*1E' 08-49-55-203
b'$GNGGA,014934.65,4006.73173,N,08813.33394,W,1,03,2.97,256.3,M,-33.2,M,,*75' 08-49-55-226
b'$GNVTG,43.02,T,,M,1.839,N,3.406,K,A*14' 08-49-55-253
b'$GNGGA,014934.70,4006.73175,N,08813.33391,W,1,03,2.97,256.2,M,-33.2,M,,*73' 08-49-55-276
b'$GNVTG,44.62,T,,M,1.760,N,3.259,K,A*1A' 08-49-55-303
b'$GNGGA,014934.75,4006.73176,N,08813.33389,W,1,03,2.97,256.2,M,-33.2,M,,*7C' 08-49-55-326
b'$GNVTG,42.42,T,,M,1.844,N,3.415,K,A*19' 08-49-55-353
b'$GNGGA,014934.80,4006.73179,N,08813.33387,W,1,03,2.97,256.2,M,-33.2,M,,*77' 08-49-55-377
b'$GNVTG,41.59,T,,M,1.969,N,3.646,K,A*1A' 08-49-55-403
b'$GNGGA,014934.85,4006.73181,N,08813.33384,W,1,03,2.97,256.2,M,-33.2,M,,*76' 08-49-55-427
b'$GNVTG,42.96,T,,M,1.818,N,3.367,K,A*1B' 08-49-55-453
b'$GNGGA,014934.90,4006.73182,N,08813.33382,W,1,03,2.97,256.2,M,-33.2,M,,*77' 08-49-55-478
b'$GNVTG,45.52,T,,M,1.804,N,3.342,K,A*1E' 08-49-55-503
b'$GNGGA,014934.95,4006.73184,N,08813.33380,W,1,03,2.97,256.2,M,-33.2,M,,*76' 08-49-55-528
b'$GNVTG,42.06,T,,M,1.740,N,3.223,K,A*11' 08-49-55-557
b'$GNGGA,014935.00,4006.73186,N,08813.33378,W,1,03,2.97,256.2,M,-33.2,M,,*7E' 08-49-55-582
b'$GNVTG,37.14,T,,M,1.845,N,3.417,K,A*1B' 08-49-55-605
b'$GNGGA,014935.05,4006.73189,N,08813.33376,W,1,03,2.97,256.2,M,-33.2,M,,*7A' 08-49-55-631
b'$GNVTG,37.26,T,,M,1.901,N,3.521,K,A*1F' 08-49-55-654
b'$GNGGA,014935.10,4006.73191,N,08813.33374,W,1,03,2.97,256.2,M,-33.2,M,,*75' 08-49-55-678
b'$GNVTG,42.32,T,,M,2.214,N,4.100,K,A*14' 08-49-55-703
b'$GNGGA,014935.15,4006.73193,N,08813.33370,W,1,03,2.97,256.2,M,-33.2,M,,*76' 08-49-55-727
b'$GNVTG,42.37,T,,M,1.923,N,3.561,K,A*19' 08-49-55-753
b'$GNGGA,014935.20,4006.73194,N,08813.33369,W,1,03,2.97,256.2,M,-33.2,M,,*7F' 08-49-55-776
b'$GNVTG,36.17,T,,M,1.444,N,2.674,K,A*12' 08-49-55-803
b'$GNGGA,014935.25,4006.73195,N,08813.33369,W,1,03,2.97,256.2,M,-33.2,M,,*7B' 08-49-55-826
b'$GNVTG,38.35,T,,M,1.698,N,3.145,K,A*1B' 08-49-55-853
b'$GNGGA,014935.30,4006.73197,N,08813.33366,W,1,03,2.97,256.2,M,-33.2,M,,*72' 08-49-55-876
b'$GNVTG,44.54,T,,M,1.963,N,3.636,K,A*1F' 08-49-55-903
b'$GNGGA,014935.35,4006.73199,N,08813.33363,W,1,03,2.97,256.2,M,-33.2,M,,*7C' 08-49-55-927
b'$GNVTG,43.31,T,,M,1.814,N,3.360,K,A*1C' 08-49-55-953
b'$GNGGA,014935.40,4006.73201,N,08813.33361,W,1,03,2.97,256.2,M,-33.2,M,,*7E' 08-49-55-976
b'$GNVTG,36.33,T,,M,1.834,N,3.397,K,A*16' 08-49-56-003
b'$GNGGA,014935.45,4006.73204,N,08813.33359,W,1,03,2.97,256.2,M,-33.2,M,,*75' 08-49-56-026
b'$GNVTG,35.59,T,,M,1.762,N,3.263,K,A*1F' 08-49-56-053
b'$GNGGA,014935.50,4006.73206,N,08813.33358,W,1,03,2.97,256.2,M,-33.2,M,,*72' 08-49-56-075
b'$GNVTG,40.57,T,,M,1.805,N,3.343,K,A*1E' 08-49-56-103
b'$GNGGA,014935.55,4006.73207,N,08813.33355,W,1,03,2.97,256.2,M,-33.2,M,,*7B' 08-49-56-127
b'$GNVTG,41.73,T,,M,1.797,N,3.328,K,A*10' 08-49-56-153
b'$GNGGA,014935.60,4006.73209,N,08813.33353,W,1,03,2.97,256.2,M,-33.2,M,,*75' 08-49-56-175
b'$GNVTG,35.47,T,,M,1.461,N,2.706,K,A*17' 08-49-56-203
b'$GNGGA,014935.65,4006.73210,N,08813.33353,W,1,03,2.97,256.2,M,-33.2,M,,*78' 08-49-56-226
b'$GNVTG,33.31,T,,M,1.588,N,2.941,K,A*1B' 08-49-56-253
b'$GNGGA,014935.70,4006.73212,N,08813.33351,W,1,03,2.97,256.2,M,-33.2,M,,*7C' 08-49-56-277
b'$GNVTG,36.71,T,,M,1.908,N,3.534,K,A*11' 08-49-56-303
b'$GNGGA,014935.75,4006.73215,N,08813.33348,W,1,03,2.97,256.2,M,-33.2,M,,*76' 08-49-56-327
b'$GNVTG,36.93,T,,M,2.052,N,3.800,K,A*12' 08-49-56-353
b'$GNGGA,014935.80,4006.73218,N,08813.33345,W,1,03,2.97,256.2,M,-33.2,M,,*7C' 08-49-56-376
b'$GNVTG,32.03,T,,M,1.761,N,3.261,K,A*16' 08-49-56-403
b'$GNGGA,014935.85,4006.73220,N,08813.33345,W,1,03,2.97,256.2,M,-33.2,M,,*72' 08-49-56-426
b'$GNVTG,27.74,T,,M,1.598,N,2.959,K,A*17' 08-49-56-453
b'$GNGGA,014935.90,4006.73221,N,08813.33344,W,1,03,2.97,256.2,M,-33.2,M,,*76' 08-49-56-476
b'$GNVTG,27.98,T,,M,1.659,N,3.073,K,A*1B' 08-49-56-503
b'$GNGGA,014935.95,4006.73223,N,08813.33342,W,1,03,2.97,256.2,M,-33.2,M,,*77' 08-49-56-525
b'$GNVTG,27.29,T,,M,1.838,N,3.405,K,A*1D' 08-49-56-556
b'$GNGGA,014936.00,4006.73227,N,08813.33340,W,1,03,2.97,256.2,M,-33.2,M,,*7E' 08-49-56-580
b'$GNVTG,26.22,T,,M,2.076,N,3.845,K,A*1E' 08-49-56-603
b'$GNGGA,014936.05,4006.73230,N,08813.33338,W,1,03,2.97,256.2,M,-33.2,M,,*72' 08-49-56-626
b'$GNVTG,25.64,T,,M,2.073,N,3.840,K,A*1F' 08-49-56-653
b'$GNGGA,014936.10,4006.73233,N,08813.33337,W,1,03,2.97,256.2,M,-33.2,M,,*7A' 08-49-56-677
b'$GNVTG,23.47,T,,M,1.733,N,3.209,K,A*1F' 08-49-56-702
b'$GNGGA,014936.15,4006.73234,N,08813.33337,W,1,03,2.97,256.2,M,-33.2,M,,*78' 08-49-56-726
b'$GNVTG,19.68,T,,M,1.659,N,3.072,K,A*18' 08-49-56-752
b'$GNGGA,014936.20,4006.73236,N,08813.33336,W,1,03,2.97,256.2,M,-33.2,M,,*7D' 08-49-56-776
b'$GNVTG,21.68,T,,M,2.093,N,3.876,K,A*1C' 08-49-56-803
b'$GNGGA,014936.25,4006.73240,N,08813.33334,W,1,03,2.97,256.2,M,-33.2,M,,*7B' 08-49-56-825
b'$GNVTG,22.32,T,,M,2.256,N,4.177,K,A*14' 08-49-56-853
b'$GNGGA,014936.30,4006.73243,N,08813.33332,W,1,03,2.97,256.2,M,-33.2,M,,*7A' 08-49-56-875
b'$GNVTG,19.69,T,,M,2.046,N,3.788,K,A*10' 08-49-56-903
b'$GNGGA,014936.35,4006.73246,N,08813.33331,W,1,03,2.97,256.2,M,-33.2,M,,*79' 08-49-56-926
b'$GNVTG,18.21,T,,M,1.936,N,3.585,K,A*1F' 08-49-56-953
b'$GNGGA,014936.40,4006.73248,N,08813.33330,W,1,03,2.97,256.2,M,-33.2,M,,*74' 08-49-56-975
b'$GNVTG,19.25,T,,M,1.927,N,3.570,K,A*10' 08-49-57-003
b'$GNGGA,014936.45,4006.73250,N,08813.33329,W,1,03,2.97,256.2,M,-33.2,M,,*70' 08-49-57-026
b'$GNVTG,17.80,T,,M,2.120,N,3.925,K,A*11' 08-49-57-053
b'$GNGGA,014936.50,4006.73254,N,08813.33328,W,1,03,2.97,256.2,M,-33.2,M,,*71' 08-49-57-076
b'$GNVTG,15.88,T,,M,2.122,N,3.931,K,A*1C' 08-49-57-103
b'$GNGGA,014936.55,4006.73256,N,08813.33327,W,1,03,2.97,256.2,M,-33.2,M,,*79' 08-49-57-125
b'$GNVTG,16.42,T,,M,1.977,N,3.662,K,A*1B' 08-49-57-153
b'$GNGGA,014936.60,4006.73258,N,08813.33326,W,1,03,2.98,256.2,M,-33.2,M,,*7F' 08-49-57-176
b'$GNVTG,15.95,T,,M,1.860,N,3.444,K,A*13' 08-49-57-203
b'$GNGGA,014936.65,4006.73260,N,08813.33326,W,1,03,2.98,256.2,M,-33.2,M,,*71' 08-49-57-225
b'$GNVTG,13.14,T,,M,1.888,N,3.497,K,A*14' 08-49-57-253
b'$GNGGA,014936.70,4006.73263,N,08813.33325,W,1,03,2.98,256.2,M,-33.2,M,,*75' 08-49-57-276
b'$GNVTG,14.29,T,,M,1.939,N,3.591,K,A*11' 08-49-57-303
b'$GNGGA,014936.75,4006.73266,N,08813.33324,W,1,03,2.98,256.2,M,-33.2,M,,*74' 08-49-57-326
b'$GNVTG,14.20,T,,M,1.900,N,3.519,K,A*12' 08-49-57-353
b'$GNGGA,014936.80,4006.73268,N,08813.33323,W,1,03,2.98,256.2,M,-33.2,M,,*77' 08-49-57-375
b'$GNVTG,10.94,T,,M,1.844,N,3.416,K,A*16' 08-49-57-403
b'$GNGGA,014936.85,4006.73271,N,08813.33323,W,1,03,2.98,256.2,M,-33.2,M,,*7A' 08-49-57-425
b'$GNVTG,10.48,T,,M,1.722,N,3.189,K,A*1B' 08-49-57-453
b'$GNGGA,014936.90,4006.73272,N,08813.33323,W,1,03,2.98,256.2,M,-33.2,M,,*7D' 08-49-57-476
b'$GNVTG,9.22,T,,M,1.576,N,2.918,K,A*2D' 08-49-57-503
b'$GNGGA,014936.95,4006.73274,N,08813.33323,W,1,03,2.98,256.2,M,-33.2,M,,*7E' 08-49-57-526
b'$GNVTG,8.91,T,,M,1.915,N,3.546,K,A*2B' 08-49-57-556
b'$GNGGA,014937.00,4006.73278,N,08813.33322,W,1,03,2.98,256.2,M,-33.2,M,,*7E' 08-49-57-579
b'$GNVTG,9.63,T,,M,2.063,N,3.820,K,A*21' 08-49-57-602
b'$GNGGA,014937.05,4006.73281,N,08813.33321,W,1,03,2.98,256.2,M,-33.2,M,,*7E' 08-49-57-625
b'$GNVTG,8.57,T,,M,1.695,N,3.140,K,A*24' 08-49-57-653
b'$GNGGA,014937.10,4006.73282,N,08813.33321,W,1,03,2.98,256.2,M,-33.2,M,,*79' 08-49-57-676
b'$GNVTG,7.32,T,,M,1.474,N,2.730,K,A*25' 08-49-57-703
b'$GNGGA,014937.15,4006.73283,N,08813.33321,W,1,03,2.98,256.2,M,-33.2,M,,*7D' 08-49-57-725
b'$GNVTG,7.16,T,,M,1.553,N,2.876,K,A*2A' 08-49-57-753
b'$GNGGA,014937.20,4006.73286,N,08813.33321,W,1,03,2.98,256.2,M,-33.2,M,,*7E' 08-49-57-776
b'$GNVTG,6.62,T,,M,1.646,N,3.049,K,A*2A' 08-49-57-803
b'$GNGGA,014937.25,4006.73288,N,08813.33320,W,1,03,2.98,256.2,M,-33.2,M,,*74' 08-49-57-826
b'$GNVTG,6.30,T,,M,1.646,N,3.048,K,A*2C' 08-49-57-853
b'$GNGGA,014937.30,4006.73291,N,08813.33320,W,1,03,2.98,256.2,M,-33.2,M,,*78' 08-49-57-875
b'$GNVTG,7.29,T,,M,1.720,N,3.185,K,A*24' 08-49-57-903
b'$GNGGA,014937.35,4006.73293,N,08813.33319,W,1,03,2.98,256.2,M,-33.2,M,,*75' 08-49-57-926
b'$GNVTG,7.22,T,,M,1.702,N,3.152,K,A*25' 08-49-57-953
b'$GNGGA,014937.40,4006.73295,N,08813.33319,W,1,03,2.98,256.2,M,-33.2,M,,*71' 08-49-57-976
b'$GNVTG,6.88,T,,M,1.681,N,3.113,K,A*2B' 08-49-58-003
b'$GNGGA,014937.45,4006.73297,N,08813.33319,W,1,03,2.98,256.2,M,-33.2,M,,*76' 08-49-58-026
b'$GNVTG,5.98,T,,M,1.525,N,2.824,K,A*28' 08-49-58-053
b'$GNGGA,014937.50,4006.73299,N,08813.33319,W,1,03,2.98,256.2,M,-33.2,M,,*7C' 08-49-58-076
b'$GNVTG,2.84,T,,M,1.587,N,2.939,K,A*27' 08-49-58-103
b'$GNGGA,014937.55,4006.73301,N,08813.33319,W,1,03,2.98,256.2,M,-33.2,M,,*79' 08-49-58-126
b'$GNVTG,2.06,T,,M,1.807,N,3.347,K,A*2A' 08-49-58-153
b'$GNGGA,014937.60,4006.73305,N,08813.33319,W,1,03,2.98,256.2,M,-33.2,M,,*7B' 08-49-58-176
b'$GNVTG,5.26,T,,M,1.860,N,3.446,K,A*28' 08-49-58-203
b'$GNGGA,014937.65,4006.73307,N,08813.33318,W,1,03,2.98,256.2,M,-33.2,M,,*7D' 08-49-58-226
b'$GNVTG,6.86,T,,M,1.737,N,3.217,K,A*2E' 08-49-58-253
b'$GNGGA,014937.70,4006.73309,N,08813.33318,W,1,03,2.98,256.2,M,-33.2,M,,*77' 08-49-58-275
b'$GNVTG,3.22,T,,M,1.615,N,2.991,K,A*20' 08-49-58-303
b'$GNGGA,014937.75,4006.73311,N,08813.33319,W,1,03,2.98,256.2,M,-33.2,M,,*7A' 08-49-58-325
b'$GNVTG,1.59,T,,M,1.764,N,3.266,K,A*2B' 08-49-58-353
b'$GNGGA,014937.80,4006.73314,N,08813.33318,W,1,03,2.98,256.3,M,-33.2,M,,*75' 08-49-58-381
b'$GNVTG,4.39,T,,M,2.153,N,3.987,K,A*2D' 08-49-58-403
b'$GNGGA,014937.85,4006.73319,N,08813.33317,W,1,03,2.98,256.3,M,-33.2,M,,*72' 08-49-58-425
b'$GNVTG,2.91,T,,M,2.041,N,3.779,K,A*24' 08-49-58-453
b'$GNGGA,014937.90,4006.73321,N,08813.33318,W,1,03,2.98,256.3,M,-33.2,M,,*72' 08-49-58-476
b'$GNVTG,1.67,T,,M,1.837,N,3.403,K,A*2A' 08-49-58-502
b'$GNGGA,014937.95,4006.73322,N,08813.33318,W,1,03,2.98,256.3,M,-33.2,M,,*74' 08-49-58-525
b'$GNVTG,1.16,T,,M,1.908,N,3.533,K,A*23' 08-49-58-556
b'$GNGGA,014938.00,4006.73325,N,08813.33318,W,1,03,2.98,256.2,M,-33.2,M,,*71' 08-49-58-579
b'$GNVTG,1.14,T,,M,2.132,N,3.948,K,A*23' 08-49-58-603
b'$GNGGA,014938.05,4006.73329,N,08813.33318,W,1,03,2.98,256.2,M,-33.2,M,,*78' 08-49-58-626
b'$GNVTG,359.22,T,,M,2.091,N,3.872,K,A*28' 08-49-58-657
b'$GNGGA,014938.10,4006.73332,N,08813.33318,W,1,03,2.98,256.2,M,-33.2,M,,*76' 08-49-58-681
b'$GNVTG,356.74,T,,M,2.002,N,3.707,K,A*23' 08-49-58-704
b'$GNGGA,014938.15,4006.73334,N,08813.33319,W,1,03,2.98,256.2,M,-33.2,M,,*74' 08-49-58-727
b'$GNVTG,358.79,T,,M,1.969,N,3.647,K,A*22' 08-49-58-754
b'$GNGGA,014938.20,4006.73337,N,08813.33318,W,1,03,2.98,256.3,M,-33.2,M,,*71' 08-49-58-777
b'$GNVTG,358.67,T,,M,1.898,N,3.515,K,A*26' 08-49-58-804
b'$GNGGA,014938.25,4006.73339,N,08813.33319,W,1,03,2.98,256.2,M,-33.2,M,,*7A' 08-49-58-827
b'$GNVTG,356.13,T,,M,1.863,N,3.450,K,A*2F' 08-49-58-854
b'$GNGGA,014938.30,4006.73341,N,08813.33320,W,1,03,2.98,256.2,M,-33.2,M,,*7B' 08-49-58-877
b'$GNVTG,357.67,T,,M,1.970,N,3.648,K,A*25' 08-49-58-904
b'$GNGGA,014938.35,4006.73344,N,08813.33319,W,1,03,2.98,256.2,M,-33.2,M,,*71' 08-49-58-927
b'$GNVTG,356.68,T,,M,1.962,N,3.633,K,A*24' 08-49-58-954
b'$GNGGA,014938.40,4006.73347,N,08813.33320,W,1,03,2.98,256.3,M,-33.2,M,,*7B' 08-49-58-977
b'$GNVTG,355.10,T,,M,1.871,N,3.464,K,A*2B' 08-49-59-004
b'$GNGGA,014938.45,4006.73349,N,08813.33320,W,1,03,2.98,256.3,M,-33.2,M,,*70' 08-49-59-027
b'$GNVTG,356.00,T,,M,1.872,N,3.467,K,A*29' 08-49-59-054
b'$GNGGA,014938.50,4006.73352,N,08813.33320,W,1,03,2.98,256.3,M,-33.2,M,,*7E' 08-49-59-077
b'$GNVTG,355.41,T,,M,2.056,N,3.808,K,A*27' 08-49-59-104
b'$GNGGA,014938.55,4006.73355,N,08813.33321,W,1,03,2.98,256.3,M,-33.2,M,,*7D' 08-49-59-127
b'$GNVTG,353.66,T,,M,1.882,N,3.486,K,A*2C' 08-49-59-154
b'$GNGGA,014938.60,4006.73357,N,08813.33322,W,1,03,2.98,256.2,M,-33.2,M,,*7B' 08-49-59-177
b'$GNVTG,350.84,T,,M,1.646,N,3.049,K,A*22' 08-49-59-204
b'$GNGGA,014938.65,4006.73358,N,08813.33323,W,1,03,2.98,256.2,M,-33.2,M,,*70' 08-49-59-227
b'$GNVTG,349.56,T,,M,1.792,N,3.319,K,A*2B' 08-49-59-254
b'$GNGGA,014938.70,4006.73361,N,08813.33323,W,1,03,2.98,256.2,M,-33.2,M,,*7E' 08-49-59-277
b'$GNVTG,351.12,T,,M,1.910,N,3.538,K,A*23' 08-49-59-304
b'$GNGGA,014938.75,4006.73364,N,08813.33323,W,1,03,2.98,256.2,M,-33.2,M,,*7E' 08-49-59-327
b'$GNVTG,351.38,T,,M,1.865,N,3.455,K,A*22' 08-49-59-354
b'$GNGGA,014938.80,4006.73367,N,08813.33324,W,1,03,2.98,256.2,M,-33.2,M,,*70' 08-49-59-382
b'$GNVTG,349.49,T,,M,1.736,N,3.215,K,A*26' 08-49-59-404
b'$GNGGA,014938.85,4006.73368,N,08813.33325,W,1,03,2.98,256.2,M,-33.2,M,,*7B' 08-49-59-428
b'$GNVTG,348.71,T,,M,1.670,N,3.093,K,A*23' 08-49-59-454
b'$GNGGA,014938.90,4006.73370,N,08813.33326,W,1,03,2.98,256.2,M,-33.2,M,,*75' 08-49-59-477
b'$GNVTG,350.49,T,,M,1.742,N,3.226,K,A*2D' 08-49-59-504
b'$GNGGA,014938.95,4006.73373,N,08813.33326,W,1,03,2.98,256.2,M,-33.2,M,,*73' 08-49-59-528
b'$GNVTG,349.86,T,,M,1.917,N,3.550,K,A*2E' 08-49-59-558
b'$GNGGA,014939.00,4006.73376,N,08813.33327,W,1,03,2.98,256.3,M,-33.2,M,,*7B' 08-49-59-581
b'$GNVTG,349.00,T,,M,1.951,N,3.614,K,A*21' 08-49-59-604
b'$GNGGA,014939.05,4006.73379,N,08813.33328,W,1,03,2.98,256.2,M,-33.2,M,,*7F' 08-49-59-627
b'$GNVTG,348.47,T,,M,1.882,N,3.486,K,A*25' 08-49-59-654
b'$GNGGA,014939.10,4006.73381,N,08813.33328,W,1,03,2.98,256.2,M,-33.2,M,,*7C' 08-49-59-678
b'$GNVTG,347.58,T,,M,1.911,N,3.539,K,A*2A' 08-49-59-704
b'$GNGGA,014939.15,4006.73384,N,08813.33329,W,1,03,2.98,256.2,M,-33.2,M,,*7D' 08-49-59-728
b'$GNVTG,347.94,T,,M,1.838,N,3.405,K,A*2E' 08-49-59-754
b'$GNGGA,014939.20,4006.73386,N,08813.33330,W,1,03,2.98,256.2,M,-33.2,M,,*71' 08-49-59-778
b'$GNVTG,347.49,T,,M,1.839,N,3.406,K,A*2C' 08-49-59-804
b'$GNGGA,014939.25,4006.73388,N,08813.33331,W,1,03,2.98,256.2,M,-33.2,M,,*7B' 08-49-59-828
b'$GNVTG,345.97,T,,M,1.870,N,3.464,K,A*24' 08-49-59-854
b'$GNGGA,014939.30,4006.73391,N,08813.33332,W,1,03,2.98,256.3,M,-33.2,M,,*75' 08-49-59-878
b'$GNVTG,346.28,T,,M,1.856,N,3.438,K,A*2E' 08-49-59-904
b'$GNGGA,014939.35,4006.73393,N,08813.33333,W,1,03,2.98,256.2,M,-33.2,M,,*72' 08-49-59-928
b'$GNVTG,345.75,T,,M,1.894,N,3.508,K,A*29' 08-49-59-954
b'$GNGGA,014939.40,4006.73396,N,08813.33334,W,1,03,2.98,256.2,M,-33.2,M,,*72' 08-49-59-978
b'$GNVTG,345.76,T,,M,1.895,N,3.510,K,A*22' 08-50-00-004
b'$GNGGA,014939.45,4006.73398,N,08813.33335,W,1,03,2.98,256.3,M,-33.2,M,,*79' 08-50-00-028
b'$GNVTG,345.55,T,,M,1.866,N,3.456,K,A*2C' 08-50-00-054
b'$GNGGA,014939.50,4006.73401,N,08813.33336,W,1,03,2.98,256.3,M,-33.2,M,,*79' 08-50-00-077
b'$GNVTG,342.51,T,,M,1.812,N,3.355,K,A*28' 08-50-00-104
b'$GNGGA,014939.55,4006.73403,N,08813.33337,W,1,03,2.98,256.2,M,-33.2,M,,*7E' 08-50-00-128
b'$GNVTG,339.59,T,,M,1.806,N,3.344,K,A*29' 08-50-00-154
b'$GNGGA,014939.60,4006.73405,N,08813.33339,W,1,03,2.98,256.2,M,-33.2,M,,*70' 08-50-00-178
b'$GNVTG,339.09,T,,M,1.948,N,3.608,K,A*2A' 08-50-00-204
b'$GNGGA,014939.65,4006.73408,N,08813.33340,W,1,03,2.98,256.2,M,-33.2,M,,*76' 08-50-00-228
b'$GNVTG,342.45,T,,M,1.923,N,3.562,K,A*2C' 08-50-00-254
b'$GNGGA,014939.70,4006.73410,N,08813.33341,W,1,03,2.98,256.2,M,-33.2,M,,*7A' 08-50-00-278
b'$GNVTG,342.22,T,,M,2.015,N,3.732,K,A*25' 08-50-00-304
b'$GNGGA,014939.75,4006.73413,N,08813.33342,W,1,03,2.98,256.3,M,-33.2,M,,*7E' 08-50-00-328
b'$GNVTG,342.10,T,,M,2.064,N,3.822,K,A*2C' 08-50-00-354
b'$GNGGA,014939.80,4006.73416,N,08813.33343,W,1,03,2.98,256.2,M,-33.2,M,,*71' 08-50-00-377
b'$GNVTG,340.32,T,,M,2.112,N,3.912,K,A*2C' 08-50-00-404
b'$GNGGA,014939.85,4006.73419,N,08813.33345,W,1,03,2.98,256.2,M,-33.2,M,,*7D' 08-50-00-428
b'$GNVTG,338.53,T,,M,1.994,N,3.694,K,A*20' 08-50-00-454
b'$GNGGA,014939.90,4006.73420,N,08813.33347,W,1,03,2.98,256.3,M,-33.2,M,,*70' 08-50-00-478
b'$GNVTG,336.96,T,,M,1.743,N,3.228,K,A*20' 08-50-00-504
b'$GNGGA,014939.95,4006.73422,N,08813.33348,W,1,03,2.98,256.2,M,-33.2,M,,*79' 08-50-00-528
b'$GNVTG,336.94,T,,M,1.828,N,3.385,K,A*26' 08-50-00-557
b'$GNGGA,014940.00,4006.73424,N,08813.33350,W,1,03,2.98,256.2,M,-33.2,M,,*74' 08-50-00-581
b'$GNVTG,336.92,T,,M,1.926,N,3.568,K,A*2A' 08-50-00-604
b'$GNGGA,014940.05,4006.73427,N,08813.33351,W,1,03,2.98,256.2,M,-33.2,M,,*73' 08-50-00-628
b'$GNVTG,323.88,T,,M,1.275,N,2.361,K,A*26' 08-50-00-674
b'$GNGGA,014940.10,4006.72225,N,08813.33474,W,1,07,1.79,221.3,M,-33.2,M,,*7B' 08-50-00-698
b'$GNVTG,324.24,T,,M,1.349,N,2.499,K,A*29' 08-50-00-721
b'$GNGGA,014940.15,4006.72226,N,08813.33477,W,1,07,1.79,221.3,M,-33.2,M,,*7E' 08-50-00-744
b'$GNVTG,327.85,T,,M,1.698,N,3.146,K,A*2E' 08-50-00-767
b'$GNGGA,014940.20,4006.72226,N,08813.33480,W,1,07,1.79,221.1,M,-33.2,M,,*72' 08-50-00-790
b'$GNVTG,330.49,T,,M,1.967,N,3.642,K,A*24' 08-50-00-813
b'$GNGGA,014940.25,4006.72227,N,08813.33483,W,1,07,1.79,221.1,M,-33.2,M,,*75' 08-50-00-836
b'$GNVTG,332.86,T,,M,2.079,N,3.850,K,A*2D' 08-50-00-859
b'$GNGGA,014940.30,4006.72225,N,08813.33486,W,1,07,1.79,220.8,M,-33.2,M,,*7E' 08-50-00-883
b'$GNVTG,333.81,T,,M,2.087,N,3.866,K,A*2F' 08-50-00-906
b'$GNGGA,014940.35,4006.72221,N,08813.33488,W,1,07,1.79,220.6,M,-33.2,M,,*7F' 08-50-00-930
b'$GNVTG,333.13,T,,M,1.899,N,3.517,K,A*2B' 08-50-00-956
b'$GNGGA,014940.40,4006.72219,N,08813.33490,W,1,07,1.79,220.3,M,-33.2,M,,*7A' 08-50-00-979
b'$GNVTG,333.04,T,,M,1.956,N,3.623,K,A*2B' 08-50-01-006
b'$GNGGA,014940.45,4006.72217,N,08813.33492,W,1,07,1.79,220.1,M,-33.2,M,,*71' 08-50-01-029
b'$GNVTG,334.18,T,,M,2.344,N,4.340,K,A*2C' 08-50-01-056
b'$GNGGA,014940.50,4006.72218,N,08813.33494,W,1,07,1.79,220.0,M,-33.2,M,,*7D' 08-50-01-080
b'$GNVTG,335.38,T,,M,2.397,N,4.439,K,A*28' 08-50-01-106
b'$GNGGA,014940.55,4006.72219,N,08813.33496,W,1,07,1.79,219.9,M,-33.2,M,,*78' 08-50-01-129
b'$GNVTG,335.09,T,,M,2.188,N,4.052,K,A*2F' 08-50-01-156
b'$GNGGA,014940.60,4006.72220,N,08813.33497,W,1,07,1.79,219.7,M,-33.2,M,,*7B' 08-50-01-179
b'$GNVTG,334.26,T,,M,2.279,N,4.221,K,A*28' 08-50-01-205
b'$GNGGA,014940.65,4006.72221,N,08813.33499,W,1,07,1.79,219.7,M,-33.2,M,,*71' 08-50-01-229
b'$GNVTG,332.00,T,,M,2.314,N,4.285,K,A*2E' 08-50-01-256
b'$GNGGA,014940.70,4006.72223,N,08813.33501,W,1,07,1.79,219.6,M,-33.2,M,,*76' 08-50-01-279
b'$GNVTG,331.97,T,,M,2.474,N,4.581,K,A*21' 08-50-01-306
b'$GNGGA,014940.75,4006.72225,N,08813.33503,W,1,07,1.79,219.5,M,-33.2,M,,*74' 08-50-01-330
b'$GNVTG,334.87,T,,M,2.669,N,4.943,K,A*29' 08-50-01-356
b'$GNGGA,014940.80,4006.72228,N,08813.33504,W,1,07,1.79,219.4,M,-33.2,M,,*75' 08-50-01-380
b'$GNVTG,335.10,T,,M,2.599,N,4.814,K,A*29' 08-50-01-406
b'$GNGGA,014940.85,4006.72230,N,08813.33506,W,1,07,1.79,219.4,M,-33.2,M,,*7B' 08-50-01-430
b'$GNVTG,332.89,T,,M,2.616,N,4.846,K,A*2D' 08-50-01-456
b'$GNGGA,014940.90,4006.72233,N,08813.33508,W,1,07,1.79,219.3,M,-33.2,M,,*75' 08-50-01-480
b'$GNVTG,332.39,T,,M,2.647,N,4.901,K,A*20' 08-50-01-506
b'$GNGGA,014940.95,4006.72236,N,08813.33510,W,1,07,1.79,219.3,M,-33.2,M,,*7C' 08-50-01-530
b'$GNVTG,334.13,T,,M,2.675,N,4.954,K,A*2F' 08-50-01-559
b'$GNGGA,014941.00,4006.72239,N,08813.33512,W,1,07,1.79,219.3,M,-33.2,M,,*7C' 08-50-01-583
b'$GNVTG,333.57,T,,M,2.725,N,5.047,K,A*26' 08-50-01-606
b'$GNGGA,014941.05,4006.72243,N,08813.33515,W,1,07,1.79,219.2,M,-33.2,M,,*72' 08-50-01-629
b'$GNVTG,333.14,T,,M,2.949,N,5.461,K,A*25' 08-50-01-656
b'$GNGGA,014941.10,4006.72246,N,08813.33517,W,1,07,1.79,219.2,M,-33.2,M,,*71' 08-50-01-680
b'$GNVTG,333.94,T,,M,2.969,N,5.499,K,A*28' 08-50-01-706
b'$GNGGA,014941.15,4006.72250,N,08813.33519,W,1,07,1.79,219.2,M,-33.2,M,,*7D' 08-50-01-729
b'$GNVTG,332.60,T,,M,3.016,N,5.586,K,A*2D' 08-50-01-756
b'$GNGGA,014941.20,4006.72253,N,08813.33522,W,1,07,1.79,219.1,M,-33.2,M,,*73' 08-50-01-779
b'$GNVTG,330.18,T,,M,2.945,N,5.455,K,A*21' 08-50-01-806
b'$GNGGA,014941.25,4006.72256,N,08813.33525,W,1,07,1.79,219.1,M,-33.2,M,,*74' 08-50-01-830
b'$GNVTG,329.96,T,,M,2.997,N,5.551,K,A*25' 08-50-01-856
b'$GNGGA,014941.30,4006.72259,N,08813.33527,W,1,07,1.79,219.1,M,-33.2,M,,*7D' 08-50-01-880
b'$GNVTG,330.48,T,,M,3.009,N,5.572,K,A*20' 08-50-01-906
b'$GNGGA,014941.35,4006.72263,N,08813.33530,W,1,07,1.79,219.1,M,-33.2,M,,*77' 08-50-01-930
b'$GNVTG,329.36,T,,M,3.273,N,6.062,K,A*29' 08-50-01-956
b'$GNGGA,014941.40,4006.72267,N,08813.33533,W,1,07,1.79,219.1,M,-33.2,M,,*72' 08-50-01-980
b'$GNVTG,329.57,T,,M,3.253,N,6.025,K,A*2F' 08-50-02-006
b'$GNGGA,014941.45,4006.72270,N,08813.33536,W,1,07,1.79,219.0,M,-33.2,M,,*75' 08-50-02-029
b'$GNVTG,329.33,T,,M,3.211,N,5.947,K,A*25' 08-50-02-056
b'$GNGGA,014941.50,4006.72273,N,08813.33539,W,1,07,1.79,219.0,M,-33.2,M,,*7D' 08-50-02-079
b'$GNVTG,327.27,T,,M,3.197,N,5.921,K,A*23' 08-50-02-105
b'$GNGGA,014941.55,4006.72277,N,08813.33543,W,1,07,1.79,219.0,M,-33.2,M,,*71' 08-50-02-129
b'$GNVTG,327.53,T,,M,3.240,N,6.000,K,A*20' 08-50-02-156
b'$GNGGA,014941.60,4006.72280,N,08813.33546,W,1,07,1.79,219.0,M,-33.2,M,,*7A' 08-50-02-179
b'$GNVTG,327.39,T,,M,3.404,N,6.304,K,A*2D' 08-50-02-206
b'$GNGGA,014941.65,4006.72284,N,08813.33549,W,1,07,1.79,219.0,M,-33.2,M,,*74' 08-50-02-229
b'$GNVTG,326.75,T,,M,3.431,N,6.354,K,A*27' 08-50-02-256
b'$GNGGA,014941.70,4006.72288,N,08813.33553,W,1,07,1.79,218.9,M,-33.2,M,,*7F' 08-50-02-280
b'$GNVTG,325.09,T,,M,3.485,N,6.453,K,A*20' 08-50-02-306
b'$GNGGA,014941.75,4006.72292,N,08813.33557,W,1,07,1.79,218.9,M,-33.2,M,,*75' 08-50-02-329
