hello
CAN logging
Accel logging
Steering logging
Cooling loop logging
b'$GNVTG,,,,,,,,,N*2E' 12-55-53-039
b'$GNGGA,,,,,,0,00,99.99,,,,,,*56' 12-55-53-064
b'$GNVTG,,,,,,,,,N*2E' 12-55-53-088
b'$GNGGA,,,,,,0,00,99.99,,,,,,*56' 12-55-53-112
b'$GNVTG,,,,,,,,,N*2E' 12-55-53-136
b'$GNGGA,,,,,,0,00,99.99,,,,,,*56' 12-55-53-160
b'$GNVTG,,,,,,,,,N*2E' 12-55-53-183
b'$GNGGA,,,,,,0,00,99.99,,,,,,*56' 12-55-53-207
b'$GNVTG,,,,,,,,,N*2E' 12-55-53-230
b'$GNGGA,,,,,,0,00,99.99,,,,,,*56' 12-55-53-253
b'$GNVTG,,,,,,,,,N*2E' 12-55-53-276
b'$GNGGA,,,,,,0,00,99.99,,,,,,*56' 12-55-53-297
b'$GNVTG,,,,,,,,,N*2E' 12-55-53-319
b'$GNGGA,,,,,,0,00,99.99,,,,,,*56' 12-55-53-340
b'$GNVTG,,,,,,,,,N*2E' 12-55-53-361
b'$GNGGA,,,,,,0,00,99.99,,,,,,*56' 12-55-53-383
b'$GNVTG,,,,,,,,,N*2E' 12-55-53-404
b'$GNGGA,,,,,,0,00,99.99,,,,,,*56' 12-55-53-425
b'$GNVTG,,,,,,,,,N*2E' 12-55-53-447
b'$GNGGA,,,,,,0,00,99.99,,,,,,*56' 12-55-53-468
b'$GNVTG,,,,,,,,,N*2E' 12-55-53-489
b'$GNGGA,,,,,,0,00,99.99,,,,,,*56' 12-55-53-511
b'$GNVTG,,,,,,,,,N*2E' 12-55-53-532
b'$GNGGA,,,,,,0,00,99.99,,,,,,*56' 12-55-53-554
b'$GNVTG,,,,,,,,,N*2E' 12-55-53-578
b'$GNGGA,,,,,,0,00,99.99,,,,,,*56' 12-55-53-602
b'$GNVTG,,,,,,,,,N*2E' 12-55-53-625
b'$GNGGA,,,,,,0,00,99.99,,,,,,*56' 12-55-53-650
b'$GNVTG,,,,,,,,,N*2E' 12-55-53-674
b'$GNGGA,,,,,,0,00,99.99,,,,,,*56' 12-55-53-698
b'$GNVTG,,,,,,,,,N*2E' 12-55-53-720
b'$GNGGA,,,,,,0,00,99.99,,,,,,*56' 12-55-53-744
b'$GNVTG,,,,,,,,,N*2E' 12-55-53-767
b'$GNGGA,,,,,,0,00,99.99,,,,,,*56' 12-55-53-791
b'$GNVTG,,,,,,,,,N*2E' 12-55-53-812
b'$GNGGA,,,,,,0,00,99.99,,,,,,*56' 12-55-53-833
b'$GNVTG,,,,,,,,,N*2E' 12-55-53-854
b'$GNGGA,,,,,,0,00,99.99,,,,,,*56' 12-55-53-876
b'$GNVTG,,,,,,,,,N*2E' 12-55-53-897
b'$GNGGA,,,,,,0,00,99.99,,,,,,*56' 12-55-53-919
b'$GNVTG,,,,,,,,,N*2E' 12-55-53-940
b'$GNGGA,,,,,,0,00,99.99,,,,,,*56' 12-55-53-961
b'$GNVTG,,,,,,,,,N*2E' 12-55-53-982
b'$GNGGA,,,,,,0,00,99.99,,,,,,*56' 12-55-54-004
b'$GNVTG,,,,,,,,,N*2E' 12-55-54-025
b'$GNGGA,,,,,,0,00,99.99,,,,,,*56' 12-55-54-047
b'$GNVTG,,,,,,,,,N*2E' 12-55-54-072
b'$GNGGA,,,,,,0,00,99.99,,,,,,*56' 12-55-54-094
b'$GNVTG,,,,,,,,,N*2E' 12-55-54-116
b'$GNGGA,,,,,,0,00,99.99,,,,,,*56' 12-55-54-138
b'$GNVTG,,,,,,,,,N*2E' 12-55-54-159
b'$GNGGA,,,,,,0,00,99.99,,,,,,*56' 12-55-54-182
b'$GNVTG,,,,,,,,,N*2E' 12-55-54-203
b'$GNGGA,,,,,,0,00,99.99,,,,,,*56' 12-55-54-225
b'$GNVTG,,,,,,,,,N*2E' 12-55-54-248
b'$GNGGA,,,,,,0,00,99.99,,,,,,*56' 12-55-54-272
b'$GNVTG,,,,,,,,,N*2E' 12-55-54-294
b'$GNGGA,,,,,,0,00,99.99,,,,,,*56' 12-55-54-316
b'$GNVTG,,,,,,,,,N*2E' 12-55-54-336
b'$GNGGA,,,,,,0,00,99.99,,,,,,*56' 12-55-54-359
b'$GNVTG,,,,,,,,,N*2E' 12-55-54-380
b'$GNGGA,,,,,,0,00,99.99,,,,,,*56' 12-55-54-401
b'$GNVTG,,,,,,,,,N*2E' 12-55-54-422
b'$GNGGA,,,,,,0,00,99.99,,,,,,*56' 12-55-54-444
b'$GNVTG,,,,,,,,,N*2E' 12-55-54-466
b'$GNGGA,,,,,,0,00,99.99,,,,,,*56' 12-55-54-488
b'$GNVTG,,,,,,,,,N*2E' 12-55-54-508
b'$GNGGA,,,,,,0,00,99.99,,,,,,*56' 12-55-54-530
b'$GNVTG,,,,,,,,,N*2E' 12-55-54-551
b'$GNGGA,,,,,,0,00,99.99,,,,,,*56' 12-55-54-574
b'$GNVTG,,,,,,,,,N*2E' 12-55-54-595
b'$GNGGA,,,,,,0,00,99.99,,,,,,*56' 12-55-54-617
b'$GNVTG,,,,,,,,,N*2E' 12-55-54-639
b'$GNGGA,,,,,,0,00,99.99,,,,,,*56' 12-55-54-660
b'$GNVTG,,,,,,,,,N*2E' 12-55-54-681
b'$GNGGA,,,,,,0,00,99.99,,,,,,*56' 12-55-54-703
b'$GNVTG,,,,,,,,,N*2E' 12-55-54-725
b'$GNGGA,,,,,,0,00,99.99,,,,,,*56' 12-55-54-747
b'$GNVTG,,,,,,,,,N*2E' 12-55-54-769
b'$GNGGA,,,,,,0,00,99.99,,,,,,*56' 12-55-54-790
b'$GNVTG,,,,,,,,,N*2E' 12-55-54-811
b'$GNGGA,,,,,,0,00,99.99,,,,,,*56' 12-55-54-834
b'$GNVTG,,,,,,,,,N*2E' 12-55-54-855
b'$GNGGA,,,,,,0,00,99.99,,,,,,*56' 12-55-54-878
b'$GNVTG,,,,,,,,,N*2E' 12-55-54-899
b'$GNGGA,,,,,,0,00,99.99,,,,,,*56' 12-55-54-920
b'$GNVTG,,,,,,,,,N*2E' 12-55-54-941
b'$GNGGA,,,,,,0,00,99.99,,,,,,*56' 12-55-54-962
b'$GNVTG,,,,,,,,,N*2E' 12-55-54-983
b'$GNGGA,,,,,,0,00,99.99,,,,,,*56' 12-55-55-006
b'$GNVTG,,,,,,,,,N*2E' 12-55-55-026
b'$GNGGA,,,,,,0,00,99.99,,,,,,*56' 12-55-55-049
b'$GNVTG,,,,,,,,,N*2E' 12-55-55-070
b'$GNGGA,,,,,,0,00,99.99,,,,,,*56' 12-55-55-092
b'$GNVTG,,,,,,,,,N*2E' 12-55-55-115
b'$GNGGA,,,,,,0,00,99.99,,,,,,*56' 12-55-55-138
b'$GNVTG,,,,,,,,,N*2E' 12-55-55-160
b'$GNGGA,,,,,,0,00,99.99,,,,,,*56' 12-55-55-182
b'$GNVTG,,,,,,,,,N*2E' 12-55-55-203
b'$GNGGA,,,,,,0,00,99.99,,,,,,*56' 12-55-55-225
b'$GNVTG,,,,,,,,,N*2E' 12-55-55-247
b'$GNGGA,,,,,,0,00,99.99,,,,,,*56' 12-55-55-269
b'$GNVTG,,,,,,,,,N*2E' 12-55-55-290
b'$GNGGA,175528.31,,,,,0,00,99.99,,,,,,*76' 12-55-55-313
b'$GNVTG,,,,,,,,,N*2E' 12-55-55-334
b'$GNGGA,175528.36,,,,,0,00,99.99,,,,,,*71' 12-55-55-356
b'$GNVTG,,,,,,,,,N*2E' 12-55-55-378
b'$GNGGA,175528.41,,,,,0,00,99.99,,,,,,*71' 12-55-55-400
b'$GNVTG,,,,,,,,,N*2E' 12-55-55-422
b'$GNGGA,175528.46,,,,,0,00,99.99,,,,,,*76' 12-55-55-444
b'$GNVTG,,,,,,,,,N*2E' 12-55-55-465
b'$GNGGA,175528.51,,,,,0,00,99.99,,,,,,*70' 12-55-55-487
b'$GNVTG,,,,,,,,,N*2E' 12-55-55-509
b'$GNGGA,175528.55,,,,,0,00,99.99,,,,,,*74' 12-55-55-532
b'$GNVTG,,,,,,,,,N*2E' 12-55-55-553
b'$GNGGA,175528.60,,,,,0,00,99.99,,,,,,*72' 12-55-55-575
b'$GNVTG,,,,,,,,,N*2E' 12-55-55-597
b'$GNGGA,175528.65,,,,,0,00,99.99,,,,,,*77' 12-55-55-620
b'$GNVTG,,,,,,,,,N*2E' 12-55-55-641
b'$GNGGA,175528.70,,,,,0,00,99.99,,,,,,*73' 12-55-55-663
b'$GNVTG,,,,,,,,,N*2E' 12-55-55-685
b'$GNGGA,175528.75,,,,,0,00,99.99,,,,,,*76' 12-55-55-707
b'$GNVTG,,,,,,,,,N*2E' 12-55-55-729
b'$GNGGA,175528.80,,,,,0,00,99.99,,,,,,*7C' 12-55-55-751
b'$GNVTG,,,,,,,,,N*2E' 12-55-55-772
b'$GNGGA,175528.85,,,,,0,00,99.99,,,,,,*79' 12-55-55-795
b'$GNVTG,,,,,,,,,N*2E' 12-55-55-816
b'$GNGGA,175528.90,,,,,0,00,99.99,,,,,,*7D' 12-55-55-838
b'$GNVTG,,,,,,,,,N*2E' 12-55-55-860
b'$GNGGA,175528.95,,,,,0,00,99.99,,,,,,*78' 12-55-55-882
b'$GNVTG,,,,,,,,,N*2E' 12-55-55-904
b'$GNGGA,175529.00,,,,,0,00,99.99,,,,,,*75' 12-55-55-926
b'$GNVTG,,,,,,,,,N*2E' 12-55-55-948
b'$GNGGA,175529.05,,,,,0,00,99.99,,,,,,*70' 12-55-55-970
b'$GNVTG,,,,,,,,,N*2E' 12-55-55-991
b'$GNGGA,175529.10,,,,,0,00,99.99,,,,,,*74' 12-55-56-014
b'$GNVTG,,,,,,,,,N*2E' 12-55-56-035
b'$GNGGA,175529.15,,,,,0,00,99.99,,,,,,*71' 12-55-56-057
b'$GNVTG,,,,,,,,,N*2E' 12-55-56-079
b'$GNGGA,175529.20,,,,,0,00,99.99,,,,,,*77' 12-55-56-101
b'$GNVTG,,,,,,,,,N*2E' 12-55-56-122
b'$GNGGA,175529.25,,,,,0,00,99.99,,,,,,*72' 12-55-56-145
b'$GNVTG,,,,,,,,,N*2E' 12-55-56-166
b'$GNGGA,175529.30,,,,,0,00,99.99,,,,,,*76' 12-55-56-188
b'$GNVTG,,,,,,,,,N*2E' 12-55-56-210
b'$GNGGA,175529.35,,,,,0,00,99.99,,,,,,*73' 12-55-56-232
b'$GNVTG,,,,,,,,,N*2E' 12-55-56-255
b'$GNGGA,175529.40,,,,,0,00,99.99,,,,,,*71' 12-55-56-277
b'$GNVTG,,,,,,,,,N*2E' 12-55-56-299
b'$GNGGA,175529.45,,,,,0,00,99.99,,,,,,*74' 12-55-56-321
b'$GNVTG,,,,,,,,,N*2E' 12-55-56-343
b'$GNVTG,,,,,,,,,N*2E' 12-55-56-364
b'$GNGGA,175535.40,,,,,0,00,99.99,,,,,,*7C' 12-55-56-387
b'$GNVTG,,,,,,,,,N*2E' 12-55-56-408
b'$GNGGA,175535.45,,,,,0,00,99.99,,,,,,*79' 12-55-56-431
b'$GNVTG,,,,,,,,,N*2E' 12-55-56-453
b'$GNGGA,175535.50,,,,,0,00,99.99,,,,,,*7D' 12-55-56-475
b'$GNVTG,,,,,,,,,N*2E' 12-55-56-497
b'$GNGGA,175535.55,,,,,0,00,99.99,,,,,,*78' 12-55-56-519
b'$GNVTG,,,,,,,,,N*2E' 12-55-56-541
b'$GNGGA,175535.60,,,,,0,00,99.99,,,,,,*7E' 12-55-56-563
b'$GNVTG,,,,,,,,,N*2E' 12-55-56-585
b'$GNGGA,175535.65,,,,,0,00,99.99,,,,,,*7B' 12-55-56-607
b'$GNVTG,,,,,,,,,N*2E' 12-55-56-629
b'$GNGGA,175535.70,,,,,0,00,99.99,,,,,,*7F' 12-55-56-651
b'$GNVTG,,,,,,,,,N*2E' 12-55-56-673
b'$GNGGA,175535.75,,,,,0,00,99.99,,,,,,*7A' 12-55-56-695
b'$GNVTG,,,,,,,,,N*2E' 12-55-56-717
b'$GNGGA,175535.80,,,,,0,00,99.99,,,,,,*70' 12-55-56-739
b'$GNVTG,,,,,,,,,N*2E' 12-55-56-761
b'$GNGGA,175535.85,,,,,0,00,99.99,,,,,,*75' 12-55-56-784
b'$GNVTG,,,,,,,,,N*2E' 12-55-56-806
b'$GNGGA,175535.90,,,,,0,00,99.99,,,,,,*71' 12-55-56-828
b'$GNVTG,,,,,,,,,N*2E' 12-55-56-850
b'$GNGGA,175535.95,,,,,0,00,99.99,,,,,,*74' 12-55-56-872
b'$GNVTG,,,,,,,,,N*2E' 12-55-56-893
b'$GNGGA,175536.00,,,,,0,00,99.99,,,,,,*7B' 12-55-56-916
b'$GNVTG,,,,,,,,,N*2E' 12-55-56-937
b'$GNGGA,175536.05,,,,,0,00,99.99,,,,,,*7E' 12-55-56-960
b'$GNVTG,,,,,,,,,N*2E' 12-55-56-981
b'$GNGGA,175536.10,,,,,0,00,99.99,,,,,,*7A' 12-55-57-003
b'$GNVTG,,,,,,,,,N*2E' 12-55-57-030
b'$GNGGA,175536.15,,,,,0,00,99.99,,,,,,*7F' 12-55-57-053
b'$GNVTG,,,,,,,,,N*2E' 12-55-57-080
b'$GNGGA,175536.20,,,,,0,00,99.99,,,,,,*79' 12-55-57-103
b'$GNVTG,,,,,,,,,N*2E' 12-55-57-130
b'$GNGGA,175536.25,,,,,0,00,99.99,,,,,,*7C' 12-55-57-153
b'$GNVTG,,,,,,,,,N*2E' 12-55-57-180
b'$GNGGA,175536.30,,,,,0,00,99.99,,,,,,*78' 12-55-57-203
b'$GNVTG,,,,,,,,,N*2E' 12-55-57-230
b'$GNGGA,175536.35,,,,,0,00,99.99,,,,,,*7D' 12-55-57-252
b'$GNVTG,,,,,,,,,N*2E' 12-55-57-280
b'$GNGGA,175536.40,,,,,0,00,99.99,,,,,,*7F' 12-55-57-303
b'$GNVTG,,,,,,,,,N*2E' 12-55-57-330
b'$GNGGA,175536.45,,,,,0,00,99.99,,,,,,*7A' 12-55-57-352
b'$GNVTG,,,,,,,,,N*2E' 12-55-57-380
b'$GNGGA,175536.50,,,,,0,00,99.99,,,,,,*7E' 12-55-57-402
b'$GNVTG,,,,,,,,,N*2E' 12-55-57-430
b'$GNGGA,175536.55,,,,,0,00,99.99,,,,,,*7B' 12-55-57-452
b'$GNVTG,,,,,,,,,N*2E' 12-55-57-480
b'$GNGGA,175536.60,,,,,0,00,99.99,,,,,,*7D' 12-55-57-503
b'$GNVTG,,,,,,,,,N*2E' 12-55-57-530
b'$GNGGA,175536.65,,,,,0,00,99.99,,,,,,*78' 12-55-57-552
b'$GNVTG,,,,,,,,,N*2E' 12-55-57-580
b'$GNGGA,175536.70,,,,,0,00,99.99,,,,,,*7C' 12-55-57-602
b'$GNVTG,,,,,,,,,N*2E' 12-55-57-630
b'$GNGGA,175536.75,,,,,0,00,99.99,,,,,,*79' 12-55-57-652
b'$GNVTG,,,,,,,,,N*2E' 12-55-57-680
b'$GNGGA,175536.80,,,,,0,00,99.99,,,,,,*73' 12-55-57-702
b'$GNVTG,,,,,,,,,N*2E' 12-55-57-730
b'$GNGGA,175536.85,,,,,0,00,99.99,,,,,,*76' 12-55-57-752
b'$GNVTG,,,,,,,,,N*2E' 12-55-57-780
b'$GNGGA,175536.90,,,,,0,00,99.99,,,,,,*72' 12-55-57-803
b'$GNVTG,,,,,,,,,N*2E' 12-55-57-834
b'$GNGGA,175536.95,,,,,0,00,99.99,,,,,,*77' 12-55-57-856
b'$GNVTG,,,,,,,,,N*2E' 12-55-57-880
b'$GNGGA,175537.00,,,,,0,00,99.99,,,,,,*7A' 12-55-57-903
b'$GNVTG,,,,,,,,,N*2E' 12-55-57-930
b'$GNGGA,175537.05,,,,,0,00,99.99,,,,,,*7F' 12-55-57-953
b'$GNVTG,,,,,,,,,N*2E' 12-55-57-980
b'$GNGGA,175537.10,,,,,0,00,99.99,,,,,,*7B' 12-55-58-003
b'$GNVTG,,,,,,,,,N*2E' 12-55-58-030
b'$GNGGA,175537.15,,,,,0,00,99.99,,,,,,*7E' 12-55-58-053
b'$GNVTG,,,,,,,,,N*2E' 12-55-58-080
b'$GNGGA,175537.20,,,,,0,00,99.99,,,,,,*78' 12-55-58-103
b'$GNVTG,,,,,,,,,N*2E' 12-55-58-130
b'$GNGGA,175537.25,,,,,0,00,99.99,,,,,,*7D' 12-55-58-152
b'$GNVTG,,,,,,,,,N*2E' 12-55-58-180
b'$GNGGA,175537.30,,,,,0,00,99.99,,,,,,*79' 12-55-58-203
b'$GNVTG,,,,,,,,,N*2E' 12-55-58-230
b'$GNGGA,175537.35,,,,,0,00,99.99,,,,,,*7C' 12-55-58-253
b'$GNVTG,,,,,,,,,N*2E' 12-55-58-280
b'$GNGGA,175537.40,,,,,0,00,99.99,,,,,,*7E' 12-55-58-302
b'$GNVTG,,,,,,,,,N*2E' 12-55-58-330
b'$GNGGA,175537.45,,,,,0,00,99.99,,,,,,*7B' 12-55-58-353
b'$GNVTG,,,,,,,,,N*2E' 12-55-58-380
b'$GNGGA,175537.50,,,,,0,00,99.99,,,,,,*7F' 12-55-58-402
b'$GNVTG,,,,,,,,,N*2E' 12-55-58-430
b'$GNGGA,175537.55,,,,,0,00,99.99,,,,,,*7A' 12-55-58-452
b'$GNVTG,,,,,,,,,N*2E' 12-55-58-480
b'$GNGGA,175537.60,,,,,0,00,99.99,,,,,,*7C' 12-55-58-502
b'$GNVTG,,,,,,,,,N*2E' 12-55-58-530
b'$GNGGA,175537.65,,,,,0,00,99.99,,,,,,*79' 12-55-58-552
b'$GNVTG,,,,,,,,,N*2E' 12-55-58-580
b'$GNGGA,175537.70,,,,,0,00,99.99,,,,,,*7D' 12-55-58-602
b'$GNVTG,,,,,,,,,N*2E' 12-55-58-630
b'$GNGGA,175537.75,,,,,0,00,99.99,,,,,,*78' 12-55-58-653
b'$GNVTG,,,,,,,,,N*2E' 12-55-58-680
b'$GNGGA,175537.80,,,,,0,00,99.99,,,,,,*72' 12-55-58-702
b'$GNVTG,,,,,,,,,N*2E' 12-55-58-730
b'$GNGGA,175537.85,,,,,0,00,99.99,,,,,,*77' 12-55-58-752
b'$GNVTG,,,,,,,,,N*2E' 12-55-58-780
b'$GNGGA,175537.90,,,,,0,00,99.99,,,,,,*73' 12-55-58-803
b'$GNGGA,175537.95,,,,,0,00,99.99,,,,,,*76' 12-55-58-835
b'$GNVTG,,,,,,,,,N*2E' 12-55-58-880
b'$GNGGA,175538.00,,,,,0,00,99.99,,,,,,*75' 12-55-58-903
b'$GNVTG,,,,,,,,,N*2E' 12-55-58-930
b'$GNGGA,175538.05,,,,,0,00,99.99,,,,,,*70' 12-55-58-953
b'$GNVTG,,,,,,,,,N*2E' 12-55-58-985
b'$GNGGA,175538.10,,,,,0,00,99.99,,,,,,*74' 12-55-59-007
b'$GNVTG,,,,,,,,,N*2E' 12-55-59-034
b'$GNGGA,175538.15,,,,,0,00,99.99,,,,,,*71' 12-55-59-057
b'$GNVTG,,,,,,,,,N*2E' 12-55-59-085
b'$GNGGA,175538.20,,,,,0,00,99.99,,,,,,*77' 12-55-59-107
b'$GNVTG,,,,,,,,,N*2E' 12-55-59-135
b'$GNGGA,175538.25,,,,,0,00,99.99,,,,,,*72' 12-55-59-157
b'$GNVTG,,,,,,,,,N*2E' 12-55-59-184
b'$GNGGA,175538.30,,,,,0,00,99.99,,,,,,*76' 12-55-59-207
b'$GNVTG,,,,,,,,,N*2E' 12-55-59-235
b'$GNGGA,175538.35,,,,,0,00,99.99,,,,,,*73' 12-55-59-256
b'$GNVTG,,,,,,,,,N*2E' 12-55-59-285
b'$GNGGA,175538.40,,,,,0,00,99.99,,,,,,*71' 12-55-59-308
b'$GNVTG,,,,,,,,,N*2E' 12-55-59-334
b'$GNGGA,175538.45,,,,,0,00,99.99,,,,,,*74' 12-55-59-356
b'$GNVTG,,,,,,,,,N*2E' 12-55-59-384
b'$GNGGA,175538.50,,,,,0,00,99.99,,,,,,*70' 12-55-59-407
b'$GNVTG,,,,,,,,,N*2E' 12-55-59-435
b'$GNGGA,175538.55,,,,,0,00,99.99,,,,,,*75' 12-55-59-456
b'$GNVTG,,,,,,,,,N*2E' 12-55-59-484
b'$GNGGA,175538.60,,,,,0,00,99.99,,,,,,*73' 12-55-59-507
b'$GNVTG,,,,,,,,,N*2E' 12-55-59-535
b'$GNGGA,175538.65,,,,,0,00,99.99,,,,,,*76' 12-55-59-556
b'$GNVTG,,,,,,,,,N*2E' 12-55-59-585
b'$GNGGA,175538.70,,,,,0,00,99.99,,,,,,*72' 12-55-59-607
b'$GNVTG,,,,,,,,,N*2E' 12-55-59-634
b'$GNGGA,175538.75,,,,,0,00,99.99,,,,,,*77' 12-55-59-657
b'$GNVTG,,,,,,,,,N*2E' 12-55-59-685
b'$GNGGA,175538.80,,,,,0,00,99.99,,,,,,*7D' 12-55-59-706
b'$GNVTG,,,,,,,,,N*2E' 12-55-59-735
b'$GNGGA,175538.85,,,,,0,00,99.99,,,,,,*78' 12-55-59-757
b'$GNVTG,,,,,,,,,N*2E' 12-55-59-785
b'$GNGGA,175538.90,,,,,0,00,99.99,,,,,,*7C' 12-55-59-806
b'$GNVTG,,,,,,,,,N*2E' 12-55-59-835
b'$GNGGA,175538.95,,,,,0,00,99.99,,,,,,*79' 12-55-59-858
b'$GNVTG,,,,,,,,,N*2E' 12-55-59-885
b'$GNGGA,175539.00,,,,,0,00,99.99,,,,,,*74' 12-55-59-907
b'$GNVTG,,,,,,,,,N*2E' 12-55-59-934
b'$GNGGA,175539.05,,,,,0,00,99.99,,,,,,*71' 12-55-59-957
b'$GNVTG,,,,,,,,,N*2E' 12-55-59-985
b'$GNGGA,175539.10,,,,,0,00,99.99,,,,,,*75' 12-56-00-006
b'$GNVTG,,,,,,,,,N*2E' 12-56-00-035
b'$GNGGA,175539.15,,,,,0,00,99.99,,,,,,*70' 12-56-00-056
b'$GNVTG,,,,,,,,,N*2E' 12-56-00-085
b'$GNGGA,175539.20,,,,,0,00,99.99,,,,,,*76' 12-56-00-107
b'$GNVTG,,,,,,,,,N*2E' 12-56-00-135
b'$GNGGA,175539.25,,,,,0,00,99.99,,,,,,*73' 12-56-00-158
b'$GNVTG,,,,,,,,,N*2E' 12-56-00-185
b'$GNGGA,175539.30,,,,,0,00,99.99,,,,,,*77' 12-56-00-208
b'$GNVTG,,,,,,,,,N*2E' 12-56-00-234
b'$GNGGA,175539.35,,,,,0,00,99.99,,,,,,*72' 12-56-00-256
b'$GNVTG,,,,,,,,,N*2E' 12-56-00-285
b'$GNGGA,175539.40,,,,,0,00,99.99,,,,,,*70' 12-56-00-307
b'$GNVTG,,,,,,,,,N*2E' 12-56-00-335
b'$GNGGA,175539.45,,,,,0,00,99.99,,,,,,*75' 12-56-00-357
b'$GNVTG,,,,,,,,,N*2E' 12-56-00-384
b'$GNGGA,175539.50,,,,,0,00,99.99,,,,,,*71' 12-56-00-406
b'$GNVTG,,,,,,,,,N*2E' 12-56-00-435
b'$GNGGA,175539.55,,,,,0,00,99.99,,,,,,*74' 12-56-00-457
b'$GNVTG,,,,,,,,,N*2E' 12-56-00-485
b'$GNGGA,175539.60,,,,,0,00,99.99,,,,,,*72' 12-56-00-508
b'$GNVTG,,,,,,,,,N*2E' 12-56-00-535
b'$GNGGA,175539.65,,,,,0,00,99.99,,,,,,*77' 12-56-00-557
b'$GNVTG,,,,,,,,,N*2E' 12-56-00-585
b'$GNGGA,175539.70,,,,,0,00,99.99,,,,,,*73' 12-56-00-608
b'$GNVTG,,,,,,,,,N*2E' 12-56-00-635
b'$GNGGA,175539.75,,,,,0,00,99.99,,,,,,*76' 12-56-00-657
b'$GNVTG,,,,,,,,,N*2E' 12-56-00-685
b'$GNGGA,175539.80,,,,,0,00,99.99,,,,,,*7C' 12-56-00-707
b'$GNVTG,,,,,,,,,N*2E' 12-56-00-735
b'$GNGGA,175539.85,,,,,0,00,99.99,,,,,,*79' 12-56-00-757
b'$GNVTG,,,,,,,,,N*2E' 12-56-00-785
b'$GNGGA,175539.90,,,,,0,00,99.99,,,,,,*7D' 12-56-00-808
b'$GNVTG,,,,,,,,,N*2E' 12-56-00-835
b'$GNGGA,175539.95,,,,,0,00,99.99,,,,,,*78' 12-56-00-856
b'$GNVTG,,,,,,,,,N*2E' 12-56-00-885
b'$GNGGA,175540.00,,,,,0,00,99.99,,,,,,*7A' 12-56-00-908
b'$GNVTG,,,,,,,,,N*2E' 12-56-00-935
b'$GNGGA,175540.05,,,,,0,00,99.99,,,,,,*7F' 12-56-00-957
b'$GNVTG,341.09,T,,M,14.993,N,27.768,K,A*26' 12-56-01-040
b'$GNGGA,175540.10,4005.71194,N,08814.40207,W,1,05,1.68,238.0,M,-33.2,M,,*70' 12-56-01-064
b'$GNVTG,339.71,T,,M,15.099,N,27.963,K,A*21' 12-56-01-093
b'$GNGGA,175540.20,4005.71251,N,08814.40252,W,1,05,1.68,236.0,M,-33.2,M,,*77' 12-56-01-117
b'$GNVTG,338.25,T,,M,15.287,N,28.311,K,A*2C' 12-56-01-139
b'$GNGGA,175540.25,4005.71272,N,08814.40270,W,1,05,1.68,235.2,M,-33.2,M,,*72' 12-56-01-162
b'$GNVTG,336.00,T,,M,15.459,N,28.630,K,A*26' 12-56-01-189
b'$GNGGA,175540.30,4005.71291,N,08814.40283,W,1,05,1.68,234.9,M,-33.2,M,,*7D' 12-56-01-213
b'$GNVTG,333.61,T,,M,15.425,N,28.567,K,A*2E' 12-56-01-240
b'$GNGGA,175540.35,4005.71308,N,08814.40291,W,1,05,1.68,234.9,M,-33.2,M,,*7A' 12-56-01-264
b'$GNVTG,330.01,T,,M,15.564,N,28.824,K,A*25' 12-56-01-288
b'$GNGGA,175540.40,4005.71323,N,08814.40295,W,1,05,1.68,235.1,M,-33.2,M,,*7C' 12-56-01-311
b'$GNVTG,327.26,T,,M,15.761,N,29.190,K,A*26' 12-56-01-339
b'$GNGGA,175540.45,4005.71337,N,08814.40299,W,1,05,1.68,235.2,M,-33.2,M,,*73' 12-56-01-362
b'$GNVTG,325.64,T,,M,15.904,N,29.455,K,A*23' 12-56-01-389
b'$GNGGA,175540.50,4005.71352,N,08814.40306,W,1,05,1.68,235.4,M,-33.2,M,,*75' 12-56-01-413
b'$GNVTG,323.04,T,,M,15.990,N,29.614,K,A*29' 12-56-01-438
b'$GNGGA,175540.55,4005.71368,N,08814.40317,W,1,05,1.68,235.6,M,-33.2,M,,*7B' 12-56-01-461
b'$GNVTG,320.42,T,,M,15.983,N,29.600,K,A*2F' 12-56-01-489
b'$GNGGA,175540.60,4005.71384,N,08814.40331,W,1,05,1.68,235.7,M,-33.2,M,,*7A' 12-56-01-512
b'$GNVTG,318.55,T,,M,15.969,N,29.575,K,A*27' 12-56-01-539
b'$GNGGA,175540.65,4005.71399,N,08814.40344,W,1,05,1.68,235.7,M,-33.2,M,,*71' 12-56-01-562
b'$GNVTG,317.08,T,,M,15.978,N,29.591,K,A*2A' 12-56-01-588
b'$GNGGA,175540.70,4005.71414,N,08814.40359,W,1,05,1.68,235.6,M,-33.2,M,,*7A' 12-56-01-612
b'$GNVTG,313.66,T,,M,15.984,N,29.603,K,A*2D' 12-56-01-638
b'$GNGGA,175540.75,4005.71427,N,08814.40379,W,1,05,1.68,235.6,M,-33.2,M,,*7D' 12-56-01-661
b'$GNVTG,310.01,T,,M,15.992,N,29.618,K,A*22' 12-56-01-688
b'$GNGGA,175540.80,4005.71440,N,08814.40401,W,1,05,1.68,235.7,M,-33.2,M,,*7F' 12-56-01-712
b'$GNVTG,307.76,T,,M,16.091,N,29.800,K,A*2A' 12-56-01-738
b'$GNGGA,175540.85,4005.71453,N,08814.40423,W,1,05,1.68,235.8,M,-33.2,M,,*77' 12-56-01-762
b'$GNVTG,305.21,T,,M,16.165,N,29.938,K,A*2A' 12-56-01-788
b'$GNGGA,175540.90,4005.71465,N,08814.40446,W,1,05,1.68,236.0,M,-33.2,M,,*7E' 12-56-01-812
b'$GNVTG,302.49,T,,M,16.184,N,29.973,K,A*23' 12-56-01-838
b'$GNGGA,175540.95,4005.71476,N,08814.40470,W,1,05,1.68,236.1,M,-33.2,M,,*7D' 12-56-01-862
b'$GNVTG,299.90,T,,M,16.138,N,29.888,K,A*26' 12-56-01-892
b'$GNGGA,175541.00,4005.71486,N,08814.40493,W,1,05,1.68,236.1,M,-33.2,M,,*72' 12-56-01-915
b'$GNVTG,297.54,T,,M,16.420,N,30.410,K,A*29' 12-56-01-939
b'$GNGGA,175541.05,4005.71496,N,08814.40517,W,1,05,1.68,236.2,M,-33.2,M,,*78' 12-56-01-962
b'$GNVTG,295.29,T,,M,16.472,N,30.506,K,A*20' 12-56-01-989
b'$GNGGA,175541.10,4005.71505,N,08814.40541,W,1,05,1.68,236.2,M,-33.2,M,,*74' 12-56-02-012
b'$GNVTG,293.27,T,,M,16.470,N,30.503,K,A*2F' 12-56-02-038
b'$GNGGA,175541.15,4005.71514,N,08814.40566,W,1,05,1.68,236.3,M,-33.2,M,,*75' 12-56-02-061
b'$GNVTG,290.88,T,,M,16.626,N,30.791,K,A*21' 12-56-02-089
b'$GNGGA,175541.20,4005.71521,N,08814.40592,W,1,05,1.68,236.3,M,-33.2,M,,*7E' 12-56-02-112
b'$GNVTG,288.82,T,,M,16.955,N,31.400,K,A*23' 12-56-02-139
b'$GNGGA,175541.25,4005.71528,N,08814.40620,W,1,05,1.68,236.4,M,-33.2,M,,*7F' 12-56-02-162
b'$GNVTG,286.71,T,,M,17.221,N,31.893,K,A*2E' 12-56-02-190
b'$GNGGA,175541.30,4005.71534,N,08814.40650,W,1,05,1.68,236.4,M,-33.2,M,,*71' 12-56-02-214
b'$GNVTG,284.61,T,,M,17.172,N,31.803,K,A*21' 12-56-02-239
b'$GNGGA,175541.35,4005.71540,N,08814.40679,W,1,05,1.68,236.5,M,-33.2,M,,*7D' 12-56-02-262
b'$GNVTG,282.56,T,,M,17.256,N,31.957,K,A*26' 12-56-02-290
b'$GNGGA,175541.40,4005.71544,N,08814.40709,W,1,05,1.68,236.5,M,-33.2,M,,*7D' 12-56-02-314
b'$GNVTG,279.91,T,,M,17.362,N,32.155,K,A*26' 12-56-02-339
b'$GNGGA,175541.45,4005.71547,N,08814.40739,W,1,05,1.68,236.5,M,-33.2,M,,*78' 12-56-02-363
b'$GNVTG,277.88,T,,M,17.783,N,32.934,K,A*24' 12-56-02-390
b'$GNGGA,175541.50,4005.71550,N,08814.40771,W,1,05,1.68,236.6,M,-33.2,M,,*75' 12-56-02-414
b'$GNVTG,276.76,T,,M,18.270,N,33.836,K,A*20' 12-56-02-439
b'$GNGGA,175541.55,4005.71552,N,08814.40804,W,1,05,1.68,236.6,M,-33.2,M,,*7F' 12-56-02-462
b'$GNVTG,275.36,T,,M,18.329,N,33.946,K,A*2C' 12-56-02-489
b'$GNGGA,175541.60,4005.71554,N,08814.40838,W,1,05,1.68,236.6,M,-33.2,M,,*70' 12-56-02-513
b'$GNVTG,273.69,T,,M,18.314,N,33.917,K,A*2A' 12-56-02-539
b'$GNGGA,175541.65,4005.71555,N,08814.40872,W,1,05,1.68,236.6,M,-33.2,M,,*7A' 12-56-02-562
b'$GNVTG,271.11,T,,M,18.337,N,33.960,K,A*26' 12-56-02-589
b'$GNGGA,175541.70,4005.71554,N,08814.40905,W,1,05,1.68,236.7,M,-33.2,M,,*7F' 12-56-02-613
b'$GNVTG,269.44,T,,M,18.417,N,34.108,K,A*2B' 12-56-02-639
b'$GNGGA,175541.75,4005.71553,N,08814.40939,W,1,05,1.68,236.7,M,-33.2,M,,*72' 12-56-02-662
b'$GNVTG,268.36,T,,M,18.820,N,34.855,K,A*26' 12-56-02-689
b'$GNGGA,175541.80,4005.71551,N,08814.40973,W,1,05,1.68,236.7,M,-33.2,M,,*74' 12-56-02-712
b'$GNVTG,266.98,T,,M,19.155,N,35.476,K,A*2A' 12-56-02-739
b'$GNGGA,175541.85,4005.71549,N,08814.41009,W,1,05,1.68,236.7,M,-33.2,M,,*7D' 12-56-02-763
b'$GNVTG,265.25,T,,M,19.282,N,35.710,K,A*25' 12-56-02-789
b'$GNGGA,175541.90,4005.71546,N,08814.41044,W,1,05,1.68,236.7,M,-33.2,M,,*7F' 12-56-02-812
b'$GNVTG,263.40,T,,M,19.399,N,35.927,K,A*21' 12-56-02-839
b'$GNGGA,175541.95,4005.71542,N,08814.41079,W,1,05,1.68,236.7,M,-33.2,M,,*70' 12-56-02-863
b'$GNVTG,261.55,T,,M,19.638,N,36.369,K,A*2A' 12-56-02-893
b'$GNGGA,175542.00,4005.71538,N,08814.41114,W,1,05,1.68,236.7,M,-33.2,M,,*78' 12-56-02-916
b'$GNVTG,260.78,T,,M,20.009,N,37.057,K,A*25' 12-56-02-938
b'$GNGGA,175542.05,4005.71533,N,08814.41151,W,1,05,1.68,236.7,M,-33.2,M,,*77' 12-56-02-961
b'$GNVTG,260.50,T,,M,20.344,N,37.677,K,A*21' 12-56-02-989
b'$GNGGA,175542.10,4005.71528,N,08814.41188,W,1,05,1.68,236.7,M,-33.2,M,,*7D' 12-56-03-012
b'$GNVTG,260.08,T,,M,20.589,N,38.131,K,A*21' 12-56-03-039
b'$GNGGA,175542.15,4005.71523,N,08814.41226,W,1,05,1.68,236.7,M,-33.2,M,,*74' 12-56-03-062
b'$GNVTG,259.76,T,,M,20.772,N,38.470,K,A*24' 12-56-03-089
b'$GNGGA,175542.20,4005.71517,N,08814.41263,W,1,05,1.68,236.7,M,-33.2,M,,*74' 12-56-03-113
b'$GNVTG,258.86,T,,M,21.102,N,39.080,K,A*20' 12-56-03-138
b'$GNGGA,175542.25,4005.71511,N,08814.41302,W,1,05,1.68,236.6,M,-33.2,M,,*70' 12-56-03-161
b'$GNVTG,257.84,T,,M,21.359,N,39.556,K,A*2F' 12-56-03-189
b'$GNGGA,175542.30,4005.71505,N,08814.41342,W,1,05,1.68,236.6,M,-33.2,M,,*75' 12-56-03-213
b'$GNVTG,257.51,T,,M,21.630,N,40.059,K,A*29' 12-56-03-238
b'$GNGGA,175542.35,4005.71498,N,08814.41382,W,1,05,1.68,236.6,M,-33.2,M,,*79' 12-56-03-261
b'$GNVTG,258.00,T,,M,21.798,N,40.369,K,A*21' 12-56-03-289
b'$GNGGA,175542.40,4005.71492,N,08814.41422,W,1,05,1.68,236.6,M,-33.2,M,,*7C' 12-56-03-313
b'$GNVTG,259.19,T,,M,21.995,N,40.734,K,A*27' 12-56-03-338
b'$GNGGA,175542.45,4005.71486,N,08814.41463,W,1,05,1.68,236.5,M,-33.2,M,,*7A' 12-56-03-361
b'$GNVTG,260.15,T,,M,22.140,N,41.004,K,A*27' 12-56-03-389
b'$GNGGA,175542.50,4005.71481,N,08814.41503,W,1,05,1.68,236.5,M,-33.2,M,,*7E' 12-56-03-412
b'$GNVTG,260.94,T,,M,22.360,N,41.412,K,A*2D' 12-56-03-438
b'$GNGGA,175542.55,4005.71477,N,08814.41545,W,1,05,1.68,236.5,M,-33.2,M,,*70' 12-56-03-461
b'$GNVTG,261.20,T,,M,22.662,N,41.969,K,A*25' 12-56-03-488
b'$GNGGA,175542.60,4005.71472,N,08814.41587,W,1,05,1.68,236.5,M,-33.2,M,,*7D' 12-56-03-511
b'$GNVTG,261.78,T,,M,22.874,N,42.363,K,A*22' 12-56-03-538
b'$GNGGA,175542.65,4005.71467,N,08814.41629,W,1,05,1.68,236.5,M,-33.2,M,,*7B' 12-56-03-561
b'$GNVTG,262.25,T,,M,22.996,N,42.588,K,A*27' 12-56-03-588
b'$GNGGA,175542.70,4005.71463,N,08814.41671,W,1,05,1.68,236.4,M,-33.2,M,,*77' 12-56-03-611
b'$GNVTG,262.68,T,,M,23.212,N,42.989,K,A*25' 12-56-03-638
b'$GNGGA,175542.75,4005.71459,N,08814.41714,W,1,05,1.68,236.4,M,-33.2,M,,*79' 12-56-03-661
b'$GNVTG,263.13,T,,M,23.485,N,43.494,K,A*20' 12-56-03-688
b'$GNGGA,175542.80,4005.71455,N,08814.41758,W,1,05,1.68,236.4,M,-33.2,M,,*77' 12-56-03-711
b'$GNVTG,264.02,T,,M,23.599,N,43.705,K,A*20' 12-56-03-738
b'$GNGGA,175542.85,4005.71452,N,08814.41801,W,1,05,1.68,236.4,M,-33.2,M,,*76' 12-56-03-761
b'$GNVTG,264.73,T,,M,23.743,N,43.971,K,A*2E' 12-56-03-788
b'$GNGGA,175542.90,4005.71449,N,08814.41845,W,1,05,1.68,236.3,M,-33.2,M,,*7F' 12-56-03-811
b'$GNVTG,264.91,T,,M,23.916,N,44.293,K,A*2C' 12-56-03-837
b'$GNGGA,175542.95,4005.71446,N,08814.41889,W,1,05,1.68,236.3,M,-33.2,M,,*75' 12-56-03-860
b'$GNVTG,265.40,T,,M,24.095,N,44.624,K,A*2C' 12-56-03-891
b'$GNGGA,175543.00,4005.71444,N,08814.41933,W,1,05,1.68,236.3,M,-33.2,M,,*7A' 12-56-03-914
b'$GNVTG,265.65,T,,M,24.319,N,45.038,K,A*26' 12-56-03-939
b'$GNGGA,175543.05,4005.71441,N,08814.41978,W,1,05,1.68,236.3,M,-33.2,M,,*75' 12-56-03-961
b'$GNVTG,266.08,T,,M,24.542,N,45.451,K,A*2D' 12-56-03-988
b'$GNGGA,175543.10,4005.71439,N,08814.42023,W,1,05,1.68,236.3,M,-33.2,M,,*7A' 12-56-04-011
b'$GNVTG,266.63,T,,M,24.578,N,45.518,K,A*25' 12-56-04-038
b'$GNGGA,175543.15,4005.71438,N,08814.42068,W,1,05,1.68,236.2,M,-33.2,M,,*70' 12-56-04-063
b'$GNVTG,266.66,T,,M,24.597,N,45.553,K,A*2E' 12-56-04-088
b'$GNGGA,175543.20,4005.71436,N,08814.42112,W,1,05,1.68,236.2,M,-33.2,M,,*74' 12-56-04-111
b'$GNVTG,266.83,T,,M,24.856,N,46.033,K,A*25' 12-56-04-138
b'$GNGGA,175543.25,4005.71434,N,08814.42158,W,1,05,1.68,236.2,M,-33.2,M,,*7D' 12-56-04-161
b'$GNVTG,267.11,T,,M,24.999,N,46.298,K,A*2E' 12-56-04-188
b'$GNGGA,175543.30,4005.71433,N,08814.42204,W,1,05,1.68,236.2,M,-33.2,M,,*74' 12-56-04-211
b'$GNVTG,267.54,T,,M,25.147,N,46.573,K,A*27' 12-56-04-238
b'$GNGGA,175543.35,4005.71431,N,08814.42250,W,1,05,1.68,236.1,M,-33.2,M,,*71' 12-56-04-261
b'$GNVTG,267.75,T,,M,25.251,N,46.764,K,A*24' 12-56-04-288
b'$GNGGA,175543.40,4005.71430,N,08814.42296,W,1,05,1.68,236.1,M,-33.2,M,,*78' 12-56-04-311
b'$GNVTG,267.58,T,,M,25.293,N,46.843,K,A*2F' 12-56-04-339
b'$GNGGA,175543.45,4005.71429,N,08814.42342,W,1,05,1.68,236.1,M,-33.2,M,,*7D' 12-56-04-363
b'$GNVTG,267.77,T,,M,25.328,N,46.907,K,A*22' 12-56-04-389
b'$GNGGA,175543.50,4005.71428,N,08814.42388,W,1,05,1.68,236.1,M,-33.2,M,,*7E' 12-56-04-413
b'$GNVTG,268.22,T,,M,25.517,N,47.258,K,A*27' 12-56-04-438
b'$GNGGA,175543.55,4005.71427,N,08814.42435,W,1,05,1.68,236.1,M,-33.2,M,,*75' 12-56-04-461
b'$GNVTG,268.48,T,,M,25.633,N,47.472,K,A*20' 12-56-04-488
b'$GNGGA,175543.60,4005.71426,N,08814.42481,W,1,05,1.68,236.0,M,-33.2,M,,*7C' 12-56-04-511
b'$GNVTG,268.90,T,,M,25.708,N,47.611,K,A*2B' 12-56-04-539
b'$GNGGA,175543.65,4005.71426,N,08814.42528,W,1,05,1.68,236.0,M,-33.2,M,,*7B' 12-56-04-562
b'$GNVTG,268.82,T,,M,25.686,N,47.570,K,A*2B' 12-56-04-588
b'$GNGGA,175543.70,4005.71425,N,08814.42574,W,1,05,1.68,236.0,M,-33.2,M,,*75' 12-56-04-611
b'$GNVTG,268.82,T,,M,25.830,N,47.838,K,A*29' 12-56-04-638
b'$GNGGA,175543.75,4005.71425,N,08814.42621,W,1,05,1.68,236.0,M,-33.2,M,,*73' 12-56-04-661
b'$GNVTG,269.25,T,,M,25.978,N,48.111,K,A*25' 12-56-04-688
b'$GNGGA,175543.80,4005.71424,N,08814.42668,W,1,05,1.68,236.0,M,-33.2,M,,*75' 12-56-04-712
b'$GNVTG,269.57,T,,M,26.055,N,48.254,K,A*27' 12-56-04-738
b'$GNGGA,175543.85,4005.71424,N,08814.42715,W,1,05,1.68,236.0,M,-33.2,M,,*7B' 12-56-04-761
b'$GNVTG,270.07,T,,M,26.156,N,48.442,K,A*29' 12-56-04-788
b'$GNGGA,175543.90,4005.71425,N,08814.42762,W,1,05,1.68,236.0,M,-33.2,M,,*7E' 12-56-04-812
b'$GNVTG,270.27,T,,M,26.268,N,48.649,K,A*2C' 12-56-04-838
b'$GNGGA,175543.95,4005.71425,N,08814.42810,W,1,05,1.68,236.0,M,-33.2,M,,*71' 12-56-04-861
b'$GNVTG,270.73,T,,M,26.280,N,48.670,K,A*21' 12-56-04-892
b'$GNGGA,175544.00,4005.71426,N,08814.42857,W,1,05,1.68,235.9,M,-33.2,M,,*70' 12-56-04-916
b'$GNVTG,271.20,T,,M,26.234,N,48.586,K,A*23' 12-56-04-939
b'$GNGGA,175544.05,4005.71427,N,08814.42905,W,1,05,1.68,235.9,M,-33.2,M,,*72' 12-56-04-962
b'$GNVTG,271.82,T,,M,26.087,N,48.313,K,A*2B' 12-56-04-989
b'$GNGGA,175544.10,4005.71428,N,08814.42951,W,1,05,1.68,235.9,M,-33.2,M,,*78' 12-56-05-012
b'$GNVTG,272.09,T,,M,25.853,N,47.880,K,A*27' 12-56-05-038
b'$GNGGA,175544.15,4005.71430,N,08814.42997,W,1,05,1.68,235.9,M,-33.2,M,,*7E' 12-56-05-062
b'$GNVTG,272.43,T,,M,25.593,N,47.398,K,A*2A' 12-56-05-089
b'$GNGGA,175544.20,4005.71432,N,08814.43042,W,1,05,1.68,235.9,M,-33.2,M,,*7A' 12-56-05-113
b'$GNVTG,272.80,T,,M,25.377,N,46.998,K,A*22' 12-56-05-139
b'$GNGGA,175544.25,4005.71434,N,08814.43087,W,1,05,1.68,235.9,M,-33.2,M,,*70' 12-56-05-162
b'$GNVTG,273.18,T,,M,25.220,N,46.708,K,A*26' 12-56-05-189
b'$GNGGA,175544.30,4005.71437,N,08814.43132,W,1,05,1.68,235.9,M,-33.2,M,,*78' 12-56-05-213
b'$GNVTG,273.69,T,,M,25.039,N,46.372,K,A*23' 12-56-05-239
b'$GNGGA,175544.35,4005.71439,N,08814.43177,W,1,05,1.68,235.9,M,-33.2,M,,*72' 12-56-05-263
b'$GNVTG,274.62,T,,M,24.832,N,45.989,K,A*20' 12-56-05-289
b'$GNGGA,175544.40,4005.71443,N,08814.43220,W,1,05,1.68,235.9,M,-33.2,M,,*7C' 12-56-05-315
b'$GNVTG,275.01,T,,M,24.476,N,45.329,K,A*28' 12-56-05-339
b'$GNGGA,175544.45,4005.71446,N,08814.43263,W,1,05,1.68,235.8,M,-33.2,M,,*7A' 12-56-05-364
b'$GNVTG,275.68,T,,M,24.185,N,44.790,K,A*29' 12-56-05-389
b'$GNGGA,175544.50,4005.71450,N,08814.43306,W,1,05,1.68,235.8,M,-33.2,M,,*7B' 12-56-05-413
b'$GNVTG,276.61,T,,M,23.847,N,44.165,K,A*2F' 12-56-05-439
b'$GNGGA,175544.55,4005.71454,N,08814.43347,W,1,05,1.69,235.8,M,-33.2,M,,*7E' 12-56-05-463
b'$GNVTG,277.74,T,,M,23.494,N,43.512,K,A*2B' 12-56-05-489
b'$GNGGA,175544.60,4005.71459,N,08814.43388,W,1,05,1.69,235.8,M,-33.2,M,,*76' 12-56-05-513
b'$GNVTG,279.06,T,,M,23.154,N,42.881,K,A*2F' 12-56-05-539
b'$GNGGA,175544.65,4005.71465,N,08814.43428,W,1,05,1.69,235.8,M,-33.2,M,,*71' 12-56-05-563
b'$GNVTG,280.56,T,,M,22.769,N,42.169,K,A*2A' 12-56-05-589
b'$GNGGA,175544.70,4005.71472,N,08814.43467,W,1,05,1.69,235.8,M,-33.2,M,,*78' 12-56-05-613
b'$GNVTG,282.16,T,,M,22.401,N,41.487,K,A*27' 12-56-05-638
b'$GNGGA,175544.75,4005.71479,N,08814.43505,W,1,05,1.69,235.8,M,-33.2,M,,*73' 12-56-05-662
b'$GNVTG,283.97,T,,M,22.038,N,40.815,K,A*27' 12-56-05-688
b'$GNGGA,175544.80,4005.71488,N,08814.43542,W,1,05,1.69,235.8,M,-33.2,M,,*74' 12-56-05-712
b'$GNVTG,285.52,T,,M,21.520,N,39.855,K,A*2D' 12-56-05-739
b'$GNGGA,175544.85,4005.71497,N,08814.43578,W,1,05,1.69,235.7,M,-33.2,M,,*79' 12-56-05-763
b'$GNVTG,287.40,T,,M,21.132,N,39.136,K,A*27' 12-56-05-789
b'$GNGGA,175544.90,4005.71507,N,08814.43614,W,1,05,1.69,235.7,M,-33.2,M,,*7C' 12-56-05-813
b'$GNVTG,289.28,T,,M,20.744,N,38.418,K,A*29' 12-56-05-839
b'$GNGGA,175544.95,4005.71517,N,08814.43647,W,1,05,1.69,235.7,M,-33.2,M,,*7E' 12-56-05-863
b'$GNVTG,291.70,T,,M,20.579,N,38.113,K,A*2F' 12-56-05-893
b'$GNGGA,175545.00,4005.71529,N,08814.43680,W,1,05,1.69,235.7,M,-33.2,M,,*75' 12-56-05-917
b'$GNVTG,294.50,T,,M,20.259,N,37.520,K,A*26' 12-56-05-940
b'$GNGGA,175545.05,4005.71542,N,08814.43712,W,1,05,1.69,235.7,M,-33.2,M,,*77' 12-56-05-964
b'$GNVTG,296.26,T,,M,19.724,N,36.528,K,A*29' 12-56-05-990
b'$GNGGA,175545.10,4005.71556,N,08814.43742,W,1,05,1.69,235.6,M,-33.2,M,,*72' 12-56-06-014
b'$GNVTG,298.39,T,,M,19.161,N,35.486,K,A*28' 12-56-06-039
b'$GNGGA,175545.15,4005.71569,N,08814.43771,W,1,05,1.69,235.6,M,-33.2,M,,*7B' 12-56-06-063
b'$GNVTG,300.09,T,,M,18.694,N,34.621,K,A*29' 12-56-06-089
b'$GNGGA,175545.20,4005.71583,N,08814.43798,W,1,05,1.69,235.6,M,-33.2,M,,*7E' 12-56-06-113
b'$GNVTG,301.85,T,,M,18.412,N,34.099,K,A*25' 12-56-06-139
b'$GNGGA,175545.25,4005.71597,N,08814.43825,W,1,05,1.69,235.6,M,-33.2,M,,*77' 12-56-06-163
b'$GNVTG,303.66,T,,M,18.129,N,33.575,K,A*27' 12-56-06-189
b'$GNGGA,175545.30,4005.71612,N,08814.43851,W,1,05,1.69,235.6,M,-33.2,M,,*7E' 12-56-06-213
b'$GNVTG,305.90,T,,M,17.721,N,32.819,K,A*2F' 12-56-06-239
b'$GNGGA,175545.35,4005.71627,N,08814.43875,W,1,05,1.69,235.5,M,-33.2,M,,*78' 12-56-06-262
b'$GNVTG,307.83,T,,M,17.571,N,32.541,K,A*28' 12-56-06-289
b'$GNGGA,175545.40,4005.71643,N,08814.43899,W,1,05,1.69,235.5,M,-33.2,M,,*7A' 12-56-06-313
b'$GNVTG,310.41,T,,M,17.543,N,32.489,K,A*24' 12-56-06-339
b'$GNGGA,175545.45,4005.71660,N,08814.43922,W,1,05,1.69,235.5,M,-33.2,M,,*7F' 12-56-06-363
b'$GNVTG,313.42,T,,M,17.286,N,32.015,K,A*2B' 12-56-06-389
b'$GNGGA,175545.50,4005.71678,N,08814.43942,W,1,05,1.69,235.5,M,-33.2,M,,*74' 12-56-06-412
b'$GNVTG,316.39,T,,M,17.004,N,31.492,K,A*22' 12-56-06-439
b'$GNGGA,175545.55,4005.71696,N,08814.43961,W,1,05,1.69,235.5,M,-33.2,M,,*70' 12-56-06-463
b'$GNVTG,318.51,T,,M,16.944,N,31.381,K,A*2B' 12-56-06-489
b'$GNGGA,175545.60,4005.71714,N,08814.43981,W,1,05,1.69,235.4,M,-33.2,M,,*72' 12-56-06-513
b'$GNVTG,320.30,T,,M,17.020,N,31.521,K,A*21' 12-56-06-538
b'$GNGGA,175545.65,4005.71733,N,08814.43999,W,1,05,1.69,235.4,M,-33.2,M,,*7B' 12-56-06-562
b'$GNVTG,322.53,T,,M,16.951,N,31.393,K,A*27' 12-56-06-588
b'$GNGGA,175545.70,4005.71752,N,08814.44017,W,1,05,1.69,235.4,M,-33.2,M,,*70' 12-56-06-612
b'$GNVTG,324.65,T,,M,16.832,N,31.174,K,A*2B' 12-56-06-639
b'$GNGGA,175545.75,4005.71772,N,08814.44034,W,1,05,1.69,235.4,M,-33.2,M,,*76' 12-56-06-663
b'$GNVTG,326.88,T,,M,16.637,N,30.812,K,A*29' 12-56-06-689
b'$GNGGA,175545.80,4005.71792,N,08814.44049,W,1,05,1.69,235.4,M,-33.2,M,,*78' 12-56-06-712
b'$GNVTG,329.24,T,,M,16.744,N,31.010,K,A*2E' 12-56-06-739
b'$GNGGA,175545.85,4005.71813,N,08814.44063,W,1,05,1.69,235.4,M,-33.2,M,,*73' 12-56-06-763
b'$GNVTG,331.66,T,,M,16.709,N,30.945,K,A*20' 12-56-06-789
b'$GNGGA,175545.90,4005.71834,N,08814.44076,W,1,05,1.69,235.3,M,-33.2,M,,*71' 12-56-06-813
b'$GNVTG,333.78,T,,M,16.582,N,30.710,K,A*22' 12-56-06-839
b'$GNGGA,175545.95,4005.71855,N,08814.44087,W,1,05,1.69,235.3,M,-33.2,M,,*7D' 12-56-06-862
b'$GNVTG,335.81,T,,M,16.490,N,30.539,K,A*29' 12-56-06-893
b'$GNGGA,175546.00,4005.71877,N,08814.44098,W,1,05,1.69,235.3,M,-33.2,M,,*7C' 12-56-06-917
b'$GNVTG,338.62,T,,M,16.335,N,30.252,K,A*2B' 12-56-06-939
b'$GNGGA,175546.05,4005.71898,N,08814.44107,W,1,05,1.69,235.3,M,-33.2,M,,*7F' 12-56-06-963
b'$GNVTG,341.64,T,,M,16.366,N,30.309,K,A*2A' 12-56-06-989
b'$GNGGA,175546.10,4005.71920,N,08814.44114,W,1,05,1.69,235.3,M,-33.2,M,,*7B' 12-56-07-013
b'$GNVTG,344.24,T,,M,16.415,N,30.400,K,A*26' 12-56-07-039
b'$GNGGA,175546.15,4005.71943,N,08814.44120,W,1,05,1.69,235.3,M,-33.2,M,,*7C' 12-56-07-063
b'$GNVTG,346.57,T,,M,16.431,N,30.430,K,A*25' 12-56-07-089
b'$GNGGA,175546.20,4005.71965,N,08814.44126,W,1,05,1.69,235.3,M,-33.2,M,,*78' 12-56-07-113
b'$GNVTG,349.16,T,,M,16.428,N,30.424,K,A*22' 12-56-07-140
b'$GNGGA,175546.25,4005.71988,N,08814.44129,W,1,05,1.69,235.3,M,-33.2,M,,*71' 12-56-07-164
b'$GNVTG,351.81,T,,M,16.392,N,30.359,K,A*2E' 12-56-07-190
b'$GNGGA,175546.30,4005.72010,N,08814.44131,W,1,05,1.69,235.3,M,-33.2,M,,*77' 12-56-07-214
b'$GNVTG,353.99,T,,M,16.343,N,30.267,K,A*25' 12-56-07-239
b'$GNGGA,175546.35,4005.72033,N,08814.44132,W,1,05,1.69,235.3,M,-33.2,M,,*70' 12-56-07-263
b'$GNVTG,356.60,T,,M,16.259,N,30.112,K,A*2D' 12-56-07-289
b'$GNGGA,175546.40,4005.72055,N,08814.44132,W,1,05,1.69,235.3,M,-33.2,M,,*72' 12-56-07-313
b'$GNVTG,358.76,T,,M,16.294,N,30.177,K,A*26' 12-56-07-339
b'$GNGGA,175546.45,4005.72078,N,08814.44131,W,1,05,1.69,235.3,M,-33.2,M,,*7B' 12-56-07-363
b'$GNVTG,1.19,T,,M,16.268,N,30.128,K,A*29' 12-56-07-389
b'$GNGGA,175546.50,4005.72101,N,08814.44128,W,1,05,1.69,235.3,M,-33.2,M,,*78' 12-56-07-413
b'$GNVTG,4.16,T,,M,16.210,N,30.020,K,A*25' 12-56-07-438
b'$GNGGA,175546.55,4005.72123,N,08814.44124,W,1,05,1.69,235.3,M,-33.2,M,,*71' 12-56-07-462
b'$GNVTG,6.23,T,,M,16.114,N,29.843,K,A*23' 12-56-07-488
b'$GNGGA,175546.60,4005.72145,N,08814.44119,W,1,05,1.69,235.3,M,-33.2,M,,*79' 12-56-07-512
b'$GNVTG,8.65,T,,M,15.915,N,29.475,K,A*2C' 12-56-07-539
b'$GNGGA,175546.65,4005.72166,N,08814.44113,W,1,05,1.69,235.3,M,-33.2,M,,*77' 12-56-07-563
b'$GNVTG,10.84,T,,M,16.083,N,29.786,K,A*10' 12-56-07-589
b'$GNGGA,175546.70,4005.72188,N,08814.44106,W,1,05,1.69,235.3,M,-33.2,M,,*77' 12-56-07-613
b'$GNVTG,13.30,T,,M,16.220,N,30.039,K,A*1C' 12-56-07-639
b'$GNGGA,175546.75,4005.72210,N,08814.44097,W,1,05,1.69,235.3,M,-33.2,M,,*79' 12-56-07-663
b'$GNVTG,15.20,T,,M,16.305,N,30.196,K,A*19' 12-56-07-689
b'$GNGGA,175546.80,4005.72232,N,08814.44088,W,1,05,1.69,235.3,M,-33.2,M,,*7D' 12-56-07-713
b'$GNVTG,18.07,T,,M,16.141,N,29.892,K,A*16' 12-56-07-739
b'$GNGGA,175546.85,4005.72253,N,08814.44077,W,1,05,1.69,235.3,M,-33.2,M,,*7F' 12-56-07-763
b'$GNVTG,21.30,T,,M,16.014,N,29.658,K,A*11' 12-56-07-789
b'$GNGGA,175546.90,4005.72273,N,08814.44064,W,1,05,1.69,235.3,M,-33.2,M,,*7B' 12-56-07-813
b'$GNVTG,23.64,T,,M,16.009,N,29.649,K,A*1E' 12-56-07-839
b'$GNGGA,175546.95,4005.72293,N,08814.44051,W,1,05,1.69,235.3,M,-33.2,M,,*76' 12-56-07-862
b'$GNVTG,25.08,T,,M,16.116,N,29.846,K,A*1C' 12-56-07-893
b'$GNGGA,175547.00,4005.72313,N,08814.44037,W,1,05,1.69,235.3,M,-33.2,M,,*72' 12-56-07-917
b'$GNVTG,27.11,T,,M,16.305,N,30.196,K,A*1A' 12-56-07-939
b'$GNGGA,175547.05,4005.72334,N,08814.44021,W,1,05,1.69,235.3,M,-33.2,M,,*75' 12-56-07-963
b'$GNVTG,30.65,T,,M,16.050,N,29.725,K,A*1A' 12-56-07-990
b'$GNGGA,175547.10,4005.72352,N,08814.44005,W,1,05,1.69,235.3,M,-33.2,M,,*77' 12-56-08-014
b'$GNVTG,34.15,T,,M,16.000,N,29.633,K,A*1A' 12-56-08-039
b'$GNGGA,175547.15,4005.72370,N,08814.43987,W,1,05,1.69,235.3,M,-33.2,M,,*76' 12-56-08-063
b'$GNVTG,35.98,T,,M,16.111,N,29.837,K,A*15' 12-56-08-090
b'$GNGGA,175547.20,4005.72388,N,08814.43969,W,1,05,1.69,235.3,M,-33.2,M,,*77' 12-56-08-114
b'$GNVTG,37.74,T,,M,16.091,N,29.800,K,A*18' 12-56-08-139
b'$GNGGA,175547.25,4005.72406,N,08814.43950,W,1,05,1.69,235.3,M,-33.2,M,,*79' 12-56-08-163
b'$GNVTG,40.22,T,,M,16.211,N,30.022,K,A*11' 12-56-08-189
b'$GNGGA,175547.30,4005.72422,N,08814.43930,W,1,05,1.69,235.3,M,-33.2,M,,*7D' 12-56-08-213
b'$GNVTG,42.40,T,,M,16.290,N,30.168,K,A*11' 12-56-08-239
b'$GNGGA,175547.35,4005.72438,N,08814.43910,W,1,05,1.69,235.3,M,-33.2,M,,*71' 12-56-08-263
b'$GNVTG,44.76,T,,M,16.352,N,30.284,K,A*1C' 12-56-08-290
b'$GNGGA,175547.40,4005.72454,N,08814.43888,W,1,05,1.69,235.3,M,-33.2,M,,*79' 12-56-08-314
b'$GNVTG,46.73,T,,M,16.440,N,30.446,K,A*17' 12-56-08-339
b'$GNGGA,175547.45,4005.72469,N,08814.43866,W,1,05,1.69,235.3,M,-33.2,M,,*72' 12-56-08-363
b'$GNVTG,48.22,T,,M,16.555,N,30.660,K,A*1E' 12-56-08-390
b'$GNGGA,175547.50,4005.72484,N,08814.43843,W,1,05,1.69,235.3,M,-33.2,M,,*72' 12-56-08-414
b'$GNVTG,50.50,T,,M,16.761,N,31.041,K,A*13' 12-56-08-439
b'$GNGGA,175547.55,4005.72499,N,08814.43818,W,1,05,1.69,235.3,M,-33.2,M,,*75' 12-56-08-463
b'$GNVTG,53.07,T,,M,17.015,N,31.513,K,A*15' 12-56-08-489
b'$GNGGA,175547.60,4005.72513,N,08814.43792,W,1,05,1.69,235.3,M,-33.2,M,,*7D' 12-56-08-513
b'$GNVTG,54.23,T,,M,17.111,N,31.689,K,A*11' 12-56-08-539
b'$GNGGA,175547.65,4005.72527,N,08814.43766,W,1,05,1.69,235.3,M,-33.2,M,,*74' 12-56-08-563
b'$GNVTG,55.03,T,,M,17.205,N,31.864,K,A*19' 12-56-08-589
b'$GNGGA,175547.70,4005.72540,N,08814.43740,W,1,05,1.69,235.3,M,-33.2,M,,*75' 12-56-08-613
b'$GNVTG,56.34,T,,M,17.439,N,32.297,K,A*12' 12-56-08-639
b'$GNGGA,175547.75,4005.72554,N,08814.43712,W,1,05,1.69,235.3,M,-33.2,M,,*72' 12-56-08-663
b'$GNVTG,58.40,T,,M,17.565,N,32.530,K,A*1D' 12-56-08-689
b'$GNGGA,175547.80,4005.72566,N,08814.43684,W,1,05,1.69,235.3,M,-33.2,M,,*77' 12-56-08-713
b'$GNVTG,60.53,T,,M,17.926,N,33.199,K,A*19' 12-56-08-739
b'$GNGGA,175547.85,4005.72578,N,08814.43654,W,1,05,1.69,235.3,M,-33.2,M,,*70' 12-56-08-763
b'$GNVTG,61.88,T,,M,18.103,N,33.527,K,A*1F' 12-56-08-789
b'$GNGGA,175547.90,4005.72590,N,08814.43625,W,1,05,1.69,235.3,M,-33.2,M,,*74' 12-56-08-812
b'$GNVTG,63.56,T,,M,18.243,N,33.786,K,A*10' 12-56-08-839
b'$GNGGA,175547.95,4005.72601,N,08814.43594,W,1,05,1.69,235.3,M,-33.2,M,,*73' 12-56-08-863
b'$GNVTG,65.42,T,,M,18.489,N,34.241,K,A*1A' 12-56-08-893
b'$GNGGA,175548.00,4005.72611,N,08814.43562,W,1,05,1.69,235.3,M,-33.2,M,,*78' 12-56-08-917
b'$GNVTG,67.66,T,,M,18.658,N,34.555,K,A*12' 12-56-08-939
b'$GNGGA,175548.05,4005.72620,N,08814.43530,W,1,05,1.69,235.3,M,-33.2,M,,*78' 12-56-08-963
b'$GNVTG,69.30,T,,M,18.953,N,35.102,K,A*1C' 12-56-08-990
b'$GNGGA,175548.10,4005.72630,N,08814.43497,W,1,05,1.69,235.3,M,-33.2,M,,*71' 12-56-09-014
b'$GNVTG,70.45,T,,M,19.245,N,35.643,K,A*19' 12-56-09-039
b'$GNGGA,175548.15,4005.72638,N,08814.43464,W,1,05,1.69,235.3,M,-33.2,M,,*70' 12-56-09-063
b'$GNVTG,71.86,T,,M,19.403,N,35.935,K,A*1D' 12-56-09-089
b'$GNGGA,175548.20,4005.72646,N,08814.43429,W,1,05,1.69,235.3,M,-33.2,M,,*76' 12-56-09-113
b'$GNVTG,73.61,T,,M,19.611,N,36.320,K,A*1A' 12-56-09-139
b'$GNGGA,175548.25,4005.72654,N,08814.43394,W,1,05,1.69,235.4,M,-33.2,M,,*76' 12-56-09-163
b'$GNVTG,74.88,T,,M,19.914,N,36.880,K,A*11' 12-56-09-189
b'$GNGGA,175548.30,4005.72661,N,08814.43359,W,1,05,1.69,235.3,M,-33.2,M,,*72' 12-56-09-213
b'$GNVTG,75.92,T,,M,20.147,N,37.312,K,A*1E' 12-56-09-238
b'$GNGGA,175548.35,4005.72667,N,08814.43323,W,1,05,1.69,235.3,M,-33.2,M,,*7C' 12-56-09-262
b'$GNVTG,76.79,T,,M,20.352,N,37.691,K,A*10' 12-56-09-289
b'$GNGGA,175548.40,4005.72674,N,08814.43286,W,1,05,1.69,235.3,M,-33.2,M,,*72' 12-56-09-313
b'$GNVTG,77.63,T,,M,20.668,N,38.276,K,A*14' 12-56-09-339
b'$GNGGA,175548.45,4005.72680,N,08814.43249,W,1,05,1.69,235.3,M,-33.2,M,,*7F' 12-56-09-363
b'$GNVTG,79.48,T,,M,20.968,N,38.834,K,A*10' 12-56-09-389
b'$GNGGA,175548.50,4005.72684,N,08814.43210,W,1,05,1.69,235.4,M,-33.2,M,,*74' 12-56-09-413
b'$GNVTG,81.70,T,,M,21.311,N,39.468,K,A*1D' 12-56-09-439
b'$GNGGA,175548.55,4005.72688,N,08814.43171,W,1,05,1.69,235.4,M,-33.2,M,,*79' 12-56-09-463
b'$GNVTG,82.99,T,,M,21.608,N,40.018,K,A*19' 12-56-09-489
b'$GNGGA,175548.60,4005.72692,N,08814.43131,W,1,05,1.69,235.4,M,-33.2,M,,*70' 12-56-09-513
b'$GNVTG,83.86,T,,M,21.890,N,40.539,K,A*1F' 12-56-09-539
b'$GNGGA,175548.65,4005.72695,N,08814.43091,W,1,05,1.69,235.3,M,-33.2,M,,*7E' 12-56-09-563
b'$GNVTG,85.23,T,,M,22.072,N,40.876,K,A*17' 12-56-09-589
b'$GNGGA,175548.70,4005.72697,N,08814.43051,W,1,05,1.69,235.4,M,-33.2,M,,*73' 12-56-09-613
b'$GNVTG,86.57,T,,M,22.296,N,41.293,K,A*1F' 12-56-09-639
b'$GNGGA,175548.75,4005.72698,N,08814.43010,W,1,05,1.69,235.4,M,-33.2,M,,*7C' 12-56-09-663
b'$GNVTG,87.74,T,,M,22.731,N,42.098,K,A*1D' 12-56-09-689
b'$GNGGA,175548.80,4005.72699,N,08814.42967,W,1,05,1.69,235.4,M,-33.2,M,,*7F' 12-56-09-713
b'$GNVTG,88.81,T,,M,22.994,N,42.585,K,A*10' 12-56-09-739
b'$GNGGA,175548.85,4005.72699,N,08814.42925,W,1,05,1.69,235.4,M,-33.2,M,,*7C' 12-56-09-763
b'$GNVTG,89.59,T,,M,23.231,N,43.025,K,A*1F' 12-56-09-789
b'$GNGGA,175548.90,4005.72699,N,08814.42882,W,1,05,1.69,235.4,M,-33.2,M,,*74' 12-56-09-813
b'$GNVTG,90.43,T,,M,23.506,N,43.533,K,A*1D' 12-56-09-839
b'$GNGGA,175548.95,4005.72699,N,08814.42839,W,1,05,1.69,235.4,M,-33.2,M,,*71' 12-56-09-862
b'$GNVTG,91.44,T,,M,23.857,N,44.183,K,A*1A' 12-56-09-893
b'$GNGGA,175549.00,4005.72697,N,08814.42795,W,1,05,1.69,235.4,M,-33.2,M,,*7B' 12-56-09-917
b'$GNVTG,92.05,T,,M,24.182,N,44.785,K,A*1A' 12-56-09-939
b'$GNGGA,175549.05,4005.72696,N,08814.42750,W,1,05,1.69,235.4,M,-33.2,M,,*76' 12-56-09-963
b'$GNVTG,92.89,T,,M,24.447,N,45.275,K,A*19' 12-56-09-989
b'$GNGGA,175549.10,4005.72694,N,08814.42706,W,1,05,1.69,235.4,M,-33.2,M,,*73' 12-56-10-012
b'$GNVTG,93.78,T,,M,24.771,N,45.875,K,A*1A' 12-56-10-039
b'$GNGGA,175549.15,4005.72691,N,08814.42660,W,1,05,1.69,235.4,M,-33.2,M,,*72' 12-56-10-063
b'$GNVTG,94.48,T,,M,25.130,N,46.541,K,A*15' 12-56-10-089
b'$GNGGA,175549.20,4005.72688,N,08814.42614,W,1,05,1.69,235.4,M,-33.2,M,,*7F' 12-56-10-113
b'$GNVTG,95.10,T,,M,25.517,N,47.258,K,A*16' 12-56-10-138
b'$GNGGA,175549.25,4005.72685,N,08814.42567,W,1,05,1.69,235.4,M,-33.2,M,,*70' 12-56-10-162
b'$GNVTG,95.12,T,,M,25.760,N,47.708,K,A*16' 12-56-10-188
b'$GNGGA,175549.30,4005.72682,N,08814.42520,W,1,05,1.69,235.4,M,-33.2,M,,*70' 12-56-10-212
b'$GNGGA,175549.35,4005.72679,N,08814.42473,W,1,05,1.69,235.4,M,-33.2,M,,*76' 12-56-10-241
b'$GNVTG,95.92,T,,M,26.339,N,48.781,K,A*1B' 12-56-10-289
b'$GNGGA,175549.40,4005.72675,N,08814.42425,W,1,05,1.69,235.4,M,-33.2,M,,*7B' 12-56-10-313
b'$GNVTG,96.10,T,,M,26.530,N,49.133,K,A*13' 12-56-10-339
b'$GNGGA,175549.45,4005.72671,N,08814.42376,W,1,05,1.69,235.3,M,-33.2,M,,*7C' 12-56-10-363
b'$GNVTG,96.48,T,,M,26.805,N,49.643,K,A*15' 12-56-10-389
b'$GNGGA,175549.50,4005.72666,N,08814.42328,W,1,05,1.69,235.3,M,-33.2,M,,*75' 12-56-10-413
b'$GNVTG,96.90,T,,M,27.023,N,50.046,K,A*16' 12-56-10-439
b'$GNGGA,175549.55,4005.72662,N,08814.42278,W,1,05,1.69,235.4,M,-33.2,M,,*77' 12-56-10-463
b'$GNVTG,96.49,T,,M,27.253,N,50.473,K,A*15' 12-56-10-489
b'$GNGGA,175549.60,4005.72658,N,08814.42229,W,1,05,1.69,235.4,M,-33.2,M,,*7C' 12-56-10-513
b'$GNVTG,96.11,T,,M,27.253,N,50.472,K,A*19' 12-56-10-539
b'$GNGGA,175549.65,4005.72654,N,08814.42180,W,1,05,1.69,235.4,M,-33.2,M,,*75' 12-56-10-563
b'$GNVTG,95.47,T,,M,27.314,N,50.586,K,A*11' 12-56-10-589
b'$GNGGA,175549.70,4005.72651,N,08814.42130,W,1,05,1.69,235.3,M,-33.2,M,,*78' 12-56-10-612
b'$GNVTG,95.05,T,,M,27.370,N,50.689,K,A*19' 12-56-10-639
b'$GNGGA,175549.75,4005.72648,N,08814.42080,W,1,05,1.69,235.3,M,-33.2,M,,*7F' 12-56-10-663
b'$GNVTG,94.26,T,,M,27.337,N,50.628,K,A*11' 12-56-10-689
b'$GNGGA,175549.80,4005.72645,N,08814.42031,W,1,05,1.69,235.3,M,-33.2,M,,*72' 12-56-10-713
b'$GNVTG,93.07,T,,M,27.170,N,50.319,K,A*13' 12-56-10-739
b'$GNGGA,175549.85,4005.72644,N,08814.41982,W,1,05,1.69,235.3,M,-33.2,M,,*74' 12-56-10-763
b'$GNVTG,91.57,T,,M,27.087,N,50.164,K,A*15' 12-56-10-789
b'$GNGGA,175549.90,4005.72644,N,08814.41933,W,1,05,1.69,235.3,M,-33.2,M,,*7A' 12-56-10-813
b'$GNVTG,90.47,T,,M,26.946,N,49.905,K,A*17' 12-56-10-839
b'$GNGGA,175549.95,4005.72644,N,08814.41884,W,1,05,1.69,235.3,M,-33.2,M,,*72' 12-56-10-863
b'$GNVTG,89.35,T,,M,26.781,N,49.599,K,A*16' 12-56-10-893
b'$GNGGA,175550.00,4005.72646,N,08814.41836,W,1,05,1.69,235.3,M,-33.2,M,,*7D' 12-56-10-917
b'$GNVTG,88.43,T,,M,26.516,N,49.108,K,A*16' 12-56-10-939
b'$GNGGA,175550.05,4005.72647,N,08814.41789,W,1,05,1.69,235.3,M,-33.2,M,,*72' 12-56-10-963
b'$GNVTG,87.49,T,,M,26.311,N,48.729,K,A*16' 12-56-10-989
b'$GNGGA,175550.10,4005.72649,N,08814.41741,W,1,05,1.69,235.3,M,-33.2,M,,*7C' 12-56-11-013
b'$GNVTG,86.66,T,,M,25.959,N,48.076,K,A*12' 12-56-11-038
b'$GNGGA,175550.15,4005.72652,N,08814.41695,W,1,05,1.69,235.3,M,-33.2,M,,*7B' 12-56-11-062
b'$GNVTG,85.77,T,,M,25.671,N,47.543,K,A*18' 12-56-11-089
b'$GNGGA,175550.20,4005.72655,N,08814.41650,W,1,05,1.69,235.3,M,-33.2,M,,*73' 12-56-11-113
b'$GNVTG,84.40,T,,M,25.274,N,46.807,K,A*10' 12-56-11-139
b'$GNGGA,175550.25,4005.72659,N,08814.41605,W,1,05,1.69,235.3,M,-33.2,M,,*7A' 12-56-11-163
b'$GNVTG,83.46,T,,M,24.917,N,46.147,K,A*13' 12-56-11-189
b'$GNGGA,175550.30,4005.72663,N,08814.41561,W,1,05,1.69,235.3,M,-33.2,M,,*76' 12-56-11-213
b'$GNVTG,82.91,T,,M,24.605,N,45.568,K,A*1E' 12-56-11-239
b'$GNGGA,175550.35,4005.72668,N,08814.41518,W,1,05,1.69,235.3,M,-33.2,M,,*76' 12-56-11-263
b'$GNVTG,82.04,T,,M,24.297,N,44.998,K,A*1F' 12-56-11-289
b'$GNGGA,175550.40,4005.72673,N,08814.41475,W,1,05,1.69,235.3,M,-33.2,M,,*74' 12-56-11-315
b'$GNVTG,81.23,T,,M,24.142,N,44.711,K,A*1D' 12-56-11-339
b'$GNGGA,175550.45,4005.72678,N,08814.41432,W,1,05,1.69,235.3,M,-33.2,M,,*79' 12-56-11-363
b'$GNVTG,80.02,T,,M,23.731,N,43.951,K,A*17' 12-56-11-389
b'$GNGGA,175550.50,4005.72684,N,08814.41391,W,1,05,1.69,235.3,M,-33.2,M,,*70' 12-56-11-414
b'$GNVTG,78.57,T,,M,23.272,N,43.100,K,A*1E' 12-56-11-439
b'$GNGGA,175550.55,4005.72691,N,08814.41351,W,1,05,1.69,235.2,M,-33.2,M,,*7C' 12-56-11-463
b'$GNVTG,76.72,T,,M,22.878,N,42.371,K,A*13' 12-56-11-489
b'$GNGGA,175550.60,4005.72699,N,08814.41311,W,1,05,1.69,235.2,M,-33.2,M,,*76' 12-56-11-513
b'$GNVTG,74.62,T,,M,22.653,N,41.953,K,A*1E' 12-56-11-539
b'$GNGGA,175550.65,4005.72708,N,08814.41272,W,1,05,1.69,235.2,M,-33.2,M,,*7E' 12-56-11-563
b'$GNVTG,72.45,T,,M,22.453,N,41.584,K,A*19' 12-56-11-589
b'$GNGGA,175550.70,4005.72718,N,08814.41234,W,1,05,1.69,235.2,M,-33.2,M,,*79' 12-56-11-613
b'$GNVTG,70.10,T,,M,22.173,N,41.064,K,A*17' 12-56-11-639
b'$GNGGA,175550.75,4005.72730,N,08814.41198,W,1,05,1.69,235.2,M,-33.2,M,,*73' 12-56-11-663
b'$GNVTG,68.17,T,,M,21.991,N,40.727,K,A*1F' 12-56-11-689
b'$GNGGA,175550.80,4005.72742,N,08814.41161,W,1,05,1.69,235.2,M,-33.2,M,,*7A' 12-56-11-713
b'$GNVTG,66.01,T,,M,21.984,N,40.715,K,A*13' 12-56-11-739
b'$GNGGA,175550.85,4005.72755,N,08814.41125,W,1,05,1.69,235.2,M,-33.2,M,,*79' 12-56-11-763
b'$GNVTG,63.82,T,,M,21.972,N,40.691,K,A*19' 12-56-11-789
b'$GNGGA,175550.90,4005.72769,N,08814.41090,W,1,05,1.69,235.2,M,-33.2,M,,*7D' 12-56-11-812
b'$GNVTG,61.14,T,,M,21.939,N,40.631,K,A*11' 12-56-11-839
b'$GNGGA,175550.95,4005.72785,N,08814.41057,W,1,05,1.69,235.2,M,-33.2,M,,*71' 12-56-11-863
b'$GNVTG,58.50,T,,M,21.880,N,40.521,K,A*1A' 12-56-11-893
b'$GNGGA,175551.00,4005.72801,N,08814.41024,W,1,05,1.69,235.2,M,-33.2,M,,*7B' 12-56-11-917
b'$GNVTG,56.38,T,,M,21.741,N,40.265,K,A*1F' 12-56-11-939
b'$GNGGA,175551.05,4005.72818,N,08814.40992,W,1,05,1.69,235.2,M,-33.2,M,,*73' 12-56-11-963
b'$GNVTG,55.10,T,,M,21.685,N,40.160,K,A*19' 12-56-11-988
b'$GNGGA,175551.10,4005.72836,N,08814.40960,W,1,05,1.69,235.2,M,-33.2,M,,*76' 12-56-12-012
b'$GNVTG,54.95,T,,M,21.632,N,40.062,K,A*1A' 12-56-12-039
b'$GNGGA,175551.15,4005.72853,N,08814.40929,W,1,05,1.69,235.2,M,-33.2,M,,*7D' 12-56-12-063
b'$GNVTG,55.98,T,,M,21.709,N,40.205,K,A*1C' 12-56-12-089
b'$GNGGA,175551.20,4005.72870,N,08814.40896,W,1,05,1.69,235.1,M,-33.2,M,,*7C' 12-56-12-113
b'$GNVTG,56.62,T,,M,21.750,N,40.280,K,A*1B' 12-56-12-139
b'$GNGGA,175551.25,4005.72886,N,08814.40863,W,1,05,1.69,235.1,M,-33.2,M,,*7A' 12-56-12-163
b'$GNVTG,57.24,T,,M,21.665,N,40.123,K,A*15' 12-56-12-189
b'$GNGGA,175551.30,4005.72902,N,08814.40830,W,1,05,1.69,235.1,M,-33.2,M,,*75' 12-56-12-213
b'$GNVTG,58.50,T,,M,21.507,N,39.831,K,A*1A' 12-56-12-239
b'$GNGGA,175551.35,4005.72917,N,08814.40797,W,1,05,1.69,235.1,M,-33.2,M,,*76' 12-56-12-263
b'$GNVTG,60.42,T,,M,21.448,N,39.722,K,A*15' 12-56-12-289
b'$GNGGA,175551.40,4005.72931,N,08814.40763,W,1,05,1.69,235.1,M,-33.2,M,,*7B' 12-56-12-313
b'$GNVTG,62.28,T,,M,21.471,N,39.765,K,A*12' 12-56-12-339
b'$GNGGA,175551.45,4005.72945,N,08814.40729,W,1,05,1.69,235.1,M,-33.2,M,,*73' 12-56-12-363
b'$GNVTG,64.20,T,,M,21.504,N,39.825,K,A*14' 12-56-12-389
b'$GNGGA,175551.50,4005.72957,N,08814.40693,W,1,05,1.69,235.1,M,-33.2,M,,*74' 12-56-12-413
b'$GNVTG,66.39,T,,M,21.474,N,39.770,K,A*17' 12-56-12-439
b'$GNGGA,175551.55,4005.72968,N,08814.40657,W,1,05,1.69,235.1,M,-33.2,M,,*75' 12-56-12-463
b'$GNVTG,68.50,T,,M,21.553,N,39.916,K,A*1C' 12-56-12-489
b'$GNGGA,175551.60,4005.72978,N,08814.40621,W,1,05,1.69,235.1,M,-33.2,M,,*73' 12-56-12-513
b'$GNVTG,70.14,T,,M,21.499,N,39.817,K,A*12' 12-56-12-539
b'$GNGGA,175551.65,4005.72988,N,08814.40584,W,1,05,1.69,235.1,M,-33.2,M,,*75' 12-56-12-563
b'$GNVTG,71.57,T,,M,21.489,N,39.797,K,A*12' 12-56-12-589
b'$GNGGA,175551.70,4005.72997,N,08814.40547,W,1,05,1.69,235.1,M,-33.2,M,,*70' 12-56-12-613
b'$GNVTG,73.08,T,,M,21.415,N,39.660,K,A*16' 12-56-12-639
b'$GNGGA,175551.75,4005.73005,N,08814.40510,W,1,05,1.69,235.1,M,-33.2,M,,*74' 12-56-12-663
b'$GNVTG,74.41,T,,M,21.476,N,39.773,K,A*1A' 12-56-12-689
b'$GNGGA,175551.80,4005.73012,N,08814.40473,W,1,05,1.69,235.1,M,-33.2,M,,*7C' 12-56-12-713
b'$GNVTG,75.38,T,,M,21.638,N,40.074,K,A*13' 12-56-12-739
b'$GNGGA,175551.85,4005.73020,N,08814.40435,W,1,05,1.69,235.1,M,-33.2,M,,*7A' 12-56-12-763
b'$GNVTG,75.88,T,,M,21.806,N,40.384,K,A*17' 12-56-12-789
b'$GNGGA,175551.90,4005.73027,N,08814.40396,W,1,05,1.69,235.1,M,-33.2,M,,*77' 12-56-12-813
b'$GNVTG,76.90,T,,M,21.785,N,40.346,K,A*17' 12-56-12-838
b'$GNGGA,175551.95,4005.73033,N,08814.40358,W,1,05,1.69,235.1,M,-33.2,M,,*75' 12-56-12-862
b'$GNVTG,78.27,T,,M,21.798,N,40.370,K,A*1C' 12-56-12-892
b'$GNGGA,175552.00,4005.73039,N,08814.40319,W,1,05,1.69,235.1,M,-33.2,M,,*75' 12-56-12-916
b'$GNVTG,79.57,T,,M,21.888,N,40.537,K,A*11' 12-56-12-939
b'$GNGGA,175552.05,4005.73044,N,08814.40279,W,1,05,1.69,235.1,M,-33.2,M,,*7D' 12-56-12-963
b'$GNVTG,80.92,T,,M,21.880,N,40.522,K,A*12' 12-56-12-989
b'$GNGGA,175552.10,4005.73048,N,08814.40240,W,1,05,1.69,235.1,M,-33.2,M,,*7F' 12-56-13-013
b'$GNVTG,82.28,T,,M,22.110,N,40.948,K,A*12' 12-56-13-039
b'$GNGGA,175552.15,4005.73052,N,08814.40200,W,1,05,1.69,235.0,M,-33.2,M,,*74' 12-56-13-063
b'$GNVTG,83.21,T,,M,22.068,N,40.869,K,A*16' 12-56-13-090
b'$GNGGA,175552.20,4005.73055,N,08814.40161,W,1,05,1.69,235.1,M,-33.2,M,,*70' 12-56-13-114
b'$GNVTG,83.68,T,,M,22.022,N,40.786,K,A*1B' 12-56-13-139
b'$GNGGA,175552.25,4005.73058,N,08814.40121,W,1,05,1.69,235.1,M,-33.2,M,,*7C' 12-56-13-163
b'$GNVTG,85.36,T,,M,21.872,N,40.506,K,A*12' 12-56-13-189
b'$GNGGA,175552.30,4005.73060,N,08814.40082,W,1,05,1.69,235.1,M,-33.2,M,,*7B' 12-56-13-213
b'$GNVTG,87.10,T,,M,21.957,N,40.665,K,A*14' 12-56-13-239
b'$GNGGA,175552.35,4005.73061,N,08814.40042,W,1,05,1.69,235.1,M,-33.2,M,,*73' 12-56-13-263
b'$GNVTG,87.96,T,,M,22.008,N,40.759,K,A*14' 12-56-13-289
b'$GNGGA,175552.40,4005.73061,N,08814.40002,W,1,05,1.69,235.1,M,-33.2,M,,*75' 12-56-13-313
b'$GNVTG,88.83,T,,M,21.991,N,40.727,K,A*1C' 12-56-13-339
b'$GNGGA,175552.45,4005.73061,N,08814.39963,W,1,05,1.69,235.1,M,-33.2,M,,*70' 12-56-13-363
b'$GNVTG,90.11,T,,M,22.057,N,40.849,K,A*19' 12-56-13-389
b'$GNGGA,175552.50,4005.73061,N,08814.39923,W,1,05,1.69,235.1,M,-33.2,M,,*70' 12-56-13-413
b'$GNVTG,91.00,T,,M,21.896,N,40.551,K,A*1A' 12-56-13-439
b'$GNGGA,175552.55,4005.73060,N,08814.39884,W,1,05,1.69,235.1,M,-33.2,M,,*78' 12-56-13-463
b'$GNVTG,92.19,T,,M,21.943,N,40.639,K,A*15' 12-56-13-489
b'$GNGGA,175552.60,4005.73058,N,08814.39844,W,1,05,1.69,235.1,M,-33.2,M,,*79' 12-56-13-513
b'$GNVTG,94.19,T,,M,21.878,N,40.519,K,A*1B' 12-56-13-539
b'$GNGGA,175552.65,4005.73055,N,08814.39806,W,1,05,1.69,235.1,M,-33.2,M,,*77' 12-56-13-563
b'$GNVTG,95.93,T,,M,21.729,N,40.242,K,A*1A' 12-56-13-589
b'$GNGGA,175552.70,4005.73051,N,08814.39767,W,1,05,1.69,235.1,M,-33.2,M,,*7F' 12-56-13-613
b'$GNVTG,96.80,T,,M,21.463,N,39.749,K,A*16' 12-56-13-639
b'$GNGGA,175552.75,4005.73047,N,08814.39730,W,1,05,1.69,235.0,M,-33.2,M,,*7E' 12-56-13-663
b'$GNVTG,98.12,T,,M,21.666,N,40.126,K,A*15' 12-56-13-689
b'$GNGGA,175552.80,4005.73042,N,08814.39691,W,1,05,1.69,235.0,M,-33.2,M,,*7B' 12-56-13-713
b'$GNVTG,100.03,T,,M,21.516,N,39.847,K,A*21' 12-56-13-738
b'$GNGGA,175552.85,4005.73035,N,08814.39654,W,1,05,1.69,235.0,M,-33.2,M,,*77' 12-56-13-762
b'$GNVTG,102.01,T,,M,21.490,N,39.800,K,A*2D' 12-56-13-788
b'$GNGGA,175552.90,4005.73028,N,08814.39616,W,1,05,1.69,235.0,M,-33.2,M,,*79' 12-56-13-812
b'$GNVTG,103.39,T,,M,21.299,N,39.446,K,A*26' 12-56-13-839
b'$GNGGA,175552.95,4005.73021,N,08814.39580,W,1,05,1.69,235.0,M,-33.2,M,,*79' 12-56-13-863
b'$GNVTG,104.81,T,,M,21.191,N,39.245,K,A*2C' 12-56-13-893
b'$GNGGA,175553.00,4005.73013,N,08814.39544,W,1,05,1.69,235.0,M,-33.2,M,,*7D' 12-56-13-917
b'$GNVTG,106.76,T,,M,21.258,N,39.369,K,A*2F' 12-56-13-939
b'$GNGGA,175553.05,4005.73003,N,08814.39507,W,1,05,1.69,235.0,M,-33.2,M,,*7E' 12-56-13-963
b'$GNVTG,109.91,T,,M,21.020,N,38.930,K,A*23' 12-56-13-989
b'$GNGGA,175553.10,4005.72992,N,08814.39474,W,1,05,1.69,235.0,M,-33.2,M,,*7F' 12-56-14-013
b'$GNVTG,113.11,T,,M,20.962,N,38.822,K,A*2C' 12-56-14-039
b'$GNGGA,175553.15,4005.72979,N,08814.39440,W,1,05,1.69,235.0,M,-33.2,M,,*78' 12-56-14-063
b'$GNVTG,115.57,T,,M,20.894,N,38.696,K,A*21' 12-56-14-089
b'$GNGGA,175553.20,4005.72965,N,08814.39408,W,1,05,1.69,235.0,M,-33.2,M,,*7F' 12-56-14-113
b'$GNVTG,118.34,T,,M,20.889,N,38.686,K,A*24' 12-56-14-139
b'$GNGGA,175553.25,4005.72950,N,08814.39376,W,1,05,1.69,235.0,M,-33.2,M,,*72' 12-56-14-163
b'$GNVTG,120.91,T,,M,20.865,N,38.642,K,A*2A' 12-56-14-189
b'$GNGGA,175553.30,4005.72934,N,08814.39344,W,1,05,1.69,235.0,M,-33.2,M,,*75' 12-56-14-212
b'$GNVTG,123.12,T,,M,20.638,N,38.221,K,A*25' 12-56-14-239
b'$GNGGA,175553.35,4005.72918,N,08814.39315,W,1,05,1.69,235.0,M,-33.2,M,,*7A' 12-56-14-263
b'$GNVTG,125.64,T,,M,20.337,N,37.664,K,A*22' 12-56-14-289
b'$GNGGA,175553.40,4005.72900,N,08814.39286,W,1,05,1.69,235.0,M,-33.2,M,,*7A' 12-56-14-313
b'$GNVTG,127.40,T,,M,20.198,N,37.408,K,A*29' 12-56-14-339
b'$GNGGA,175553.45,4005.72883,N,08814.39258,W,1,05,1.69,235.0,M,-33.2,M,,*76' 12-56-14-362
b'$GNVTG,129.09,T,,M,20.451,N,37.875,K,A*2C' 12-56-14-389
b'$GNGGA,175553.50,4005.72864,N,08814.39230,W,1,05,1.69,235.1,M,-33.2,M,,*74' 12-56-14-413
b'$GNVTG,131.51,T,,M,20.666,N,38.273,K,A*2D' 12-56-14-439
b'$GNGGA,175553.55,4005.72844,N,08814.39203,W,1,05,1.69,235.1,M,-33.2,M,,*73' 12-56-14-463
b'$GNVTG,133.18,T,,M,20.644,N,38.233,K,A*26' 12-56-14-489
b'$GNGGA,175553.60,4005.72824,N,08814.39177,W,1,05,1.69,235.1,M,-33.2,M,,*73' 12-56-14-512
b'$GNVTG,134.79,T,,M,20.795,N,38.512,K,A*2F' 12-56-14-539
b'$GNGGA,175553.65,4005.72803,N,08814.39151,W,1,05,1.69,235.0,M,-33.2,M,,*76' 12-56-14-563
b'$GNVTG,136.86,T,,M,21.078,N,39.037,K,A*2B' 12-56-14-589
b'$GNGGA,175553.70,4005.72780,N,08814.39126,W,1,05,1.69,235.0,M,-33.2,M,,*76' 12-56-14-612
b'$GNVTG,138.73,T,,M,21.004,N,38.899,K,A*29' 12-56-14-638
b'$GNGGA,175553.75,4005.72758,N,08814.39102,W,1,05,1.69,235.0,M,-33.2,M,,*70' 12-56-14-662
b'$GNVTG,140.53,T,,M,20.903,N,38.713,K,A*26' 12-56-14-688
b'$GNGGA,175553.80,4005.72735,N,08814.39080,W,1,05,1.69,235.0,M,-33.2,M,,*7A' 12-56-14-712
b'$GNVTG,141.78,T,,M,21.084,N,39.048,K,A*21' 12-56-14-739
b'$GNGGA,175553.85,4005.72711,N,08814.39057,W,1,05,1.69,235.0,M,-33.2,M,,*73' 12-56-14-763
b'$GNVTG,142.52,T,,M,21.332,N,39.508,K,A*25' 12-56-14-789
b'$GNGGA,175553.90,4005.72687,N,08814.39034,W,1,05,1.69,235.0,M,-33.2,M,,*7C' 12-56-14-813
b'$GNVTG,144.43,T,,M,21.532,N,39.877,K,A*20' 12-56-14-839
b'$GNGGA,175553.95,4005.72662,N,08814.39013,W,1,05,1.69,235.1,M,-33.2,M,,*76' 12-56-14-863
b'$GNVTG,146.13,T,,M,21.798,N,40.369,K,A*2F' 12-56-14-893
b'$GNGGA,175554.00,4005.72636,N,08814.38992,W,1,05,1.69,235.0,M,-33.2,M,,*7C' 12-56-14-917
b'$GNVTG,147.49,T,,M,22.099,N,40.927,K,A*24' 12-56-14-939
b'$GNGGA,175554.05,4005.72609,N,08814.38972,W,1,05,1.69,235.0,M,-33.2,M,,*7B' 12-56-14-963
b'$GNVTG,150.83,T,,M,22.375,N,41.438,K,A*27' 12-56-15-001
b'$GNGGA,175554.10,4005.72580,N,08814.38954,W,1,11,1.01,235.1,M,-33.2,M,,*73' 12-56-15-025
b'$GNVTG,152.93,T,,M,22.595,N,41.846,K,A*29' 12-56-15-047
b'$GNGGA,175554.15,4005.72552,N,08814.38936,W,1,11,1.01,235.1,M,-33.2,M,,*7D' 12-56-15-071
b'$GNVTG,155.07,T,,M,22.942,N,42.488,K,A*28' 12-56-15-099
b'$GNGGA,175554.20,4005.72522,N,08814.38917,W,1,11,1.01,235.0,M,-33.2,M,,*7E' 12-56-15-122
b'$GNVTG,156.48,T,,M,23.238,N,43.036,K,A*27' 12-56-15-145
b'$GNGGA,175554.25,4005.72492,N,08814.38898,W,1,11,1.01,235.0,M,-33.2,M,,*77' 12-56-15-168
b'$GNVTG,159.00,T,,M,23.381,N,43.302,K,A*23' 12-56-15-192
b'$GNGGA,175554.30,4005.72462,N,08814.38882,W,1,11,1.01,234.9,M,-33.2,M,,*7F' 12-56-15-216
b'$GNVTG,161.33,T,,M,23.259,N,43.075,K,A*2F' 12-56-15-242
b'$GNGGA,175554.35,4005.72431,N,08814.38867,W,1,11,1.01,234.9,M,-33.2,M,,*77' 12-56-15-267
b'$GNVTG,163.14,T,,M,23.454,N,43.438,K,A*2E' 12-56-15-292
b'$GNGGA,175554.40,4005.72400,N,08814.38853,W,1,11,1.01,234.9,M,-33.2,M,,*70' 12-56-15-316
b'$GNVTG,164.30,T,,M,23.843,N,44.158,K,A*21' 12-56-15-342
b'$GNGGA,175554.45,4005.72368,N,08814.38839,W,1,11,1.01,234.8,M,-33.2,M,,*71' 12-56-15-366
b'$GNVTG,165.58,T,,M,23.969,N,44.391,K,A*20' 12-56-15-392
b'$GNGGA,175554.50,4005.72336,N,08814.38828,W,1,11,1.01,234.7,M,-33.2,M,,*71' 12-56-15-416
b'$GNVTG,167.27,T,,M,24.120,N,44.670,K,A*22' 12-56-15-442
b'$GNGGA,175554.55,4005.72303,N,08814.38816,W,1,11,1.01,234.7,M,-33.2,M,,*7F' 12-56-15-466
b'$GNVTG,168.63,T,,M,24.486,N,45.348,K,A*2B' 12-56-15-492
b'$GNGGA,175554.60,4005.72270,N,08814.38806,W,1,11,1.01,234.7,M,-33.2,M,,*7D' 12-56-15-516
b'$GNVTG,169.46,T,,M,24.906,N,46.126,K,A*21' 12-56-15-541
b'$GNGGA,175554.65,4005.72235,N,08814.38797,W,1,11,1.01,234.6,M,-33.2,M,,*7F' 12-56-15-565
b'$GNVTG,170.59,T,,M,25.151,N,46.579,K,A*22' 12-56-15-591
b'$GNGGA,175554.70,4005.72201,N,08814.38788,W,1,11,1.01,234.6,M,-33.2,M,,*72' 12-56-15-615
b'$GNVTG,171.92,T,,M,25.312,N,46.878,K,A*2D' 12-56-15-642
b'$GNGGA,175554.75,4005.72166,N,08814.38780,W,1,11,1.01,234.5,M,-33.2,M,,*7E' 12-56-15-666
b'$GNVTG,173.73,T,,M,25.543,N,47.307,K,A*20' 12-56-15-692
b'$GNGGA,175554.80,4005.72130,N,08814.38774,W,1,11,1.01,234.5,M,-33.2,M,,*7C' 12-56-15-716
b'$GNVTG,174.03,T,,M,25.817,N,47.813,K,A*22' 12-56-15-742
b'$GNGGA,175554.85,4005.72095,N,08814.38768,W,1,11,1.01,234.5,M,-33.2,M,,*7A' 12-56-15-766
b'$GNVTG,174.55,T,,M,26.089,N,48.318,K,A*22' 12-56-15-792
b'$GNGGA,175554.90,4005.72058,N,08814.38762,W,1,11,1.01,234.5,M,-33.2,M,,*75' 12-56-15-816
b'$GNVTG,176.04,T,,M,26.375,N,48.846,K,A*24' 12-56-15-842
b'$GNGGA,175554.95,4005.72022,N,08814.38758,W,1,11,1.01,234.4,M,-33.2,M,,*75' 12-56-15-866
b'$GNVTG,177.97,T,,M,26.629,N,49.318,K,A*22' 12-56-15-896
b'$GNGGA,175555.00,4005.71985,N,08814.38755,W,1,11,1.01,234.4,M,-33.2,M,,*72' 12-56-15-920
b'$GNVTG,178.61,T,,M,26.966,N,49.940,K,A*27' 12-56-15-944
b'$GNGGA,175555.05,4005.71947,N,08814.38753,W,1,11,1.01,234.4,M,-33.2,M,,*7F' 12-56-15-967
b'$GNVTG,179.67,T,,M,27.240,N,50.449,K,A*22' 12-56-15-993
b'$GNGGA,175555.10,4005.71909,N,08814.38752,W,1,11,1.01,234.4,M,-33.2,M,,*70' 12-56-16-017
b'$GNVTG,180.77,T,,M,27.538,N,51.000,K,A*25' 12-56-16-044
b'$GNGGA,175555.15,4005.71870,N,08814.38752,W,1,11,1.01,234.4,M,-33.2,M,,*7A' 12-56-16-068
