hello
CAN logging
Accel logging
Steering logging
Cooling loop logging
b'$GNVTG,,,,,,,,,N*2E' 08-20-33-985
b'$GNGGA,,,,,,0,00,99.99,,,,,,*56' 08-20-34-007
b'$GNVTG,,,,,,,,,N*2E' 08-20-34-028
b'$GNGGA,,,,,,0,00,99.99,,,,,,*56' 08-20-34-049
b'$GNVTG,,,,,,,,,N*2E' 08-20-34-071
b'$GNGGA,,,,,,0,00,99.99,,,,,,*56' 08-20-34-093
b'$GNVTG,,,,,,,,,N*2E' 08-20-34-118
b'$GNGGA,,,,,,0,00,99.99,,,,,,*56' 08-20-34-139
b'$GNVTG,,,,,,,,,N*2E' 08-20-34-160
b'$GNGGA,,,,,,0,00,99.99,,,,,,*56' 08-20-34-181
b'$GNVTG,,,,,,,,,N*2E' 08-20-34-201
b'$GNGGA,,,,,,0,00,99.99,,,,,,*56' 08-20-34-222
b'$GNVTG,,,,,,,,,N*2E' 08-20-34-243
b'$GNGGA,,,,,,0,00,99.99,,,,,,*56' 08-20-34-264
b'$GNVTG,,,,,,,,,N*2E' 08-20-34-286
b'$GNGGA,,,,,,0,00,99.99,,,,,,*56' 08-20-34-308
b'$GNVTG,,,,,,,,,N*2E' 08-20-34-328
b'$GNGGA,,,,,,0,00,99.99,,,,,,*56' 08-20-34-350
b'$GNVTG,,,,,,,,,N*2E' 08-20-34-372
b'$GNGGA,,,,,,0,00,99.99,,,,,,*56' 08-20-34-394
b'$GNVTG,,,,,,,,,N*2E' 08-20-34-415
b'$GNGGA,,,,,,0,00,99.99,,,,,,*56' 08-20-34-438
b'$GNVTG,,,,,,,,,N*2E' 08-20-34-459
b'$GNGGA,,,,,,0,00,99.99,,,,,,*56' 08-20-34-483
b'$GNVTG,,,,,,,,,N*2E' 08-20-34-507
b'$GNGGA,,,,,,0,00,99.99,,,,,,*56' 08-20-34-533
b'$GNVTG,,,,,,,,,N*2E' 08-20-34-557
b'$GNGGA,,,,,,0,00,99.99,,,,,,*56' 08-20-34-580
b'$GNVTG,,,,,,,,,N*2E' 08-20-34-603
b'$GNGGA,,,,,,0,00,99.99,,,,,,*56' 08-20-34-627
b'$GNVTG,,,,,,,,,N*2E' 08-20-34-650
b'$GNGGA,,,,,,0,00,99.99,,,,,,*56' 08-20-34-673
b'$GNVTG,,,,,,,,,N*2E' 08-20-34-696
b'$GNGGA,,,,,,0,00,99.99,,,,,,*56' 08-20-34-719
b'$GNVTG,,,,,,,,,N*2E' 08-20-34-741
b'$GNGGA,,,,,,0,00,99.99,,,,,,*56' 08-20-34-764
b'$GNVTG,,,,,,,,,N*2E' 08-20-34-785
b'$GNGGA,,,,,,0,00,99.99,,,,,,*56' 08-20-34-806
b'$GNVTG,,,,,,,,,N*2E' 08-20-34-827
b'$GNGGA,,,,,,0,00,99.99,,,,,,*56' 08-20-34-848
b'$GNVTG,,,,,,,,,N*2E' 08-20-34-869
b'$GNGGA,,,,,,0,00,99.99,,,,,,*56' 08-20-34-890
b'$GNVTG,,,,,,,,,N*2E' 08-20-34-911
b'$GNGGA,,,,,,0,00,99.99,,,,,,*56' 08-20-34-932
b'$GNVTG,,,,,,,,,N*2E' 08-20-34-953
b'$GNGGA,,,,,,0,00,99.99,,,,,,*56' 08-20-34-974
b'$GNVTG,,,,,,,,,N*2E' 08-20-34-995
b'$GNGGA,,,,,,0,00,99.99,,,,,,*56' 08-20-35-016
b'$GNVTG,,,,,,,,,N*2E' 08-20-35-038
b'$GNGGA,,,,,,0,00,99.99,,,,,,*56' 08-20-35-062
b'$GNVTG,,,,,,,,,N*2E' 08-20-35-085
b'$GNGGA,,,,,,0,00,99.99,,,,,,*56' 08-20-35-108
b'$GNVTG,,,,,,,,,N*2E' 08-20-35-132
b'$GNGGA,,,,,,0,00,99.99,,,,,,*56' 08-20-35-157
b'$GNVTG,,,,,,,,,N*2E' 08-20-35-179
b'$GNGGA,,,,,,0,00,99.99,,,,,,*56' 08-20-35-202
b'$GNVTG,,,,,,,,,N*2E' 08-20-35-225
b'$GNGGA,,,,,,0,00,99.99,,,,,,*56' 08-20-35-248
b'$GNVTG,,,,,,,,,N*2E' 08-20-35-271
b'$GNGGA,,,,,,0,00,99.99,,,,,,*56' 08-20-35-293
b'$GNVTG,,,,,,,,,N*2E' 08-20-35-313
b'$GNGGA,,,,,,0,00,99.99,,,,,,*56' 08-20-35-334
b'$GNVTG,,,,,,,,,N*2E' 08-20-35-355
b'$GNGGA,,,,,,0,00,99.99,,,,,,*56' 08-20-35-377
b'$GNVTG,,,,,,,,,N*2E' 08-20-35-397
b'$GNGGA,,,,,,0,00,99.99,,,,,,*56' 08-20-35-418
b'$GNVTG,,,,,,,,,N*2E' 08-20-35-439
b'$GNGGA,,,,,,0,00,99.99,,,,,,*56' 08-20-35-460
b'$GNVTG,,,,,,,,,N*2E' 08-20-35-481
b'$GNGGA,,,,,,0,00,99.99,,,,,,*56' 08-20-35-503
b'$GNVTG,,,,,,,,,N*2E' 08-20-35-523
b'$GNGGA,,,,,,0,00,99.99,,,,,,*56' 08-20-35-547
b'$GNVTG,,,,,,,,,N*2E' 08-20-35-571
b'$GNGGA,,,,,,0,00,99.99,,,,,,*56' 08-20-35-593
b'$GNVTG,,,,,,,,,N*2E' 08-20-35-615
b'$GNGGA,,,,,,0,00,99.99,,,,,,*56' 08-20-35-636
b'$GNVTG,,,,,,,,,N*2E' 08-20-35-657
b'$GNGGA,,,,,,0,00,99.99,,,,,,*56' 08-20-35-679
b'$GNVTG,,,,,,,,,N*2E' 08-20-35-701
b'$GNGGA,,,,,,0,00,99.99,,,,,,*56' 08-20-35-722
b'$GNVTG,,,,,,,,,N*2E' 08-20-35-744
b'$GNGGA,,,,,,0,00,99.99,,,,,,*56' 08-20-35-765
b'$GNVTG,,,,,,,,,N*2E' 08-20-35-786
b'$GNGGA,012008.49,,,,,0,00,99.99,,,,,,*7E' 08-20-35-808
b'$GNVTG,,,,,,,,,N*2E' 08-20-35-830
b'$GNGGA,012008.54,,,,,0,00,99.99,,,,,,*72' 08-20-35-852
b'$GNVTG,,,,,,,,,N*2E' 08-20-35-873
b'$GNGGA,012008.59,,,,,0,00,99.99,,,,,,*7F' 08-20-35-895
b'$GNVTG,,,,,,,,,N*2E' 08-20-35-916
b'$GNGGA,012008.64,,,,,0,00,99.99,,,,,,*71' 08-20-35-940
b'$GNVTG,,,,,,,,,N*2E' 08-20-35-962
b'$GNGGA,012008.69,,,,,0,00,99.99,,,,,,*7C' 08-20-35-984
b'$GNVTG,,,,,,,,,N*2E' 08-20-36-005
b'$GNGGA,012008.75,,,,,0,00,99.99,,,,,,*71' 08-20-36-027
b'$GNVTG,,,,,,,,,N*2E' 08-20-36-048
b'$GNGGA,012008.80,,,,,0,00,99.99,,,,,,*7B' 08-20-36-070
b'$GNVTG,,,,,,,,,N*2E' 08-20-36-092
b'$GNGGA,012008.85,,,,,0,00,99.99,,,,,,*7E' 08-20-36-114
b'$GNVTG,,,,,,,,,N*2E' 08-20-36-135
b'$GNGGA,012008.90,,,,,0,00,99.99,,,,,,*7A' 08-20-36-158
b'$GNVTG,,,,,,,,,N*2E' 08-20-36-179
b'$GNGGA,012008.95,,,,,0,00,99.99,,,,,,*7F' 08-20-36-201
b'$GNVTG,,,,,,,,,N*2E' 08-20-36-223
b'$GNGGA,012009.00,,,,,0,00,99.99,,,,,,*72' 08-20-36-244
b'$GNVTG,,,,,,,,,N*2E' 08-20-36-265
b'$GNGGA,012009.05,,,,,0,00,99.99,,,,,,*77' 08-20-36-288
b'$GNVTG,,,,,,,,,N*2E' 08-20-36-309
b'$GNGGA,012009.10,,,,,0,00,99.99,,,,,,*73' 08-20-36-331
b'$GNVTG,,,,,,,,,N*2E' 08-20-36-353
b'$GNGGA,012009.15,,,,,0,00,99.99,,,,,,*76' 08-20-36-375
b'$GNVTG,,,,,,,,,N*2E' 08-20-36-397
b'$GNGGA,012009.25,,,,,0,00,99.99,,,,,,*75' 08-20-36-419
b'$GNVTG,,,,,,,,,N*2E' 08-20-36-439
b'$GNGGA,012009.30,,,,,0,00,99.99,,,,,,*71' 08-20-36-461
b'$GNVTG,,,,,,,,,N*2E' 08-20-36-482
b'$GNGGA,012009.35,,,,,0,00,99.99,,,,,,*74' 08-20-36-504
b'$GNVTG,,,,,,,,,N*2E' 08-20-36-525
b'$GNGGA,012009.40,,,,,0,00,99.99,,,,,,*76' 08-20-36-548
b'$GNVTG,,,,,,,,,N*2E' 08-20-36-569
b'$GNGGA,012009.45,,,,,0,00,99.99,,,,,,*73' 08-20-36-591
b'$GNVTG,,,,,,,,,N*2E' 08-20-36-613
b'$GNGGA,012009.50,,,,,0,00,99.99,,,,,,*77' 08-20-36-635
b'$GNVTG,,,,,,,,,N*2E' 08-20-36-655
b'$GNGGA,012009.55,,,,,0,00,99.99,,,,,,*72' 08-20-36-676
b'$GNVTG,,,,,,,,,N*2E' 08-20-36-698
b'$GNGGA,012009.60,,,,,0,00,99.99,,,,,,*74' 08-20-36-720
b'$GNVTG,,,,,,,,,N*2E' 08-20-36-742
b'$GNGGA,012009.65,,,,,0,00,99.99,,,,,,*71' 08-20-36-764
b'$GNVTG,,,,,,,,,N*2E' 08-20-36-785
b'$GNGGA,012009.70,,,,,0,00,99.99,,,,,,*75' 08-20-36-808
b'$GNVTG,,,,,,,,,N*2E' 08-20-36-828
b'$GNGGA,012009.75,,,,,0,00,99.99,,,,,,*70' 08-20-36-851
b'$GNVTG,,,,,,,,,N*2E' 08-20-36-872
b'$GNGGA,012009.80,,,,,0,00,99.99,,,,,,*7A' 08-20-36-893
b'$GNVTG,,,,,,,,,N*2E' 08-20-36-914
b'$GNGGA,012009.85,,,,,0,00,99.99,,,,,,*7F' 08-20-36-937
b'$GNVTG,,,,,,,,,N*2E' 08-20-36-958
b'$GNGGA,012009.90,,,,,0,00,99.99,,,,,,*7B' 08-20-36-980
b'$GNVTG,,,,,,,,,N*2E' 08-20-37-002
b'$GNGGA,012009.95,,,,,0,00,99.99,,,,,,*7E' 08-20-37-023
b'$GNVTG,,,,,,,,,N*2E' 08-20-37-043
b'$GNGGA,012010.00,,,,,0,00,99.99,,,,,,*7A' 08-20-37-066
b'$GNVTG,,,,,,,,,N*2E' 08-20-37-087
b'$GNGGA,012010.05,,,,,0,00,99.99,,,,,,*7F' 08-20-37-110
b'$GNVTG,,,,,,,,,N*2E' 08-20-37-131
b'$GNGGA,012010.10,,,,,0,00,99.99,,,,,,*7B' 08-20-37-153
b'$GNVTG,,,,,,,,,N*2E' 08-20-37-175
b'$GNVTG,,,,,,,,,N*2E' 08-20-37-196
b'$GNGGA,012016.00,,,,,0,00,99.99,,,,,,*7C' 08-20-37-218
b'$GNVTG,,,,,,,,,N*2E' 08-20-37-240
b'$GNGGA,012016.05,,,,,0,00,99.99,,,,,,*79' 08-20-37-261
b'$GNVTG,,,,,,,,,N*2E' 08-20-37-283
b'$GNGGA,012016.10,,,,,0,00,99.99,,,,,,*7D' 08-20-37-305
b'$GNVTG,,,,,,,,,N*2E' 08-20-37-325
b'$GNGGA,012016.15,,,,,0,00,99.99,,,,,,*78' 08-20-37-346
b'$GNVTG,,,,,,,,,N*2E' 08-20-37-368
b'$GNGGA,012016.20,,,,,0,00,99.99,,,,,,*7E' 08-20-37-391
b'$GNVTG,,,,,,,,,N*2E' 08-20-37-411
b'$GNGGA,012016.25,,,,,0,00,99.99,,,,,,*7B' 08-20-37-434
b'$GNVTG,,,,,,,,,N*2E' 08-20-37-455
b'$GNGGA,012016.30,,,,,0,00,99.99,,,,,,*7F' 08-20-37-477
b'$GNVTG,,,,,,,,,N*2E' 08-20-37-499
b'$GNGGA,012016.35,,,,,0,00,99.99,,,,,,*7A' 08-20-37-520
b'$GNVTG,,,,,,,,,N*2E' 08-20-37-542
b'$GNGGA,012016.40,,,,,0,00,99.99,,,,,,*78' 08-20-37-564
b'$GNVTG,,,,,,,,,N*2E' 08-20-37-586
b'$GNGGA,012016.45,,,,,0,00,99.99,,,,,,*7D' 08-20-37-608
b'$GNVTG,,,,,,,,,N*2E' 08-20-37-633
b'$GNGGA,012016.50,,,,,0,00,99.99,,,,,,*79' 08-20-37-655
b'$GNVTG,,,,,,,,,N*2E' 08-20-37-683
b'$GNGGA,012016.55,,,,,0,00,99.99,,,,,,*7C' 08-20-37-705
b'$GNVTG,,,,,,,,,N*2E' 08-20-37-733
b'$GNGGA,012016.60,,,,,0,00,99.99,,,,,,*7A' 08-20-37-755
b'$GNVTG,,,,,,,,,N*2E' 08-20-37-783
b'$GNGGA,012016.65,,,,,0,00,99.99,,,,,,*7F' 08-20-37-805
b'$GNVTG,,,,,,,,,N*2E' 08-20-37-833
b'$GNGGA,012016.70,,,,,0,00,99.99,,,,,,*7B' 08-20-37-855
b'$GNVTG,,,,,,,,,N*2E' 08-20-37-883
b'$GNGGA,012016.75,,,,,0,00,99.99,,,,,,*7E' 08-20-37-905
b'$GNVTG,,,,,,,,,N*2E' 08-20-37-933
b'$GNGGA,012016.80,,,,,0,00,99.99,,,,,,*74' 08-20-37-955
b'$GNVTG,,,,,,,,,N*2E' 08-20-37-983
b'$GNGGA,012016.85,,,,,0,00,99.99,,,,,,*71' 08-20-38-005
b'$GNVTG,,,,,,,,,N*2E' 08-20-38-033
b'$GNGGA,012016.90,,,,,0,00,99.99,,,,,,*75' 08-20-38-056
b'$GNVTG,,,,,,,,,N*2E' 08-20-38-087
b'$GNGGA,012016.95,,,,,0,00,99.99,,,,,,*70' 08-20-38-109
b'$GNVTG,,,,,,,,,N*2E' 08-20-38-133
b'$GNGGA,012017.00,,,,,0,00,99.99,,,,,,*7D' 08-20-38-155
b'$GNVTG,,,,,,,,,N*2E' 08-20-38-183
b'$GNGGA,012017.05,,,,,0,00,99.99,,,,,,*78' 08-20-38-210
b'$GNVTG,,,,,,,,,N*2E' 08-20-38-233
b'$GNGGA,012017.10,,,,,0,00,99.99,,,,,,*7C' 08-20-38-256
b'$GNVTG,,,,,,,,,N*2E' 08-20-38-283
b'$GNGGA,012017.15,,,,,0,00,99.99,,,,,,*79' 08-20-38-305
b'$GNVTG,,,,,,,,,N*2E' 08-20-38-333
b'$GNGGA,012017.20,,,,,0,00,99.99,,,,,,*7F' 08-20-38-355
b'$GNVTG,,,,,,,,,N*2E' 08-20-38-383
b'$GNGGA,012017.25,,,,,0,00,99.99,,,,,,*7A' 08-20-38-406
b'$GNVTG,,,,,,,,,N*2E' 08-20-38-433
b'$GNGGA,012017.30,,,,,0,00,99.99,,,,,,*7E' 08-20-38-455
b'$GNVTG,,,,,,,,,N*2E' 08-20-38-483
b'$GNGGA,012017.35,,,,,0,00,99.99,,,,,,*7B' 08-20-38-506
b'$GNVTG,,,,,,,,,N*2E' 08-20-38-533
b'$GNGGA,012017.40,,,,,0,00,99.99,,,,,,*79' 08-20-38-555
b'$GNVTG,,,,,,,,,N*2E' 08-20-38-583
b'$GNGGA,012017.45,,,,,0,00,99.99,,,,,,*7C' 08-20-38-606
b'$GNVTG,,,,,,,,,N*2E' 08-20-38-633
b'$GNGGA,012017.50,,,,,0,00,99.99,,,,,,*78' 08-20-38-654
b'$GNVTG,,,,,,,,,N*2E' 08-20-38-683
b'$GNGGA,012017.55,,,,,0,00,99.99,,,,,,*7D' 08-20-38-706
b'$GNVTG,,,,,,,,,N*2E' 08-20-38-733
b'$GNGGA,012017.60,,,,,0,00,99.99,,,,,,*7B' 08-20-38-755
b'$GNVTG,,,,,,,,,N*2E' 08-20-38-783
b'$GNGGA,012017.65,,,,,0,00,99.99,,,,,,*7E' 08-20-38-806
b'$GNVTG,,,,,,,,,N*2E' 08-20-38-833
b'$GNGGA,012017.70,,,,,0,00,99.99,,,,,,*7A' 08-20-38-855
b'$GNVTG,,,,,,,,,N*2E' 08-20-38-883
b'$GNGGA,012017.75,,,,,0,00,99.99,,,,,,*7F' 08-20-38-905
b'$GNVTG,,,,,,,,,N*2E' 08-20-38-933
b'$GNGGA,012017.80,,,,,0,00,99.99,,,,,,*75' 08-20-38-954
b'$GNVTG,,,,,,,,,N*2E' 08-20-38-983
b'$GNGGA,012017.85,,,,,0,00,99.99,,,,,,*70' 08-20-39-006
b'$GNVTG,,,,,,,,,N*2E' 08-20-39-033
b'$GNGGA,012017.90,,,,,0,00,99.99,,,,,,*74' 08-20-39-055
b'$GNVTG,,,,,,,,,N*2E' 08-20-39-087
b'$GNGGA,012017.95,,,,,0,00,99.99,,,,,,*71' 08-20-39-109
b'$GNVTG,,,,,,,,,N*2E' 08-20-39-133
b'$GNGGA,012018.00,,,,,0,00,99.99,,,,,,*72' 08-20-39-155
b'$GNVTG,,,,,,,,,N*2E' 08-20-39-183
b'$GNGGA,012018.05,,,,,0,00,99.99,,,,,,*77' 08-20-39-204
b'$GNVTG,,,,,,,,,N*2E' 08-20-39-233
b'$GNGGA,012018.10,,,,,0,00,99.99,,,,,,*73' 08-20-39-256
b'$GNVTG,,,,,,,,,N*2E' 08-20-39-283
b'$GNGGA,012018.15,,,,,0,00,99.99,,,,,,*76' 08-20-39-304
b'$GNVTG,,,,,,,,,N*2E' 08-20-39-333
b'$GNGGA,012018.20,,,,,0,00,99.99,,,,,,*70' 08-20-39-355
b'$GNVTG,,,,,,,,,N*2E' 08-20-39-383
b'$GNGGA,012018.25,,,,,0,00,99.99,,,,,,*75' 08-20-39-405
b'$GNVTG,,,,,,,,,N*2E' 08-20-39-433
b'$GNGGA,012018.30,,,,,0,00,99.99,,,,,,*71' 08-20-39-455
b'$GNVTG,,,,,,,,,N*2E' 08-20-39-483
b'$GNGGA,012018.35,,,,,0,00,99.99,,,,,,*74' 08-20-39-504
b'$GNVTG,,,,,,,,,N*2E' 08-20-39-533
b'$GNGGA,012018.40,,,,,0,00,99.99,,,,,,*76' 08-20-39-555
b'$GNVTG,,,,,,,,,N*2E' 08-20-39-583
b'$GNGGA,012018.45,,,,,0,00,99.99,,,,,,*73' 08-20-39-605
b'$GNVTG,,,,,,,,,N*2E' 08-20-39-633
b'$GNGGA,012018.50,,,,,0,00,99.99,,,,,,*77' 08-20-39-655
b'$GNVTG,,,,,,,,,N*2E' 08-20-39-683
b'$GNGGA,012018.55,,,,,0,00,99.99,,,,,,*72' 08-20-39-705
b'$GNVTG,,,,,,,,,N*2E' 08-20-39-733
b'$GNGGA,012018.60,,,,,0,00,99.99,,,,,,*74' 08-20-39-755
b'$GNVTG,,,,,,,,,N*2E' 08-20-39-783
b'$GNGGA,012018.65,,,,,0,00,99.99,,,,,,*71' 08-20-39-805
b'$GNVTG,,,,,,,,,N*2E' 08-20-39-833
b'$GNGGA,012018.70,,,,,0,00,99.99,,,,,,*75' 08-20-39-855
b'$GNVTG,,,,,,,,,N*2E' 08-20-39-883
b'$GNGGA,012018.75,,,,,0,00,99.99,,,,,,*70' 08-20-39-905
b'$GNVTG,,,,,,,,,N*2E' 08-20-39-933
b'$GNGGA,012018.80,,,,,0,00,99.99,,,,,,*7A' 08-20-39-956
b'$GNVTG,,,,,,,,,N*2E' 08-20-39-983
b'$GNGGA,012018.85,,,,,0,00,99.99,,,,,,*7F' 08-20-40-005
b'$GNVTG,,,,,,,,,N*2E' 08-20-40-033
b'$GNGGA,012018.90,,,,,0,00,99.99,,,,,,*7B' 08-20-40-056
b'$GNVTG,,,,,,,,,N*2E' 08-20-40-086
b'$GNGGA,012018.95,,,,,0,00,99.99,,,,,,*7E' 08-20-40-109
b'$GNVTG,,,,,,,,,N*2E' 08-20-40-134
b'$GNGGA,012019.00,,,,,0,00,99.99,,,,,,*73' 08-20-40-156
b'$GNVTG,,,,,,,,,N*2E' 08-20-40-183
b'$GNGGA,012019.05,,,,,0,00,99.99,,,,,,*76' 08-20-40-205
b'$GNVTG,,,,,,,,,N*2E' 08-20-40-233
b'$GNGGA,012019.10,,,,,0,00,99.99,,,,,,*72' 08-20-40-255
b'$GNVTG,,,,,,,,,N*2E' 08-20-40-283
b'$GNGGA,012019.15,,,,,0,00,99.99,,,,,,*77' 08-20-40-305
b'$GNVTG,,,,,,,,,N*2E' 08-20-40-333
b'$GNGGA,012019.20,,,,,0,00,99.99,,,,,,*71' 08-20-40-355
b'$GNVTG,,,,,,,,,N*2E' 08-20-40-383
b'$GNGGA,012019.25,,,,,0,00,99.99,,,,,,*74' 08-20-40-405
b'$GNVTG,,,,,,,,,N*2E' 08-20-40-434
b'$GNGGA,012019.30,,,,,0,00,99.99,,,,,,*70' 08-20-40-456
b'$GNVTG,,,,,,,,,N*2E' 08-20-40-483
b'$GNGGA,012019.35,,,,,0,00,99.99,,,,,,*75' 08-20-40-505
b'$GNVTG,,,,,,,,,N*2E' 08-20-40-533
b'$GNGGA,012019.40,,,,,0,00,99.99,,,,,,*77' 08-20-40-555
b'$GNVTG,,,,,,,,,N*2E' 08-20-40-583
b'$GNGGA,012019.45,,,,,0,00,99.99,,,,,,*72' 08-20-40-605
b'$GNVTG,,,,,,,,,N*2E' 08-20-40-633
b'$GNGGA,012019.50,,,,,0,00,99.99,,,,,,*76' 08-20-40-655
b'$GNVTG,,,,,,,,,N*2E' 08-20-40-683
b'$GNGGA,012019.55,,,,,0,00,99.99,,,,,,*73' 08-20-40-705
b'$GNVTG,,,,,,,,,N*2E' 08-20-40-733
b'$GNGGA,012019.60,,,,,0,00,99.99,,,,,,*75' 08-20-40-756
b'$GNVTG,,,,,,,,,N*2E' 08-20-40-783
b'$GNGGA,012019.65,,,,,0,00,99.99,,,,,,*70' 08-20-40-806
b'$GNVTG,,,,,,,,,N*2E' 08-20-40-833
b'$GNGGA,012019.70,,,,,0,00,99.99,,,,,,*74' 08-20-40-855
b'$GNVTG,,,,,,,,,N*2E' 08-20-40-883
b'$GNGGA,012019.75,,,,,0,00,99.99,,,,,,*71' 08-20-40-904
b'$GNVTG,,,,,,,,,N*2E' 08-20-40-933
b'$GNGGA,012019.80,,,,,0,00,99.99,,,,,,*7B' 08-20-40-955
b'$GNVTG,,,,,,,,,N*2E' 08-20-40-983
b'$GNGGA,012019.85,,,,,0,00,99.99,,,,,,*7E' 08-20-41-005
b'$GNVTG,,,,,,,,,N*2E' 08-20-41-033
b'$GNGGA,012019.90,,,,,0,00,99.99,,,,,,*7A' 08-20-41-056
b'$GNVTG,,,,,,,,,N*2E' 08-20-41-087
b'$GNGGA,012019.95,,,,,0,00,99.99,,,,,,*7F' 08-20-41-109
b'$GNVTG,,,,,,,,,N*2E' 08-20-41-133
b'$GNGGA,012020.00,,,,,0,00,99.99,,,,,,*79' 08-20-41-155
b'$GNVTG,,,,,,,,,N*2E' 08-20-41-183
b'$GNGGA,012020.05,,,,,0,00,99.99,,,,,,*7C' 08-20-41-206
b'$GNVTG,,,,,,,,,N*2E' 08-20-41-233
b'$GNGGA,012020.10,,,,,0,00,99.99,,,,,,*78' 08-20-41-255
b'$GNVTG,,,,,,,,,N*2E' 08-20-41-283
b'$GNGGA,012020.15,,,,,0,00,99.99,,,,,,*7D' 08-20-41-306
b'$GNVTG,,,,,,,,,N*2E' 08-20-41-333
b'$GNGGA,012020.20,,,,,0,00,99.99,,,,,,*7B' 08-20-41-355
b'$GNVTG,,,,,,,,,N*2E' 08-20-41-383
b'$GNGGA,012020.25,,,,,0,00,99.99,,,,,,*7E' 08-20-41-406
b'$GNVTG,,,,,,,,,N*2E' 08-20-41-433
b'$GNGGA,012020.30,,,,,0,00,99.99,,,,,,*7A' 08-20-41-456
b'$GNVTG,,,,,,,,,N*2E' 08-20-41-483
b'$GNGGA,012020.35,,,,,0,00,99.99,,,,,,*7F' 08-20-41-506
b'$GNVTG,,,,,,,,,N*2E' 08-20-41-533
b'$GNGGA,012020.40,,,,,0,00,99.99,,,,,,*7D' 08-20-41-556
b'$GNVTG,,,,,,,,,N*2E' 08-20-41-583
b'$GNGGA,012020.45,,,,,0,00,99.99,,,,,,*78' 08-20-41-606
b'$GNVTG,,,,,,,,,N*2E' 08-20-41-633
b'$GNGGA,012020.50,,,,,0,00,99.99,,,,,,*7C' 08-20-41-656
b'$GNVTG,,,,,,,,,N*2E' 08-20-41-683
b'$GNGGA,012020.55,,,,,0,00,99.99,,,,,,*79' 08-20-41-706
b'$GNVTG,,,,,,,,,N*2E' 08-20-41-733
b'$GNGGA,012020.60,,,,,0,00,99.99,,,,,,*7F' 08-20-41-755
b'$GNVTG,,,,,,,,,N*2E' 08-20-41-784
b'$GNGGA,012020.65,,,,,0,00,99.99,,,,,,*7A' 08-20-41-806
b'$GNVTG,,,,,,,,,N*2E' 08-20-41-833
b'$GNGGA,012020.70,,,,,0,00,99.99,,,,,,*7E' 08-20-41-856
b'$GNVTG,,,,,,,,,N*2E' 08-20-41-883
b'$GNGGA,012020.75,,,,,0,00,99.99,,,,,,*7B' 08-20-41-906
b'$GNVTG,,,,,,,,,N*2E' 08-20-41-933
b'$GNGGA,012020.80,,,,,0,00,99.99,,,,,,*71' 08-20-41-956
b'$GNVTG,,,,,,,,,N*2E' 08-20-41-983
b'$GNGGA,012020.85,,,,,0,00,99.99,,,,,,*74' 08-20-42-006
b'$GNVTG,,,,,,,,,N*2E' 08-20-42-033
b'$GNGGA,012020.90,,,,,0,00,99.99,,,,,,*70' 08-20-42-056
b'$GNVTG,,,,,,,,,N*2E' 08-20-42-087
b'$GNGGA,012020.95,,,,,0,00,99.99,,,,,,*75' 08-20-42-109
b'$GNVTG,,,,,,,,,N*2E' 08-20-42-133
b'$GNGGA,012021.00,,,,,0,00,99.99,,,,,,*78' 08-20-42-155
b'$GNVTG,,,,,,,,,N*2E' 08-20-42-183
b'$GNGGA,012021.05,,,,,0,00,99.99,,,,,,*7D' 08-20-42-206
b'$GNVTG,,,,,,,,,N*2E' 08-20-42-233
b'$GNGGA,012021.10,,,,,0,00,99.99,,,,,,*79' 08-20-42-256
b'$GNVTG,,,,,,,,,N*2E' 08-20-42-283
b'$GNGGA,012021.15,,,,,0,00,99.99,,,,,,*7C' 08-20-42-306
b'$GNVTG,,,,,,,,,N*2E' 08-20-42-333
b'$GNGGA,012021.20,,,,,0,00,99.99,,,,,,*7A' 08-20-42-356
b'$GNVTG,,,,,,,,,N*2E' 08-20-42-384
b'$GNGGA,012021.25,,,,,0,00,99.99,,,,,,*7F' 08-20-42-406
b'$GNVTG,,,,,,,,,N*2E' 08-20-42-433
b'$GNGGA,012021.30,,,,,0,00,99.99,,,,,,*7B' 08-20-42-456
b'$GNVTG,,,,,,,,,N*2E' 08-20-42-483
b'$GNGGA,012021.35,,,,,0,00,99.99,,,,,,*7E' 08-20-42-506
b'$GNVTG,,,,,,,,,N*2E' 08-20-42-533
b'$GNGGA,012021.40,,,,,0,00,99.99,,,,,,*7C' 08-20-42-556
b'$GNVTG,,,,,,,,,N*2E' 08-20-42-583
b'$GNGGA,012021.45,,,,,0,00,99.99,,,,,,*79' 08-20-42-606
b'$GNVTG,,,,,,,,,N*2E' 08-20-42-633
b'$GNGGA,012021.50,,,,,0,00,99.99,,,,,,*7D' 08-20-42-655
b'$GNVTG,,,,,,,,,N*2E' 08-20-42-683
b'$GNGGA,012021.55,,,,,0,00,99.99,,,,,,*78' 08-20-42-706
b'$GNVTG,,,,,,,,,N*2E' 08-20-42-733
b'$GNGGA,012021.60,,,,,0,00,99.99,,,,,,*7E' 08-20-42-756
b'$GNVTG,,,,,,,,,N*2E' 08-20-42-783
b'$GNGGA,012021.65,,,,,0,00,99.99,,,,,,*7B' 08-20-42-805
b'$GNVTG,,,,,,,,,N*2E' 08-20-42-834
b'$GNGGA,012021.70,,,,,0,00,99.99,,,,,,*7F' 08-20-42-856
b'$GNVTG,,,,,,,,,N*2E' 08-20-42-883
b'$GNGGA,012021.75,,,,,0,00,99.99,,,,,,*7A' 08-20-42-905
b'$GNVTG,,,,,,,,,N*2E' 08-20-42-933
b'$GNGGA,012021.80,,,,,0,00,99.99,,,,,,*70' 08-20-42-955
b'$GNVTG,,,,,,,,,N*2E' 08-20-42-983
b'$GNGGA,012021.85,,,,,0,00,99.99,,,,,,*75' 08-20-43-006
b'$GNVTG,,,,,,,,,N*2E' 08-20-43-033
b'$GNGGA,012021.90,,,,,0,00,99.99,,,,,,*71' 08-20-43-055
b'$GNVTG,,,,,,,,,N*2E' 08-20-43-087
b'$GNGGA,012021.95,,,,,0,00,99.99,,,,,,*74' 08-20-43-108
b'$GNVTG,,,,,,,,,N*2E' 08-20-43-134
b'$GNGGA,012022.00,,,,,0,00,99.99,,,,,,*7B' 08-20-43-156
b'$GNVTG,,,,,,,,,N*2E' 08-20-43-183
b'$GNGGA,012022.05,,,,,0,00,99.99,,,,,,*7E' 08-20-43-206
b'$GNVTG,,,,,,,,,N*2E' 08-20-43-233
b'$GNGGA,012022.10,,,,,0,00,99.99,,,,,,*7A' 08-20-43-256
b'$GNVTG,,,,,,,,,N*2E' 08-20-43-283
b'$GNGGA,012022.15,,,,,0,00,99.99,,,,,,*7F' 08-20-43-306
b'$GNVTG,,,,,,,,,N*2E' 08-20-43-333
b'$GNGGA,012022.20,,,,,0,00,99.99,,,,,,*79' 08-20-43-355
b'$GNVTG,,,,,,,,,N*2E' 08-20-43-383
b'$GNGGA,012022.25,,,,,0,00,99.99,,,,,,*7C' 08-20-43-405
b'$GNVTG,,,,,,,,,N*2E' 08-20-43-434
b'$GNGGA,012022.30,,,,,0,00,99.99,,,,,,*78' 08-20-43-456
b'$GNVTG,,,,,,,,,N*2E' 08-20-43-483
b'$GNGGA,012022.35,,,,,0,00,99.99,,,,,,*7D' 08-20-43-506
b'$GNVTG,,,,,,,,,N*2E' 08-20-43-533
b'$GNGGA,012022.40,,,,,0,00,99.99,,,,,,*7F' 08-20-43-556
b'$GNVTG,,,,,,,,,N*2E' 08-20-43-583
b'$GNGGA,012022.45,,,,,0,00,99.99,,,,,,*7A' 08-20-43-605
b'$GNVTG,,,,,,,,,N*2E' 08-20-43-633
b'$GNGGA,012022.50,,,,,0,00,99.99,,,,,,*7E' 08-20-43-656
b'$GNVTG,,,,,,,,,N*2E' 08-20-43-683
b'$GNGGA,012022.55,,,,,0,00,99.99,,,,,,*7B' 08-20-43-705
b'$GNVTG,,,,,,,,,N*2E' 08-20-43-733
b'$GNGGA,012022.60,,,,,0,00,99.99,,,,,,*7D' 08-20-43-756
b'$GNVTG,,,,,,,,,N*2E' 08-20-43-783
b'$GNGGA,012022.65,,,,,0,00,99.99,,,,,,*78' 08-20-43-806
b'$GNVTG,,,,,,,,,N*2E' 08-20-43-834
b'$GNGGA,012022.70,,,,,0,00,99.99,,,,,,*7C' 08-20-43-855
b'$GNVTG,,,,,,,,,N*2E' 08-20-43-883
b'$GNGGA,012022.75,,,,,0,00,99.99,,,,,,*79' 08-20-43-905
b'$GNVTG,,,,,,,,,N*2E' 08-20-43-933
b'$GNGGA,012022.80,,,,,0,00,99.99,,,,,,*73' 08-20-43-956
b'$GNVTG,,,,,,,,,N*2E' 08-20-43-983
b'$GNGGA,012022.85,,,,,0,00,99.99,,,,,,*76' 08-20-44-006
b'$GNVTG,,,,,,,,,N*2E' 08-20-44-034
b'$GNGGA,012022.90,,,,,0,00,99.99,,,,,,*72' 08-20-44-056
b'$GNVTG,,,,,,,,,N*2E' 08-20-44-087
b'$GNGGA,012022.95,,,,,0,00,99.99,,,,,,*77' 08-20-44-109
b'$GNVTG,,,,,,,,,N*2E' 08-20-44-134
b'$GNGGA,012023.00,,,,,0,00,99.99,,,,,,*7A' 08-20-44-156
b'$GNVTG,,,,,,,,,N*2E' 08-20-44-183
b'$GNGGA,012023.05,,,,,0,00,99.99,,,,,,*7F' 08-20-44-206
b'$GNVTG,,,,,,,,,N*2E' 08-20-44-233
b'$GNGGA,012023.10,,,,,0,00,99.99,,,,,,*7B' 08-20-44-256
b'$GNVTG,,,,,,,,,N*2E' 08-20-44-284
b'$GNGGA,012023.15,,,,,0,00,99.99,,,,,,*7E' 08-20-44-306
b'$GNVTG,,,,,,,,,N*2E' 08-20-44-334
b'$GNGGA,012023.20,,,,,0,00,99.99,,,,,,*78' 08-20-44-356
b'$GNVTG,,,,,,,,,N*2E' 08-20-44-384
b'$GNGGA,012023.25,,,,,0,00,99.99,,,,,,*7D' 08-20-44-405
b'$GNVTG,,,,,,,,,N*2E' 08-20-44-433
b'$GNGGA,012023.30,,,,,0,00,99.99,,,,,,*79' 08-20-44-456
b'$GNVTG,,,,,,,,,N*2E' 08-20-44-484
b'$GNGGA,012023.35,,,,,0,00,99.99,,,,,,*7C' 08-20-44-506
b'$GNVTG,,,,,,,,,N*2E' 08-20-44-533
b'$GNGGA,012023.40,,,,,0,00,99.99,,,,,,*7E' 08-20-44-556
b'$GNVTG,,,,,,,,,N*2E' 08-20-44-583
b'$GNGGA,012023.45,,,,,0,00,99.99,,,,,,*7B' 08-20-44-606
b'$GNVTG,,,,,,,,,N*2E' 08-20-44-633
b'$GNGGA,012023.50,,,,,0,00,99.99,,,,,,*7F' 08-20-44-656
b'$GNVTG,,,,,,,,,N*2E' 08-20-44-684
b'$GNGGA,012023.55,,,,,0,00,99.99,,,,,,*7A' 08-20-44-706
b'$GNVTG,,,,,,,,,N*2E' 08-20-44-733
b'$GNGGA,012023.60,,,,,0,00,99.99,,,,,,*7C' 08-20-44-756
b'$GNVTG,,,,,,,,,N*2E' 08-20-44-784
b'$GNGGA,012023.65,,,,,0,00,99.99,,,,,,*79' 08-20-44-806
b'$GNVTG,,,,,,,,,N*2E' 08-20-44-833
b'$GNGGA,012023.70,,,,,0,00,99.99,,,,,,*7D' 08-20-44-855
b'$GNVTG,,,,,,,,,N*2E' 08-20-44-883
b'$GNGGA,012023.75,,,,,0,00,99.99,,,,,,*78' 08-20-44-905
b'$GNVTG,,,,,,,,,N*2E' 08-20-44-933
b'$GNGGA,012023.80,,,,,0,00,99.99,,,,,,*72' 08-20-44-956
b'$GNVTG,,,,,,,,,N*2E' 08-20-44-983
b'$GNGGA,012023.85,,,,,0,00,99.99,,,,,,*77' 08-20-45-006
b'$GNVTG,,,,,,,,,N*2E' 08-20-45-033
b'$GNGGA,012023.90,,,,,0,00,99.99,,,,,,*73' 08-20-45-055
b'$GNVTG,,,,,,,,,N*2E' 08-20-45-087
b'$GNGGA,012023.95,,,,,0,00,99.99,,,,,,*76' 08-20-45-108
b'$GNVTG,,,,,,,,,N*2E' 08-20-45-134
b'$GNGGA,012024.00,,,,,0,00,99.99,,,,,,*7D' 08-20-45-156
b'$GNVTG,,,,,,,,,N*2E' 08-20-45-183
b'$GNGGA,012024.05,,,,,0,00,99.99,,,,,,*78' 08-20-45-205
b'$GNVTG,,,,,,,,,N*2E' 08-20-45-234
b'$GNGGA,012024.10,,,,,0,00,99.99,,,,,,*7C' 08-20-45-256
b'$GNVTG,,,,,,,,,N*2E' 08-20-45-283
b'$GNGGA,012024.15,,,,,0,00,99.99,,,,,,*79' 08-20-45-305
b'$GNVTG,,,,,,,,,N*2E' 08-20-45-334
b'$GNGGA,012024.20,,,,,0,00,99.99,,,,,,*7F' 08-20-45-356
b'$GNGGA,012024.25,,,,,0,00,99.99,,,,,,*7A' 08-20-45-384
b'$GNVTG,,,,,,,,,N*2E' 08-20-45-434
b'$GNGGA,012024.30,,,,,0,00,99.99,,,,,,*7E' 08-20-45-456
b'$GNVTG,,,,,,,,,N*2E' 08-20-45-483
b'$GNGGA,012024.35,,,,,0,00,99.99,,,,,,*7B' 08-20-45-506
b'$GNVTG,,,,,,,,,N*2E' 08-20-45-534
b'$GNGGA,012024.40,,,,,0,00,99.99,,,,,,*79' 08-20-45-556
b'$GNVTG,,,,,,,,,N*2E' 08-20-45-584
b'$GNGGA,012024.45,,,,,0,00,99.99,,,,,,*7C' 08-20-45-606
b'$GNVTG,,,,,,,,,N*2E' 08-20-45-634
b'$GNGGA,012024.50,,,,,0,00,99.99,,,,,,*78' 08-20-45-656
b'$GNVTG,,,,,,,,,N*2E' 08-20-45-684
b'$GNGGA,012024.55,,,,,0,00,99.99,,,,,,*7D' 08-20-45-706
b'$GNVTG,,,,,,,,,N*2E' 08-20-45-733
b'$GNGGA,012024.60,,,,,0,00,99.99,,,,,,*7B' 08-20-45-755
b'$GNVTG,,,,,,,,,N*2E' 08-20-45-783
b'$GNGGA,012024.65,,,,,0,00,99.99,,,,,,*7E' 08-20-45-805
b'$GNVTG,,,,,,,,,N*2E' 08-20-45-834
b'$GNGGA,012024.70,,,,,0,00,99.99,,,,,,*7A' 08-20-45-856
b'$GNVTG,,,,,,,,,N*2E' 08-20-45-883
b'$GNGGA,012024.75,,,,,0,00,99.99,,,,,,*7F' 08-20-45-906
b'$GNVTG,,,,,,,,,N*2E' 08-20-45-934
b'$GNGGA,012024.80,,,,,0,00,99.99,,,,,,*75' 08-20-45-955
b'$GNVTG,,,,,,,,,N*2E' 08-20-45-984
b'$GNGGA,012024.85,,,,,0,00,99.99,,,,,,*70' 08-20-46-006
b'$GNVTG,,,,,,,,,N*2E' 08-20-46-033
b'$GNGGA,012024.90,,,,,0,00,99.99,,,,,,*74' 08-20-46-056
b'$GNVTG,,,,,,,,,N*2E' 08-20-46-087
b'$GNGGA,012024.95,,,,,0,00,99.99,,,,,,*71' 08-20-46-109
b'$GNVTG,,,,,,,,,N*2E' 08-20-46-134
b'$GNGGA,012025.00,,,,,0,00,99.99,,,,,,*7C' 08-20-46-156
b'$GNVTG,,,,,,,,,N*2E' 08-20-46-183
b'$GNGGA,012025.05,,,,,0,00,99.99,,,,,,*79' 08-20-46-206
b'$GNVTG,,,,,,,,,N*2E' 08-20-46-234
b'$GNGGA,012025.10,,,,,0,00,99.99,,,,,,*7D' 08-20-46-256
b'$GNVTG,,,,,,,,,N*2E' 08-20-46-284
b'$GNGGA,012025.15,,,,,0,00,99.99,,,,,,*78' 08-20-46-306
b'$GNVTG,,,,,,,,,N*2E' 08-20-46-334
b'$GNGGA,012025.20,,,,,0,00,99.99,,,,,,*7E' 08-20-46-356
b'$GNVTG,,,,,,,,,N*2E' 08-20-46-383
b'$GNGGA,012025.25,,,,,0,00,99.99,,,,,,*7B' 08-20-46-405
b'$GNVTG,,,,,,,,,N*2E' 08-20-46-434
b'$GNGGA,012025.30,,,,,0,00,99.99,,,,,,*7F' 08-20-46-456
b'$GNVTG,,,,,,,,,N*2E' 08-20-46-483
b'$GNGGA,012025.35,,,,,0,00,99.99,,,,,,*7A' 08-20-46-506
b'$GNVTG,,,,,,,,,N*2E' 08-20-46-534
b'$GNGGA,012025.40,,,,,0,00,99.99,,,,,,*78' 08-20-46-556
b'$GNVTG,,,,,,,,,N*2E' 08-20-46-584
b'$GNGGA,012025.45,,,,,0,00,99.99,,,,,,*7D' 08-20-46-606
b'$GNVTG,,,,,,,,,N*2E' 08-20-46-634
b'$GNGGA,012025.50,,,,,0,00,99.99,,,,,,*79' 08-20-46-656
b'$GNVTG,,,,,,,,,N*2E' 08-20-46-683
b'$GNGGA,012025.55,,,,,0,00,99.99,,,,,,*7C' 08-20-46-705
b'$GNVTG,,,,,,,,,N*2E' 08-20-46-734
b'$GNGGA,012025.60,,,,,0,00,99.99,,,,,,*7A' 08-20-46-756
b'$GNVTG,,,,,,,,,N*2E' 08-20-46-783
b'$GNGGA,012025.65,,,,,0,00,99.99,,,,,,*7F' 08-20-46-806
b'$GNVTG,,,,,,,,,N*2E' 08-20-46-834
b'$GNGGA,012025.70,,,,,0,00,99.99,,,,,,*7B' 08-20-46-856
b'$GNVTG,,,,,,,,,N*2E' 08-20-46-883
b'$GNGGA,012025.75,,,,,0,00,99.99,,,,,,*7E' 08-20-46-906
b'$GNVTG,,,,,,,,,N*2E' 08-20-46-934
b'$GNGGA,012025.80,,,,,0,00,99.99,,,,,,*74' 08-20-46-958
b'$GNVTG,,,,,,,,,N*2E' 08-20-46-983
b'$GNGGA,012025.85,,,,,0,00,99.99,,,,,,*71' 08-20-47-005
b'$GNVTG,,,,,,,,,N*2E' 08-20-47-035
b'$GNGGA,012025.90,,,,,0,00,99.99,,,,,,*75' 08-20-47-057
b'$GNVTG,,,,,,,,,N*2E' 08-20-47-087
b'$GNGGA,012025.95,,,,,0,00,99.99,,,,,,*70' 08-20-47-109
b'$GNVTG,,,,,,,,,N*2E' 08-20-47-134
b'$GNGGA,012026.00,,,,,0,00,99.99,,,,,,*7F' 08-20-47-156
b'$GNVTG,,,,,,,,,N*2E' 08-20-47-184
b'$GNGGA,012026.05,,,,,0,00,99.99,,,,,,*7A' 08-20-47-205
b'$GNVTG,,,,,,,,,N*2E' 08-20-47-234
b'$GNGGA,012026.10,,,,,0,00,99.99,,,,,,*7E' 08-20-47-256
b'$GNVTG,,,,,,,,,N*2E' 08-20-47-283
b'$GNGGA,012026.15,,,,,0,00,99.99,,,,,,*7B' 08-20-47-305
b'$GNVTG,,,,,,,,,N*2E' 08-20-47-334
b'$GNGGA,012026.20,,,,,0,00,99.99,,,,,,*7D' 08-20-47-357
b'$GNVTG,,,,,,,,,N*2E' 08-20-47-383
b'$GNGGA,012026.25,,,,,0,00,99.99,,,,,,*78' 08-20-47-406
b'$GNVTG,,,,,,,,,N*2E' 08-20-47-434
b'$GNGGA,012026.30,,,,,0,00,99.99,,,,,,*7C' 08-20-47-456
b'$GNVTG,,,,,,,,,N*2E' 08-20-47-484
b'$GNGGA,012026.35,,,,,0,00,99.99,,,,,,*79' 08-20-47-506
b'$GNVTG,,,,,,,,,N*2E' 08-20-47-534
b'$GNGGA,012026.40,,,,,0,00,99.99,,,,,,*7B' 08-20-47-556
b'$GNVTG,,,,,,,,,N*2E' 08-20-47-584
b'$GNGGA,012026.45,,,,,0,00,99.99,,,,,,*7E' 08-20-47-606
b'$GNVTG,,,,,,,,,N*2E' 08-20-47-634
b'$GNGGA,012026.50,,,,,0,00,99.99,,,,,,*7A' 08-20-47-656
b'$GNVTG,,,,,,,,,N*2E' 08-20-47-684
b'$GNGGA,012026.55,,,,,0,00,99.99,,,,,,*7F' 08-20-47-706
b'$GNVTG,,,,,,,,,N*2E' 08-20-47-734
b'$GNGGA,012026.60,,,,,0,00,99.99,,,,,,*79' 08-20-47-756
b'$GNVTG,,,,,,,,,N*2E' 08-20-47-784
b'$GNGGA,012026.65,,,,,0,00,99.99,,,,,,*7C' 08-20-47-806
b'$GNVTG,,,,,,,,,N*2E' 08-20-47-834
b'$GNGGA,012026.70,,,,,0,00,99.99,,,,,,*78' 08-20-47-856
b'$GNVTG,,,,,,,,,N*2E' 08-20-47-884
b'$GNGGA,012026.75,,,,,0,00,99.99,,,,,,*7D' 08-20-47-905
b'$GNVTG,,,,,,,,,N*2E' 08-20-47-935
b'$GNGGA,012026.80,,,,,0,00,99.99,,,,,,*77' 08-20-47-957
b'$GNVTG,,,,,,,,,N*2E' 08-20-47-984
b'$GNGGA,012026.85,,,,,0,00,99.99,,,,,,*72' 08-20-48-006
b'$GNVTG,,,,,,,,,N*2E' 08-20-48-034
b'$GNGGA,012026.90,,,,,0,00,99.99,,,,,,*76' 08-20-48-056
b'$GNVTG,,,,,,,,,N*2E' 08-20-48-087
b'$GNGGA,012026.95,,,,,0,00,99.99,,,,,,*73' 08-20-48-109
b'$GNVTG,,,,,,,,,N*2E' 08-20-48-134
b'$GNGGA,012027.00,,,,,0,00,99.99,,,,,,*7E' 08-20-48-156
b'$GNVTG,,,,,,,,,N*2E' 08-20-48-184
b'$GNGGA,012027.05,,,,,0,00,99.99,,,,,,*7B' 08-20-48-206
b'$GNVTG,,,,,,,,,N*2E' 08-20-48-234
b'$GNGGA,012027.10,,,,,0,00,99.99,,,,,,*7F' 08-20-48-256
b'$GNVTG,,,,,,,,,N*2E' 08-20-48-284
b'$GNGGA,012027.15,,,,,0,00,99.99,,,,,,*7A' 08-20-48-306
b'$GNVTG,,,,,,,,,N*2E' 08-20-48-334
b'$GNGGA,012027.20,,,,,0,00,99.99,,,,,,*7C' 08-20-48-356
b'$GNVTG,,,,,,,,,N*2E' 08-20-48-384
b'$GNGGA,012027.25,,,,,0,00,99.99,,,,,,*79' 08-20-48-406
b'$GNVTG,,,,,,,,,N*2E' 08-20-48-434
b'$GNGGA,012027.30,,,,,0,00,99.99,,,,,,*7D' 08-20-48-456
b'$GNVTG,,,,,,,,,N*2E' 08-20-48-484
b'$GNGGA,012027.35,,,,,0,00,99.99,,,,,,*78' 08-20-48-506
b'$GNVTG,,,,,,,,,N*2E' 08-20-48-534
b'$GNGGA,012027.40,,,,,0,00,99.99,,,,,,*7A' 08-20-48-556
b'$GNVTG,,,,,,,,,N*2E' 08-20-48-584
b'$GNGGA,012027.45,,,,,0,00,99.99,,,,,,*7F' 08-20-48-606
b'$GNVTG,,,,,,,,,N*2E' 08-20-48-634
b'$GNGGA,012027.50,,,,,0,00,99.99,,,,,,*7B' 08-20-48-656
b'$GNVTG,,,,,,,,,N*2E' 08-20-48-684
b'$GNGGA,012027.55,,,,,0,00,99.99,,,,,,*7E' 08-20-48-705
b'$GNVTG,,,,,,,,,N*2E' 08-20-48-734
b'$GNGGA,012027.60,,,,,0,00,99.99,,,,,,*78' 08-20-48-756
b'$GNVTG,,,,,,,,,N*2E' 08-20-48-784
b'$GNGGA,012027.65,,,,,0,00,99.99,,,,,,*7D' 08-20-48-805
b'$GNVTG,,,,,,,,,N*2E' 08-20-48-834
b'$GNGGA,012027.70,,,,,0,00,99.99,,,,,,*79' 08-20-48-856
b'$GNVTG,,,,,,,,,N*2E' 08-20-48-884
b'$GNGGA,012027.75,,,,,0,00,99.99,,,,,,*7C' 08-20-48-906
b'$GNVTG,,,,,,,,,N*2E' 08-20-48-934
b'$GNGGA,012027.80,,,,,0,00,99.99,,,,,,*76' 08-20-48-956
b'$GNVTG,,,,,,,,,N*2E' 08-20-48-984
b'$GNGGA,012027.85,,,,,0,00,99.99,,,,,,*73' 08-20-49-006
b'$GNVTG,,,,,,,,,N*2E' 08-20-49-034
b'$GNGGA,012027.90,,,,,0,00,99.99,,,,,,*77' 08-20-49-056
b'$GNVTG,,,,,,,,,N*2E' 08-20-49-087
b'$GNGGA,012027.95,,,,,0,00,99.99,,,,,,*72' 08-20-49-109
b'$GNVTG,,,,,,,,,N*2E' 08-20-49-134
b'$GNGGA,012028.00,,,,,0,00,99.99,,,,,,*71' 08-20-49-156
b'$GNVTG,,,,,,,,,N*2E' 08-20-49-184
b'$GNGGA,012028.05,,,,,0,00,99.99,,,,,,*74' 08-20-49-206
b'$GNVTG,,,,,,,,,N*2E' 08-20-49-234
b'$GNGGA,012028.10,,,,,0,00,99.99,,,,,,*70' 08-20-49-256
b'$GNVTG,,,,,,,,,N*2E' 08-20-49-284
b'$GNGGA,012028.15,,,,,0,00,99.99,,,,,,*75' 08-20-49-306
b'$GNVTG,,,,,,,,,N*2E' 08-20-49-334
b'$GNGGA,012028.20,,,,,0,00,99.99,,,,,,*73' 08-20-49-356
b'$GNVTG,,,,,,,,,N*2E' 08-20-49-384
b'$GNGGA,012028.25,,,,,0,00,99.99,,,,,,*76' 08-20-49-406
b'$GNVTG,,,,,,,,,N*2E' 08-20-49-434
b'$GNGGA,012028.30,,,,,0,00,99.99,,,,,,*72' 08-20-49-456
b'$GNVTG,,,,,,,,,N*2E' 08-20-49-484
b'$GNGGA,012028.35,,,,,0,00,99.99,,,,,,*77' 08-20-49-506
b'$GNVTG,,,,,,,,,N*2E' 08-20-49-534
b'$GNGGA,012028.40,,,,,0,00,99.99,,,,,,*75' 08-20-49-556
b'$GNVTG,,,,,,,,,N*2E' 08-20-49-584
b'$GNGGA,012028.45,,,,,0,00,99.99,,,,,,*70' 08-20-49-606
b'$GNVTG,,,,,,,,,N*2E' 08-20-49-634
b'$GNGGA,012028.50,,,,,0,00,99.99,,,,,,*74' 08-20-49-656
b'$GNVTG,,,,,,,,,N*2E' 08-20-49-683
b'$GNGGA,012028.55,,,,,0,00,99.99,,,,,,*71' 08-20-49-706
b'$GNVTG,,,,,,,,,N*2E' 08-20-49-734
b'$GNGGA,012028.60,,,,,0,00,99.99,,,,,,*77' 08-20-49-756
b'$GNVTG,,,,,,,,,N*2E' 08-20-49-784
b'$GNGGA,012028.65,,,,,0,00,99.99,,,,,,*72' 08-20-49-805
b'$GNVTG,,,,,,,,,N*2E' 08-20-49-834
b'$GNGGA,012028.70,,,,,0,00,99.99,,,,,,*76' 08-20-49-856
b'$GNVTG,,,,,,,,,N*2E' 08-20-49-884
b'$GNGGA,012028.75,,,,,0,00,99.99,,,,,,*73' 08-20-49-906
b'$GNVTG,,,,,,,,,N*2E' 08-20-49-934
b'$GNGGA,012028.80,,,,,0,00,99.99,,,,,,*79' 08-20-49-956
b'$GNVTG,,,,,,,,,N*2E' 08-20-49-983
b'$GNGGA,012028.85,,,,,0,00,99.99,,,,,,*7C' 08-20-50-006
b'$GNVTG,,,,,,,,,N*2E' 08-20-50-034
b'$GNGGA,012028.90,,,,,0,00,99.99,,,,,,*78' 08-20-50-056
b'$GNVTG,,,,,,,,,N*2E' 08-20-50-087
b'$GNGGA,012028.95,,,,,0,00,99.99,,,,,,*7D' 08-20-50-109
b'$GNVTG,,,,,,,,,N*2E' 08-20-50-134
b'$GNGGA,012029.00,,,,,0,00,99.99,,,,,,*70' 08-20-50-157
b'$GNVTG,,,,,,,,,N*2E' 08-20-50-185
b'$GNGGA,012029.05,,,,,0,00,99.99,,,,,,*75' 08-20-50-207
b'$GNVTG,,,,,,,,,N*2E' 08-20-50-234
b'$GNGGA,012029.10,,,,,0,00,99.99,,,,,,*71' 08-20-50-256
b'$GNVTG,,,,,,,,,N*2E' 08-20-50-283
b'$GNGGA,012029.15,,,,,0,00,99.99,,,,,,*74' 08-20-50-306
b'$GNVTG,,,,,,,,,N*2E' 08-20-50-335
b'$GNGGA,012029.20,,,,,0,00,99.99,,,,,,*72' 08-20-50-357
b'$GNVTG,,,,,,,,,N*2E' 08-20-50-384
b'$GNGGA,012029.25,,,,,0,00,99.99,,,,,,*77' 08-20-50-406
b'$GNVTG,,,,,,,,,N*2E' 08-20-50-434
b'$GNGGA,012029.30,,,,,0,00,99.99,,,,,,*73' 08-20-50-456
b'$GNVTG,,,,,,,,,N*2E' 08-20-50-484
b'$GNGGA,012029.35,,,,,0,00,99.99,,,,,,*76' 08-20-50-506
b'$GNVTG,,,,,,,,,N*2E' 08-20-50-534
b'$GNGGA,012029.40,,,,,0,00,99.99,,,,,,*74' 08-20-50-556
b'$GNVTG,,,,,,,,,N*2E' 08-20-50-584
b'$GNGGA,012029.45,,,,,0,00,99.99,,,,,,*71' 08-20-50-606
b'$GNVTG,,,,,,,,,N*2E' 08-20-50-634
b'$GNGGA,012029.50,,,,,0,00,99.99,,,,,,*75' 08-20-50-656
b'$GNVTG,,,,,,,,,N*2E' 08-20-50-684
b'$GNGGA,012029.55,,,,,0,00,99.99,,,,,,*70' 08-20-50-706
b'$GNVTG,,,,,,,,,N*2E' 08-20-50-734
b'$GNGGA,012029.60,,,,,0,00,99.99,,,,,,*76' 08-20-50-756
b'$GNVTG,,,,,,,,,N*2E' 08-20-50-784
b'$GNGGA,012029.65,,,,,0,00,99.99,,,,,,*73' 08-20-50-806
b'$GNVTG,,,,,,,,,N*2E' 08-20-50-834
b'$GNGGA,012029.70,,,,,0,00,99.99,,,,,,*77' 08-20-50-856
b'$GNVTG,,,,,,,,,N*2E' 08-20-50-884
b'$GNGGA,012029.75,,,,,0,00,99.99,,,,,,*72' 08-20-50-906
b'$GNVTG,,,,,,,,,N*2E' 08-20-50-934
b'$GNGGA,012029.80,,,,,0,00,99.99,,,,,,*78' 08-20-50-955
b'$GNVTG,,,,,,,,,N*2E' 08-20-50-984
b'$GNGGA,012029.85,,,,,0,00,99.99,,,,,,*7D' 08-20-51-006
b'$GNVTG,,,,,,,,,N*2E' 08-20-51-034
b'$GNGGA,012029.90,,,,,0,00,99.99,,,,,,*79' 08-20-51-056
b'$GNVTG,,,,,,,,,N*2E' 08-20-51-087
b'$GNGGA,012029.95,,,,,0,00,99.99,,,,,,*7C' 08-20-51-110
b'$GNVTG,,,,,,,,,N*2E' 08-20-51-134
b'$GNGGA,012030.00,,,,,0,00,99.99,,,,,,*78' 08-20-51-156
b'$GNVTG,,,,,,,,,N*2E' 08-20-51-184
b'$GNGGA,012030.05,,,,,0,00,99.99,,,,,,*7D' 08-20-51-206
b'$GNVTG,94.27,T,,M,7.833,N,14.506,K,A*22' 08-20-51-263
b'$GNGGA,012030.10,4006.71746,N,08813.32500,W,1,05,1.81,217.8,M,-33.2,M,,*78' 08-20-51-287
b'$GNVTG,92.18,T,,M,7.843,N,14.526,K,A*2D' 08-20-51-309
b'$GNGGA,012030.15,4006.71748,N,08813.32486,W,1,05,1.81,217.8,M,-33.2,M,,*7C' 08-20-51-333
b'$GNVTG,90.98,T,,M,7.782,N,14.412,K,A*23' 08-20-51-355
b'$GNGGA,012030.20,4006.71748,N,08813.32472,W,1,05,1.81,217.8,M,-33.2,M,,*71' 08-20-51-378
b'$GNVTG,91.21,T,,M,7.768,N,14.386,K,A*2E' 08-20-51-400
b'$GNGGA,012030.25,4006.71748,N,08813.32457,W,1,05,1.81,217.8,M,-33.2,M,,*73' 08-20-51-424
b'$GNVTG,91.45,T,,M,7.873,N,14.580,K,A*29' 08-20-51-446
b'$GNGGA,012030.30,4006.71748,N,08813.32443,W,1,05,1.81,217.8,M,-33.2,M,,*72' 08-20-51-469
b'$GNVTG,92.17,T,,M,7.659,N,14.185,K,A*2A' 08-20-51-537
b'$GNGGA,012030.40,4006.71747,N,08813.32416,W,1,05,1.81,217.8,M,-33.2,M,,*7A' 08-20-51-560
b'$GNVTG,92.26,T,,M,7.598,N,14.071,K,A*2C' 08-20-51-587
b'$GNGGA,012030.45,4006.71747,N,08813.32401,W,1,05,1.81,217.8,M,-33.2,M,,*79' 08-20-51-611
b'$GNVTG,89.53,T,,M,7.962,N,14.746,K,A*2E' 08-20-51-637
b'$GNGGA,012030.50,4006.71748,N,08813.32386,W,1,05,1.81,217.8,M,-33.2,M,,*7A' 08-20-51-660
b'$GNVTG,90.29,T,,M,7.805,N,14.456,K,A*29' 08-20-51-687
b'$GNGGA,012030.55,4006.71748,N,08813.32372,W,1,05,1.81,217.8,M,-33.2,M,,*74' 08-20-51-710
b'$GNVTG,91.30,T,,M,7.739,N,14.333,K,A*24' 08-20-51-737
b'$GNGGA,012030.60,4006.71747,N,08813.32358,W,1,05,1.81,217.8,M,-33.2,M,,*75' 08-20-51-761
b'$GNVTG,91.76,T,,M,7.651,N,14.170,K,A*2C' 08-20-51-787
b'$GNGGA,012030.65,4006.71747,N,08813.32344,W,1,05,1.81,217.8,M,-33.2,M,,*7D' 08-20-51-810
b'$GNVTG,91.61,T,,M,7.761,N,14.373,K,A*29' 08-20-51-837
b'$GNGGA,012030.70,4006.71747,N,08813.32329,W,1,05,1.81,217.8,M,-33.2,M,,*72' 08-20-51-860
b'$GNVTG,91.15,T,,M,7.673,N,14.210,K,A*2C' 08-20-51-887
b'$GNGGA,012030.75,4006.71747,N,08813.32315,W,1,05,1.81,217.8,M,-33.2,M,,*78' 08-20-51-911
b'$GNVTG,90.61,T,,M,7.628,N,14.128,K,A*28' 08-20-51-937
b'$GNGGA,012030.80,4006.71747,N,08813.32301,W,1,05,1.81,217.8,M,-33.2,M,,*77' 08-20-51-960
b'$GNVTG,90.23,T,,M,7.553,N,13.987,K,A*2B' 08-20-51-987
b'$GNGGA,012030.85,4006.71747,N,08813.32288,W,1,05,1.81,217.8,M,-33.2,M,,*72' 08-20-52-010
b'$GNVTG,90.75,T,,M,7.463,N,13.821,K,A*27' 08-20-52-037
b'$GNGGA,012030.90,4006.71746,N,08813.32274,W,1,05,1.81,217.8,M,-33.2,M,,*74' 08-20-52-060
b'$GNVTG,91.19,T,,M,7.384,N,13.674,K,A*2C' 08-20-52-087
b'$GNGGA,012030.95,4006.71746,N,08813.32260,W,1,05,1.81,217.8,M,-33.2,M,,*74' 08-20-52-110
b'$GNVTG,90.71,T,,M,7.618,N,14.109,K,A*29' 08-20-52-141
b'$GNGGA,012031.00,4006.71746,N,08813.32246,W,1,05,1.81,217.8,M,-33.2,M,,*7D' 08-20-52-164
b'$GNVTG,90.62,T,,M,7.590,N,14.056,K,A*23' 08-20-52-187
b'$GNGGA,012031.05,4006.71746,N,08813.32232,W,1,05,1.81,217.8,M,-33.2,M,,*7B' 08-20-52-210
b'$GNVTG,90.14,T,,M,7.498,N,13.886,K,A*29' 08-20-52-237
b'$GNGGA,012031.10,4006.71746,N,08813.32219,W,1,05,1.81,217.8,M,-33.2,M,,*76' 08-20-52-261
b'$GNVTG,90.32,T,,M,7.380,N,13.669,K,A*2C' 08-20-52-287
b'$GNGGA,012031.15,4006.71746,N,08813.32206,W,1,05,1.81,217.8,M,-33.2,M,,*7D' 08-20-52-310
b'$GNGGA,012031.20,4006.71745,N,08813.32192,W,1,05,1.81,217.8,M,-33.2,M,,*76' 08-20-52-339
b'$GNVTG,90.80,T,,M,7.524,N,13.935,K,A*2B' 08-20-52-387
b'$GNGGA,012031.25,4006.71745,N,08813.32178,W,1,05,1.81,217.8,M,-33.2,M,,*77' 08-20-52-411
b'$GNVTG,90.26,T,,M,7.406,N,13.716,K,A*29' 08-20-52-437
b'$GNGGA,012031.30,4006.71745,N,08813.32165,W,1,05,1.81,217.8,M,-33.2,M,,*7F' 08-20-52-463
b'$GNVTG,89.85,T,,M,7.335,N,13.585,K,A*27' 08-20-52-487
b'$GNGGA,012031.35,4006.71745,N,08813.32152,W,1,05,1.81,217.8,M,-33.2,M,,*7E' 08-20-52-512
b'$GNVTG,89.52,T,,M,7.259,N,13.444,K,A*2A' 08-20-52-537
b'$GNGGA,012031.40,4006.71746,N,08813.32139,W,1,05,1.81,217.8,M,-33.2,M,,*72' 08-20-52-563
b'$GNVTG,90.18,T,,M,7.356,N,13.623,K,A*21' 08-20-52-587
b'$GNGGA,012031.45,4006.71745,N,08813.32125,W,1,05,1.81,217.8,M,-33.2,M,,*79' 08-20-52-611
b'$GNVTG,90.07,T,,M,7.399,N,13.703,K,A*2F' 08-20-52-637
b'$GNGGA,012031.50,4006.71745,N,08813.32111,W,1,05,1.81,217.8,M,-33.2,M,,*7A' 08-20-52-661
b'$GNVTG,90.00,T,,M,7.263,N,13.450,K,A*29' 08-20-52-687
b'$GNGGA,012031.55,4006.71745,N,08813.32098,W,1,05,1.81,217.8,M,-33.2,M,,*7F' 08-20-52-711
b'$GNVTG,89.12,T,,M,7.199,N,13.332,K,A*27' 08-20-52-737
b'$GNGGA,012031.60,4006.71746,N,08813.32085,W,1,05,1.81,217.8,M,-33.2,M,,*76' 08-20-52-761
b'$GNVTG,89.09,T,,M,7.264,N,13.453,K,A*2C' 08-20-52-787
b'$GNGGA,012031.65,4006.71746,N,08813.32072,W,1,05,1.81,217.8,M,-33.2,M,,*7B' 08-20-52-811
b'$GNVTG,89.54,T,,M,7.342,N,13.597,K,A*28' 08-20-52-837
b'$GNGGA,012031.70,4006.71746,N,08813.32058,W,1,05,1.81,217.8,M,-33.2,M,,*77' 08-20-52-861
b'$GNVTG,89.78,T,,M,7.262,N,13.448,K,A*26' 08-20-52-887
b'$GNGGA,012031.75,4006.71745,N,08813.32045,W,1,05,1.81,217.8,M,-33.2,M,,*7D' 08-20-52-910
b'$GNVTG,89.47,T,,M,7.135,N,13.215,K,A*25' 08-20-52-937
b'$GNGGA,012031.80,4006.71746,N,08813.32032,W,1,05,1.81,217.8,M,-33.2,M,,*74' 08-20-52-960
b'$GNVTG,89.23,T,,M,7.180,N,13.297,K,A*23' 08-20-52-987
b'$GNGGA,012031.85,4006.71746,N,08813.32019,W,1,05,1.81,217.8,M,-33.2,M,,*78' 08-20-53-010
b'$GNVTG,88.71,T,,M,7.312,N,13.542,K,A*23' 08-20-53-037
b'$GNGGA,012031.90,4006.71746,N,08813.32005,W,1,05,1.81,217.8,M,-33.2,M,,*71' 08-20-53-060
b'$GNVTG,89.32,T,,M,7.264,N,13.452,K,A*25' 08-20-53-087
b'$GNGGA,012031.95,4006.71746,N,08813.31992,W,1,05,1.81,217.8,M,-33.2,M,,*70' 08-20-53-110
b'$GNVTG,89.49,T,,M,7.296,N,13.511,K,A*22' 08-20-53-140
b'$GNGGA,012032.00,4006.71746,N,08813.31979,W,1,05,1.81,217.8,M,-33.2,M,,*7A' 08-20-53-164
b'$GNVTG,88.81,T,,M,7.341,N,13.595,K,A*20' 08-20-53-187
b'$GNGGA,012032.05,4006.71746,N,08813.31965,W,1,05,1.81,217.8,M,-33.2,M,,*72' 08-20-53-211
b'$GNVTG,88.27,T,,M,7.358,N,13.627,K,A*2E' 08-20-53-237
b'$GNGGA,012032.10,4006.71747,N,08813.31952,W,1,05,1.81,217.8,M,-33.2,M,,*73' 08-20-53-261
b'$GNVTG,88.27,T,,M,7.108,N,13.164,K,A*29' 08-20-53-286
b'$GNGGA,012032.15,4006.71747,N,08813.31939,W,1,05,1.81,217.8,M,-33.2,M,,*7B' 08-20-53-310
b'$GNVTG,88.75,T,,M,7.091,N,13.132,K,A*2C' 08-20-53-337
b'$GNGGA,012032.20,4006.71747,N,08813.31926,W,1,05,1.81,217.8,M,-33.2,M,,*73' 08-20-53-360
b'$GNVTG,88.88,T,,M,7.290,N,13.502,K,A*2A' 08-20-53-387
b'$GNGGA,012032.25,4006.71747,N,08813.31913,W,1,05,1.81,217.8,M,-33.2,M,,*70' 08-20-53-411
b'$GNVTG,88.46,T,,M,7.368,N,13.645,K,A*2E' 08-20-53-437
b'$GNGGA,012032.30,4006.71748,N,08813.31899,W,1,05,1.81,217.8,M,-33.2,M,,*78' 08-20-53-461
b'$GNVTG,88.07,T,,M,7.220,N,13.371,K,A*24' 08-20-53-487
b'$GNGGA,012032.35,4006.71748,N,08813.31886,W,1,05,1.81,217.8,M,-33.2,M,,*73' 08-20-53-510
b'$GNVTG,88.34,T,,M,7.112,N,13.171,K,A*24' 08-20-53-537
b'$GNGGA,012032.40,4006.71748,N,08813.31874,W,1,05,1.81,217.8,M,-33.2,M,,*7C' 08-20-53-560
b'$GNVTG,88.84,T,,M,7.265,N,13.454,K,A*2E' 08-20-53-587
b'$GNGGA,012032.45,4006.71749,N,08813.31860,W,1,05,1.81,217.8,M,-33.2,M,,*7D' 08-20-53-610
b'$GNVTG,88.97,T,,M,7.285,N,13.492,K,A*28' 08-20-53-637
b'$GNGGA,012032.50,4006.71749,N,08813.31847,W,1,05,1.81,217.8,M,-33.2,M,,*7C' 08-20-53-660
b'$GNVTG,88.73,T,,M,7.193,N,13.321,K,A*29' 08-20-53-687
b'$GNGGA,012032.55,4006.71749,N,08813.31834,W,1,05,1.81,217.8,M,-33.2,M,,*7D' 08-20-53-710
b'$GNVTG,88.03,T,,M,7.211,N,13.354,K,A*25' 08-20-53-737
b'$GNGGA,012032.60,4006.71750,N,08813.31821,W,1,05,1.81,217.8,M,-33.2,M,,*77' 08-20-53-761
b'$GNVTG,88.50,T,,M,7.157,N,13.254,K,A*23' 08-20-53-787
b'$GNGGA,012032.65,4006.71750,N,08813.31808,W,1,05,1.81,217.8,M,-33.2,M,,*79' 08-20-53-810
b'$GNVTG,89.51,T,,M,7.082,N,13.116,K,A*2F' 08-20-53-836
b'$GNGGA,012032.70,4006.71750,N,08813.31795,W,1,05,1.81,217.8,M,-33.2,M,,*76' 08-20-53-860
b'$GNVTG,90.08,T,,M,7.034,N,13.026,K,A*24' 08-20-53-887
b'$GNGGA,012032.75,4006.71750,N,08813.31783,W,1,05,1.81,217.8,M,-33.2,M,,*74' 08-20-53-910
b'$GNVTG,90.17,T,,M,6.950,N,12.872,K,A*28' 08-20-53-937
b'$GNGGA,012032.80,4006.71750,N,08813.31770,W,1,05,1.81,217.8,M,-33.2,M,,*72' 08-20-53-960
b'$GNVTG,89.51,T,,M,6.963,N,12.896,K,A*28' 08-20-53-987
b'$GNGGA,012032.85,4006.71750,N,08813.31757,W,1,05,1.81,217.7,M,-33.2,M,,*7D' 08-20-54-010
b'$GNVTG,89.06,T,,M,6.968,N,12.905,K,A*2A' 08-20-54-037
b'$GNGGA,012032.90,4006.71751,N,08813.31745,W,1,05,1.81,217.8,M,-33.2,M,,*74' 08-20-54-060
b'$GNVTG,88.62,T,,M,7.052,N,13.060,K,A*23' 08-20-54-087
b'$GNGGA,012032.95,4006.71751,N,08813.31732,W,1,05,1.81,217.8,M,-33.2,M,,*71' 08-20-54-110
b'$GNVTG,89.21,T,,M,6.956,N,12.882,K,A*2C' 08-20-54-141
b'$GNGGA,012033.00,4006.71751,N,08813.31719,W,1,05,1.81,217.8,M,-33.2,M,,*75' 08-20-54-165
b'$GNVTG,89.46,T,,M,6.850,N,12.687,K,A*21' 08-20-54-187
b'$GNGGA,012033.05,4006.71751,N,08813.31707,W,1,05,1.81,217.8,M,-33.2,M,,*7F' 08-20-54-210
b'$GNVTG,89.54,T,,M,6.788,N,12.571,K,A*22' 08-20-54-237
b'$GNGGA,012033.10,4006.71751,N,08813.31695,W,1,05,1.81,217.8,M,-33.2,M,,*71' 08-20-54-261
b'$GNVTG,89.83,T,,M,6.748,N,12.497,K,A*2D' 08-20-54-287
b'$GNGGA,012033.15,4006.71751,N,08813.31682,W,1,05,1.81,217.8,M,-33.2,M,,*72' 08-20-54-311
b'$GNVTG,90.15,T,,M,6.701,N,12.409,K,A*20' 08-20-54-337
b'$GNGGA,012033.20,4006.71751,N,08813.31670,W,1,05,1.81,217.8,M,-33.2,M,,*79' 08-20-54-360
b'$GNVTG,90.19,T,,M,6.732,N,12.467,K,A*24' 08-20-54-387
b'$GNGGA,012033.25,4006.71751,N,08813.31658,W,1,05,1.81,217.8,M,-33.2,M,,*76' 08-20-54-411
b'$GNVTG,89.57,T,,M,6.755,N,12.511,K,A*27' 08-20-54-437
b'$GNGGA,012033.30,4006.71751,N,08813.31646,W,1,05,1.81,217.8,M,-33.2,M,,*7D' 08-20-54-460
b'$GNVTG,89.40,T,,M,6.699,N,12.407,K,A*26' 08-20-54-487
b'$GNGGA,012033.35,4006.71751,N,08813.31634,W,1,05,1.81,217.7,M,-33.2,M,,*72' 08-20-54-510
b'$GNVTG,89.42,T,,M,6.504,N,12.046,K,A*22' 08-20-54-537
b'$GNGGA,012033.40,4006.71751,N,08813.31622,W,1,05,1.81,217.7,M,-33.2,M,,*77' 08-20-54-560
b'$GNVTG,89.04,T,,M,6.538,N,12.108,K,A*24' 08-20-54-587
b'$GNGGA,012033.45,4006.71751,N,08813.31610,W,1,05,1.81,217.7,M,-33.2,M,,*73' 08-20-54-611
b'$GNVTG,88.88,T,,M,6.489,N,12.017,K,A*25' 08-20-54-637
b'$GNGGA,012033.50,4006.71752,N,08813.31599,W,1,05,1.81,217.7,M,-33.2,M,,*76' 08-20-54-660
b'$GNVTG,88.33,T,,M,6.506,N,12.048,K,A*29' 08-20-54-687
b'$GNGGA,012033.55,4006.71752,N,08813.31587,W,1,05,1.81,217.7,M,-33.2,M,,*7C' 08-20-54-710
b'$GNVTG,87.43,T,,M,6.564,N,12.157,K,A*2A' 08-20-54-736
b'$GNGGA,012033.60,4006.71753,N,08813.31575,W,1,05,1.81,217.7,M,-33.2,M,,*76' 08-20-54-760
b'$GNVTG,87.26,T,,M,6.530,N,12.094,K,A*26' 08-20-54-787
b'$GNGGA,012033.65,4006.71753,N,08813.31563,W,1,05,1.81,217.7,M,-33.2,M,,*74' 08-20-54-810
b'$GNVTG,87.54,T,,M,6.380,N,11.817,K,A*2E' 08-20-54-837
b'$GNGGA,012033.70,4006.71753,N,08813.31552,W,1,05,1.81,217.7,M,-33.2,M,,*72' 08-20-54-860
b'$GNVTG,86.13,T,,M,6.353,N,11.766,K,A*2B' 08-20-54-887
b'$GNGGA,012033.75,4006.71754,N,08813.31541,W,1,05,1.81,217.7,M,-33.2,M,,*72' 08-20-54-910
b'$GNVTG,84.15,T,,M,6.436,N,11.919,K,A*2D' 08-20-54-936
b'$GNGGA,012033.80,4006.71756,N,08813.31529,W,1,05,1.81,217.7,M,-33.2,M,,*74' 08-20-54-960
b'$GNVTG,82.38,T,,M,6.510,N,12.056,K,A*20' 08-20-54-987
b'$GNGGA,012033.85,4006.71758,N,08813.31517,W,1,05,1.81,217.7,M,-33.2,M,,*72' 08-20-55-010
b'$GNVTG,81.52,T,,M,6.359,N,11.776,K,A*22' 08-20-55-037
b'$GNGGA,012033.90,4006.71759,N,08813.31506,W,1,05,1.81,217.7,M,-33.2,M,,*77' 08-20-55-060
b'$GNVTG,81.25,T,,M,6.170,N,11.427,K,A*2C' 08-20-55-086
b'$GNGGA,012033.95,4006.71760,N,08813.31495,W,1,05,1.81,217.7,M,-33.2,M,,*73' 08-20-55-110
b'$GNVTG,81.20,T,,M,6.041,N,11.187,K,A*25' 08-20-55-141
b'$GNGGA,012034.00,4006.71761,N,08813.31485,W,1,05,1.81,217.7,M,-33.2,M,,*78' 08-20-55-164
b'$GNVTG,80.76,T,,M,6.132,N,11.356,K,A*2C' 08-20-55-187
b'$GNGGA,012034.05,4006.71763,N,08813.31474,W,1,05,1.81,217.7,M,-33.2,M,,*71' 08-20-55-210
b'$GNVTG,79.58,T,,M,6.312,N,11.690,K,A*29' 08-20-55-237
b'$GNGGA,012034.10,4006.71765,N,08813.31462,W,1,05,1.81,217.7,M,-33.2,M,,*74' 08-20-55-261
b'$GNVTG,78.08,T,,M,6.208,N,11.497,K,A*22' 08-20-55-287
b'$GNGGA,012034.15,4006.71767,N,08813.31452,W,1,05,1.81,217.7,M,-33.2,M,,*70' 08-20-55-310
b'$GNVTG,76.44,T,,M,6.012,N,11.135,K,A*20' 08-20-55-338
b'$GNGGA,012034.20,4006.71770,N,08813.31441,W,1,05,1.81,217.7,M,-33.2,M,,*72' 08-20-55-361
b'$GNVTG,76.37,T,,M,5.965,N,11.047,K,A*2A' 08-20-55-387
b'$GNGGA,012034.25,4006.71772,N,08813.31431,W,1,05,1.81,217.7,M,-33.2,M,,*72' 08-20-55-410
b'$GNVTG,77.25,T,,M,6.051,N,11.206,K,A*22' 08-20-55-437
b'$GNGGA,012034.30,4006.71773,N,08813.31420,W,1,05,1.81,217.7,M,-33.2,M,,*77' 08-20-55-461
b'$GNVTG,76.97,T,,M,6.240,N,11.556,K,A*2A' 08-20-55-487
b'$GNGGA,012034.35,4006.71775,N,08813.31409,W,1,05,1.81,217.7,M,-33.2,M,,*7F' 08-20-55-511
b'$GNVTG,74.80,T,,M,6.328,N,11.719,K,A*28' 08-20-55-537
b'$GNGGA,012034.40,4006.71779,N,08813.31398,W,1,05,1.81,217.7,M,-33.2,M,,*7E' 08-20-55-561
b'$GNVTG,72.92,T,,M,6.076,N,11.253,K,A*2E' 08-20-55-587
b'$GNGGA,012034.45,4006.71782,N,08813.31388,W,1,05,1.81,217.7,M,-33.2,M,,*7E' 08-20-55-610
b'$GNVTG,71.86,T,,M,5.875,N,10.880,K,A*25' 08-20-55-637
b'$GNGGA,012034.50,4006.71784,N,08813.31378,W,1,05,1.81,217.7,M,-33.2,M,,*73' 08-20-55-660
b'$GNVTG,71.31,T,,M,6.061,N,11.224,K,A*22' 08-20-55-687
b'$GNGGA,012034.55,4006.71787,N,08813.31367,W,1,05,1.81,217.7,M,-33.2,M,,*7B' 08-20-55-710
b'$GNVTG,70.75,T,,M,6.224,N,11.526,K,A*25' 08-20-55-737
b'$GNGGA,012034.60,4006.71791,N,08813.31357,W,1,05,1.81,217.6,M,-33.2,M,,*78' 08-20-55-761
b'$GNVTG,68.95,T,,M,6.058,N,11.220,K,A*2A' 08-20-55-787
b'$GNGGA,012034.65,4006.71794,N,08813.31347,W,1,05,1.81,217.6,M,-33.2,M,,*79' 08-20-55-811
b'$GNVTG,67.13,T,,M,6.001,N,11.114,K,A*23' 08-20-55-837
b'$GNGGA,012034.70,4006.71798,N,08813.31337,W,1,05,1.81,217.6,M,-33.2,M,,*76' 08-20-55-861
b'$GNVTG,65.78,T,,M,6.067,N,11.236,K,A*2F' 08-20-55-887
b'$GNGGA,012034.75,4006.71802,N,08813.31327,W,1,05,1.81,217.6,M,-33.2,M,,*7E' 08-20-55-911
b'$GNVTG,65.11,T,,M,6.135,N,11.363,K,A*27' 08-20-55-937
b'$GNGGA,012034.80,4006.71806,N,08813.31317,W,1,05,1.81,217.6,M,-33.2,M,,*73' 08-20-55-961
b'$GNVTG,64.34,T,,M,6.052,N,11.209,K,A*2C' 08-20-55-986
b'$GNGGA,012034.85,4006.71810,N,08813.31307,W,1,05,1.81,217.6,M,-33.2,M,,*70' 08-20-56-010
b'$GNVTG,63.58,T,,M,6.122,N,11.339,K,A*25' 08-20-56-037
b'$GNGGA,012034.90,4006.71814,N,08813.31297,W,1,05,1.81,217.6,M,-33.2,M,,*78' 08-20-56-061
b'$GNVTG,62.45,T,,M,6.167,N,11.422,K,A*24' 08-20-56-087
b'$GNGGA,012034.95,4006.71818,N,08813.31287,W,1,05,1.81,217.6,M,-33.2,M,,*70' 08-20-56-111
b'$GNVTG,60.69,T,,M,6.004,N,11.119,K,A*21' 08-20-56-141
b'$GNGGA,012035.00,4006.71823,N,08813.31278,W,1,05,1.81,217.6,M,-33.2,M,,*75' 08-20-56-164
b'$GNVTG,58.52,T,,M,6.111,N,11.318,K,A*24' 08-20-56-187
b'$GNGGA,012035.05,4006.71828,N,08813.31269,W,1,05,1.81,217.6,M,-33.2,M,,*7B' 08-20-56-210
b'$GNVTG,56.78,T,,M,6.219,N,11.517,K,A*20' 08-20-56-238
b'$GNGGA,012035.10,4006.71833,N,08813.31260,W,1,05,1.81,217.6,M,-33.2,M,,*7C' 08-20-56-260
b'$GNVTG,55.86,T,,M,6.225,N,11.529,K,A*20' 08-20-56-287
b'$GNGGA,012035.15,4006.71838,N,08813.31250,W,1,05,1.81,217.6,M,-33.2,M,,*71' 08-20-56-310
b'$GNVTG,55.34,T,,M,6.220,N,11.519,K,A*2F' 08-20-56-337
b'$GNGGA,012035.20,4006.71843,N,08813.31241,W,1,05,1.81,217.6,M,-33.2,M,,*7B' 08-20-56-360
b'$GNVTG,54.62,T,,M,6.131,N,11.355,K,A*20' 08-20-56-387
b'$GNGGA,012035.25,4006.71848,N,08813.31233,W,1,05,1.81,217.6,M,-33.2,M,,*70' 08-20-56-412
b'$GNVTG,52.27,T,,M,6.062,N,11.228,K,A*2B' 08-20-56-437
b'$GNGGA,012035.30,4006.71854,N,08813.31224,W,1,05,1.81,217.6,M,-33.2,M,,*7F' 08-20-56-460
b'$GNVTG,50.30,T,,M,6.080,N,11.260,K,A*2F' 08-20-56-487
b'$GNGGA,012035.35,4006.71860,N,08813.31216,W,1,05,1.81,217.6,M,-33.2,M,,*7C' 08-20-56-510
b'$GNVTG,49.40,T,,M,6.186,N,11.457,K,A*25' 08-20-56-536
b'$GNGGA,012035.40,4006.71866,N,08813.31208,W,1,05,1.81,217.6,M,-33.2,M,,*77' 08-20-56-559
b'$GNVTG,49.06,T,,M,6.151,N,11.392,K,A*23' 08-20-56-587
b'$GNGGA,012035.45,4006.71871,N,08813.31199,W,1,05,1.81,217.6,M,-33.2,M,,*7F' 08-20-56-610
b'$GNVTG,48.16,T,,M,6.114,N,11.323,K,A*28' 08-20-56-637
b'$GNGGA,012035.50,4006.71877,N,08813.31191,W,1,05,1.81,217.6,M,-33.2,M,,*75' 08-20-56-660
b'$GNVTG,46.30,T,,M,6.075,N,11.250,K,A*21' 08-20-56-687
b'$GNGGA,012035.55,4006.71884,N,08813.31184,W,1,05,1.81,217.6,M,-33.2,M,,*78' 08-20-56-710
b'$GNVTG,45.56,T,,M,6.125,N,11.344,K,A*22' 08-20-56-737
b'$GNGGA,012035.60,4006.71890,N,08813.31176,W,1,05,1.81,217.6,M,-33.2,M,,*76' 08-20-56-759
b'$GNVTG,45.06,T,,M,6.056,N,11.215,K,A*27' 08-20-56-787
b'$GNGGA,012035.65,4006.71895,N,08813.31168,W,1,05,1.81,217.6,M,-33.2,M,,*79' 08-20-56-810
b'$GNVTG,44.08,T,,M,5.998,N,11.107,K,A*20' 08-20-56-837
b'$GNGGA,012035.70,4006.71902,N,08813.31161,W,1,05,1.81,217.6,M,-33.2,M,,*7B' 08-20-56-860
b'$GNVTG,42.23,T,,M,6.197,N,11.477,K,A*29' 08-20-56-886
b'$GNGGA,012035.75,4006.71909,N,08813.31154,W,1,05,1.81,217.6,M,-33.2,M,,*73' 08-20-56-909
b'$GNVTG,41.49,T,,M,6.344,N,11.750,K,A*2C' 08-20-56-937
b'$GNGGA,012035.80,4006.71916,N,08813.31146,W,1,05,1.81,217.6,M,-33.2,M,,*74' 08-20-56-960
b'$GNVTG,40.43,T,,M,6.184,N,11.453,K,A*29' 08-20-56-987
b'$GNGGA,012035.85,4006.71922,N,08813.31139,W,1,05,1.81,217.6,M,-33.2,M,,*7E' 08-20-57-009
b'$GNVTG,38.78,T,,M,6.167,N,11.422,K,A*25' 08-20-57-037
b'$GNGGA,012035.90,4006.71929,N,08813.31133,W,1,05,1.81,217.6,M,-33.2,M,,*7B' 08-20-57-059
b'$GNVTG,37.58,T,,M,6.233,N,11.543,K,A*2C' 08-20-57-087
b'$GNGGA,012035.95,4006.71936,N,08813.31126,W,1,05,1.81,217.6,M,-33.2,M,,*74' 08-20-57-110
b'$GNVTG,36.22,T,,M,6.186,N,11.456,K,A*28' 08-20-57-141
b'$GNGGA,012036.00,4006.71943,N,08813.31119,W,1,05,1.81,217.6,M,-33.2,M,,*75' 08-20-57-164
b'$GNVTG,33.86,T,,M,6.436,N,11.920,K,A*21' 08-20-57-187
b'$GNGGA,012036.05,4006.71952,N,08813.31113,W,1,05,1.81,217.6,M,-33.2,M,,*7A' 08-20-57-210
b'$GNVTG,33.57,T,,M,6.275,N,11.622,K,A*21' 08-20-57-243
b'$GNGGA,012036.10,4006.71958,N,08813.31107,W,1,07,1.65,217.6,M,-33.2,M,,*79' 08-20-57-266
b'$GNVTG,33.85,T,,M,6.157,N,11.403,K,A*2C' 08-20-57-288
b'$GNGGA,012036.15,4006.71965,N,08813.31101,W,1,07,1.65,217.5,M,-33.2,M,,*77' 08-20-57-311
b'$GNVTG,32.76,T,,M,6.082,N,11.263,K,A*28' 08-20-57-338
b'$GNGGA,012036.20,4006.71972,N,08813.31095,W,1,07,1.65,217.5,M,-33.2,M,,*7B' 08-20-57-360
b'$GNVTG,31.19,T,,M,6.118,N,11.331,K,A*26' 08-20-57-388
b'$GNGGA,012036.25,4006.71979,N,08813.31090,W,1,07,1.65,217.5,M,-33.2,M,,*70' 08-20-57-411
b'$GNVTG,28.96,T,,M,6.190,N,11.463,K,A*29' 08-20-57-437
b'$GNGGA,012036.30,4006.71987,N,08813.31086,W,1,07,1.65,217.5,M,-33.2,M,,*72' 08-20-57-460
b'$GNVTG,28.27,T,,M,6.184,N,11.453,K,A*25' 08-20-57-488
b'$GNGGA,012036.35,4006.71993,N,08813.31081,W,1,07,1.65,217.4,M,-33.2,M,,*74' 08-20-57-511
b'$GNVTG,27.54,T,,M,6.143,N,11.377,K,A*24' 08-20-57-538
b'$GNGGA,012036.40,4006.72000,N,08813.31076,W,1,07,1.65,217.4,M,-33.2,M,,*7E' 08-20-57-561
b'$GNVTG,25.62,T,,M,6.178,N,11.442,K,A*2A' 08-20-57-588
b'$GNGGA,012036.45,4006.72008,N,08813.31072,W,1,07,1.65,217.3,M,-33.2,M,,*70' 08-20-57-611
b'$GNVTG,24.35,T,,M,6.005,N,11.121,K,A*22' 08-20-57-638
b'$GNGGA,012036.50,4006.72015,N,08813.31069,W,1,07,1.65,217.3,M,-33.2,M,,*72' 08-20-57-661
b'$GNVTG,23.86,T,,M,5.948,N,11.015,K,A*28' 08-20-57-688
b'$GNGGA,012036.55,4006.72022,N,08813.31065,W,1,07,1.65,217.3,M,-33.2,M,,*7F' 08-20-57-711
b'$GNVTG,22.05,T,,M,5.831,N,10.799,K,A*2F' 08-20-57-738
b'$GNGGA,012036.60,4006.72029,N,08813.31062,W,1,07,1.65,217.2,M,-33.2,M,,*74' 08-20-57-761
b'$GNVTG,21.40,T,,M,5.939,N,11.000,K,A*22' 08-20-57-787
b'$GNGGA,012036.65,4006.72036,N,08813.31058,W,1,07,1.65,217.2,M,-33.2,M,,*76' 08-20-57-810
b'$GNVTG,21.75,T,,M,5.933,N,10.987,K,A*29' 08-20-57-838
b'$GNGGA,012036.70,4006.72043,N,08813.31055,W,1,07,1.65,217.1,M,-33.2,M,,*7E' 08-20-57-860
b'$GNVTG,21.75,T,,M,5.879,N,10.888,K,A*28' 08-20-57-888
b'$GNGGA,012036.75,4006.72050,N,08813.31051,W,1,07,1.65,217.1,M,-33.2,M,,*7D' 08-20-57-911
b'$GNVTG,20.11,T,,M,5.839,N,10.814,K,A*2A' 08-20-57-938
b'$GNGGA,012036.80,4006.72057,N,08813.31048,W,1,07,1.65,217.0,M,-33.2,M,,*79' 08-20-57-960
b'$GNVTG,17.85,T,,M,5.737,N,10.626,K,A*2D' 08-20-57-988
b'$GNGGA,012036.85,4006.72064,N,08813.31046,W,1,07,1.65,217.0,M,-33.2,M,,*72' 08-20-58-010
b'$GNVTG,16.01,T,,M,5.764,N,10.674,K,A*21' 08-20-58-038
b'$GNGGA,012036.90,4006.72072,N,08813.31044,W,1,07,1.65,217.0,M,-33.2,M,,*73' 08-20-58-060
b'$GNVTG,15.22,T,,M,5.744,N,10.637,K,A*26' 08-20-58-087
b'$GNGGA,012036.95,4006.72079,N,08813.31042,W,1,07,1.65,217.0,M,-33.2,M,,*7B' 08-20-58-110
b'$GNVTG,14.55,T,,M,5.725,N,10.603,K,A*27' 08-20-58-142
b'$GNGGA,012037.00,4006.72086,N,08813.31040,W,1,07,1.65,216.9,M,-33.2,M,,*7C' 08-20-58-164
b'$GNVTG,13.92,T,,M,5.702,N,10.560,K,A*28' 08-20-58-188
b'$GNGGA,012037.05,4006.72094,N,08813.31038,W,1,07,1.65,216.9,M,-33.2,M,,*75' 08-20-58-211
b'$GNVTG,13.28,T,,M,5.743,N,10.637,K,A*2D' 08-20-58-238
b'$GNGGA,012037.10,4006.72101,N,08813.31036,W,1,07,1.65,216.8,M,-33.2,M,,*73' 08-20-58-260
b'$GNVTG,12.57,T,,M,5.615,N,10.399,K,A*27' 08-20-58-288
b'$GNGGA,012037.15,4006.72108,N,08813.31034,W,1,07,1.65,216.8,M,-33.2,M,,*7D' 08-20-58-312
b'$GNVTG,11.85,T,,M,5.577,N,10.328,K,A*26' 08-20-58-337
b'$GNGGA,012037.20,4006.72115,N,08813.31032,W,1,07,1.65,216.8,M,-33.2,M,,*71' 08-20-58-360
b'$GNVTG,10.59,T,,M,5.697,N,10.551,K,A*23' 08-20-58-388
b'$GNGGA,012037.25,4006.72123,N,08813.31031,W,1,07,1.65,216.7,M,-33.2,M,,*7D' 08-20-58-410
b'$GNVTG,9.19,T,,M,5.711,N,10.577,K,A*14' 08-20-58-438
b'$GNGGA,012037.30,4006.72130,N,08813.31030,W,1,07,1.65,216.7,M,-33.2,M,,*7A' 08-20-58-461
b'$GNVTG,7.82,T,,M,5.638,N,10.442,K,A*15' 08-20-58-488
b'$GNGGA,012037.35,4006.72138,N,08813.31029,W,1,07,1.65,216.7,M,-33.2,M,,*7F' 08-20-58-510
b'$GNVTG,7.61,T,,M,5.708,N,10.571,K,A*1B' 08-20-58-537
b'$GNGGA,012037.40,4006.72145,N,08813.31028,W,1,07,1.65,216.7,M,-33.2,M,,*76' 08-20-58-561
b'$GNVTG,7.02,T,,M,5.569,N,10.314,K,A*1E' 08-20-58-587
b'$GNGGA,012037.45,4006.72152,N,08813.31027,W,1,07,1.65,216.6,M,-33.2,M,,*7B' 08-20-58-611
b'$GNVTG,6.37,T,,M,5.512,N,10.208,K,A*19' 08-20-58-638
b'$GNGGA,012037.50,4006.72160,N,08813.31027,W,1,07,1.65,216.6,M,-33.2,M,,*7E' 08-20-58-661
b'$GNVTG,4.62,T,,M,5.555,N,10.289,K,A*11' 08-20-58-687
b'$GNGGA,012037.55,4006.72167,N,08813.31026,W,1,07,1.65,216.6,M,-33.2,M,,*7D' 08-20-58-711
b'$GNVTG,2.24,T,,M,5.715,N,10.585,K,A*18' 08-20-58-737
b'$GNGGA,012037.60,4006.72175,N,08813.31027,W,1,07,1.65,216.5,M,-33.2,M,,*7A' 08-20-58-761
b'$GNVTG,2.40,T,,M,5.563,N,10.303,K,A*11' 08-20-58-787
b'$GNGGA,012037.65,4006.72182,N,08813.31026,W,1,07,1.65,216.5,M,-33.2,M,,*76' 08-20-58-811
b'$GNVTG,3.04,T,,M,5.495,N,10.177,K,A*19' 08-20-58-837
b'$GNGGA,012037.70,4006.72189,N,08813.31026,W,1,07,1.65,216.5,M,-33.2,M,,*79' 08-20-58-860
b'$GNVTG,2.80,T,,M,5.504,N,10.194,K,A*10' 08-20-58-887
b'$GNGGA,012037.75,4006.72197,N,08813.31026,W,1,07,1.65,216.4,M,-33.2,M,,*72' 08-20-58-911
b'$GNVTG,0.74,T,,M,5.618,N,10.404,K,A*1B' 08-20-58-937
b'$GNGGA,012037.80,4006.72204,N,08813.31027,W,1,07,1.65,216.4,M,-33.2,M,,*70' 08-20-58-961
b'$GNVTG,358.24,T,,M,5.641,N,10.447,K,A*1B' 08-20-58-987
b'$GNGGA,012037.85,4006.72212,N,08813.31027,W,1,07,1.65,216.4,M,-33.2,M,,*72' 08-20-59-010
b'$GNVTG,356.98,T,,M,5.625,N,10.418,K,A*1A' 08-20-59-037
b'$GNGGA,012037.90,4006.72219,N,08813.31028,W,1,07,1.65,216.4,M,-33.2,M,,*72' 08-20-59-060
b'$GNVTG,356.28,T,,M,5.473,N,10.137,K,A*18' 08-20-59-087
b'$GNGGA,012037.95,4006.72226,N,08813.31029,W,1,07,1.65,216.4,M,-33.2,M,,*7A' 08-20-59-111
b'$GNVTG,355.01,T,,M,5.415,N,10.029,K,A*1E' 08-20-59-141
b'$GNGGA,012038.00,4006.72234,N,08813.31031,W,1,07,1.65,216.3,M,-33.2,M,,*74' 08-20-59-164
b'$GNVTG,354.19,T,,M,5.530,N,10.242,K,A*1F' 08-20-59-187
b'$GNGGA,012038.05,4006.72241,N,08813.31032,W,1,07,1.65,216.3,M,-33.2,M,,*70' 08-20-59-211
b'$GNVTG,353.59,T,,M,5.684,N,10.526,K,A*15' 08-20-59-239
b'$GNGGA,012038.10,4006.72249,N,08813.31034,W,1,08,1.65,216.3,M,-33.2,M,,*75' 08-20-59-262
b'$GNVTG,351.47,T,,M,5.384,N,9.972,K,A*28' 08-20-59-288
b'$GNGGA,012038.15,4006.72256,N,08813.31036,W,1,08,1.65,216.3,M,-33.2,M,,*7C' 08-20-59-311
b'$GNVTG,349.98,T,,M,5.294,N,9.805,K,A*22' 08-20-59-338
b'$GNGGA,012038.20,4006.72262,N,08813.31038,W,1,08,1.65,216.2,M,-33.2,M,,*72' 08-20-59-361
b'$GNVTG,348.78,T,,M,5.334,N,9.879,K,A*2D' 08-20-59-388
b'$GNGGA,012038.25,4006.72270,N,08813.31040,W,1,08,1.65,216.2,M,-33.2,M,,*7B' 08-20-59-411
b'$GNVTG,348.00,T,,M,5.504,N,10.193,K,A*12' 08-20-59-438
b'$GNGGA,012038.30,4006.72277,N,08813.31042,W,1,08,1.65,216.2,M,-33.2,M,,*7A' 08-20-59-461
b'$GNVTG,347.57,T,,M,5.578,N,10.331,K,A*1E' 08-20-59-488
b'$GNGGA,012038.35,4006.72284,N,08813.31045,W,1,08,1.65,216.2,M,-33.2,M,,*74' 08-20-59-511
b'$GNVTG,345.33,T,,M,5.455,N,10.103,K,A*13' 08-20-59-538
b'$GNGGA,012038.40,4006.72291,N,08813.31048,W,1,08,1.65,216.2,M,-33.2,M,,*7F' 08-20-59-561
b'$GNVTG,343.19,T,,M,5.149,N,9.537,K,A*2E' 08-20-59-588
b'$GNGGA,012038.45,4006.72298,N,08813.31051,W,1,08,1.65,216.1,M,-33.2,M,,*78' 08-20-59-611
b'$GNVTG,341.48,T,,M,5.119,N,9.480,K,A*20' 08-20-59-638
b'$GNGGA,012038.50,4006.72304,N,08813.31054,W,1,08,1.65,216.1,M,-33.2,M,,*7D' 08-20-59-662
b'$GNVTG,339.82,T,,M,5.197,N,9.624,K,A*23' 08-20-59-688
b'$GNGGA,012038.55,4006.72310,N,08813.31058,W,1,08,1.65,216.1,M,-33.2,M,,*71' 08-20-59-711
b'$GNVTG,337.53,T,,M,5.369,N,9.944,K,A*2B' 08-20-59-738
b'$GNGGA,012038.60,4006.72317,N,08813.31062,W,1,08,1.65,216.1,M,-33.2,M,,*79' 08-20-59-762
b'$GNVTG,335.24,T,,M,5.505,N,10.196,K,A*1A' 08-20-59-788
b'$GNGGA,012038.65,4006.72324,N,08813.31067,W,1,08,1.65,216.1,M,-33.2,M,,*79' 08-20-59-811
b'$GNVTG,332.72,T,,M,5.233,N,9.692,K,A*27' 08-20-59-838
b'$GNGGA,012038.70,4006.72330,N,08813.31072,W,1,08,1.65,216.0,M,-33.2,M,,*7D' 08-20-59-861
b'$GNVTG,330.12,T,,M,5.107,N,9.459,K,A*22' 08-20-59-888
b'$GNGGA,012038.75,4006.72335,N,08813.31077,W,1,08,1.65,216.0,M,-33.2,M,,*78' 08-20-59-911
b'$GNVTG,328.84,T,,M,5.147,N,9.533,K,A*2D' 08-20-59-938
b'$GNGGA,012038.80,4006.72341,N,08813.31082,W,1,08,1.65,216.0,M,-33.2,M,,*7B' 08-20-59-961
b'$GNVTG,328.11,T,,M,5.040,N,9.335,K,A*27' 08-20-59-988
b'$GNGGA,012038.85,4006.72347,N,08813.31087,W,1,08,1.65,216.0,M,-33.2,M,,*7D' 08-21-00-011
b'$GNVTG,326.85,T,,M,5.093,N,9.432,K,A*2A' 08-21-00-038
b'$GNGGA,012038.90,4006.72353,N,08813.31092,W,1,08,1.65,216.0,M,-33.2,M,,*78' 08-21-00-061
b'$GNVTG,325.91,T,,M,5.092,N,9.430,K,A*2F' 08-21-00-088
b'$GNGGA,012038.95,4006.72358,N,08813.31098,W,1,08,1.65,216.0,M,-33.2,M,,*7C' 08-21-00-111
b'$GNVTG,322.85,T,,M,5.158,N,9.553,K,A*2E' 08-21-00-141
b'$GNGGA,012039.00,4006.72363,N,08813.31104,W,1,08,1.65,215.9,M,-33.2,M,,*77' 08-21-00-164
b'$GNVTG,321.52,T,,M,5.209,N,9.647,K,A*26' 08-21-00-188
b'$GNGGA,012039.05,4006.72369,N,08813.31110,W,1,08,1.63,216.0,M,-33.2,M,,*71' 08-21-00-212
b'$GNVTG,320.55,T,,M,5.037,N,9.329,K,A*22' 08-21-00-239
b'$GNGGA,012039.10,4006.72374,N,08813.31116,W,1,08,1.63,216.0,M,-33.2,M,,*7F' 08-21-00-263
b'$GNVTG,318.57,T,,M,4.826,N,8.938,K,A*29' 08-21-00-289
b'$GNGGA,012039.15,4006.72379,N,08813.31121,W,1,08,1.63,216.0,M,-33.2,M,,*73' 08-21-00-312
b'$GNVTG,317.43,T,,M,4.820,N,8.926,K,A*2A' 08-21-00-339
b'$GNGGA,012039.20,4006.72384,N,08813.31128,W,1,08,1.63,216.0,M,-33.2,M,,*7E' 08-21-00-362
b'$GNVTG,316.20,T,,M,4.880,N,9.037,K,A*2C' 08-21-00-389
b'$GNGGA,012039.25,4006.72389,N,08813.31134,W,1,08,1.63,216.0,M,-33.2,M,,*7B' 08-21-00-412
b'$GNVTG,312.92,T,,M,5.227,N,9.681,K,A*2C' 08-21-00-440
b'$GNGGA,012039.30,4006.72394,N,08813.31141,W,1,08,1.63,216.0,M,-33.2,M,,*71' 08-21-00-463
b'$GNVTG,309.83,T,,M,5.080,N,9.409,K,A*2B' 08-21-00-489
b'$GNGGA,012039.35,4006.72398,N,08813.31148,W,1,08,1.63,216.1,M,-33.2,M,,*70' 08-21-00-512
b'$GNVTG,309.12,T,,M,4.871,N,9.021,K,A*2A' 08-21-00-540
