hello
CAN logging
Accel logging
Steering logging
Cooling loop logging
b'$GNVTG,,,,,,,,,N*2E' 12-00-42-367
b'$GNGGA,,,,,,0,00,99.99,,,,,,*56' 12-00-42-390
b'$GNVTG,,,,,,,,,N*2E' 12-00-42-412
b'$GNGGA,,,,,,0,00,99.99,,,,,,*56' 12-00-42-441
b'$GNVTG,,,,,,,,,N*2E' 12-00-42-462
b'$GNGGA,,,,,,0,00,99.99,,,,,,*56' 12-00-42-484
b'$GNVTG,,,,,,,,,N*2E' 12-00-42-506
b'$GNGGA,,,,,,0,00,99.99,,,,,,*56' 12-00-42-527
b'$GNVTG,,,,,,,,,N*2E' 12-00-42-549
b'$GNGGA,,,,,,0,00,99.99,,,,,,*56' 12-00-42-570
b'$GNVTG,,,,,,,,,N*2E' 12-00-42-591
b'$GNGGA,,,,,,0,00,99.99,,,,,,*56' 12-00-42-613
b'$GNVTG,,,,,,,,,N*2E' 12-00-42-634
b'$GNGGA,,,,,,0,00,99.99,,,,,,*56' 12-00-42-655
b'$GNVTG,,,,,,,,,N*2E' 12-00-42-677
b'$GNGGA,,,,,,0,00,99.99,,,,,,*56' 12-00-42-699
b'$GNVTG,,,,,,,,,N*2E' 12-00-42-721
b'$GNGGA,,,,,,0,00,99.99,,,,,,*56' 12-00-42-743
b'$GNVTG,,,,,,,,,N*2E' 12-00-42-765
b'$GNGGA,,,,,,0,00,99.99,,,,,,*56' 12-00-42-788
b'$GNVTG,,,,,,,,,N*2E' 12-00-42-814
b'$GNGGA,,,,,,0,00,99.99,,,,,,*56' 12-00-42-841
b'$GNVTG,,,,,,,,,N*2E' 12-00-42-866
b'$GNGGA,,,,,,0,00,99.99,,,,,,*56' 12-00-42-891
b'$GNVTG,,,,,,,,,N*2E' 12-00-42-915
b'$GNGGA,,,,,,0,00,99.99,,,,,,*56' 12-00-42-940
b'$GNVTG,,,,,,,,,N*2E' 12-00-42-964
b'$GNGGA,,,,,,0,00,99.99,,,,,,*56' 12-00-42-988
b'$GNVTG,,,,,,,,,N*2E' 12-00-43-011
b'$GNGGA,,,,,,0,00,99.99,,,,,,*56' 12-00-43-035
b'$GNVTG,,,,,,,,,N*2E' 12-00-43-059
b'$GNGGA,,,,,,0,00,99.99,,,,,,*56' 12-00-43-082
b'$GNVTG,,,,,,,,,N*2E' 12-00-43-103
b'$GNGGA,,,,,,0,00,99.99,,,,,,*56' 12-00-43-126
b'$GNVTG,,,,,,,,,N*2E' 12-00-43-148
b'$GNGGA,,,,,,0,00,99.99,,,,,,*56' 12-00-43-171
b'$GNVTG,,,,,,,,,N*2E' 12-00-43-192
b'$GNGGA,,,,,,0,00,99.99,,,,,,*56' 12-00-43-214
b'$GNVTG,,,,,,,,,N*2E' 12-00-43-236
b'$GNGGA,,,,,,0,00,99.99,,,,,,*56' 12-00-43-257
b'$GNVTG,,,,,,,,,N*2E' 12-00-43-280
b'$GNGGA,,,,,,0,00,99.99,,,,,,*56' 12-00-43-303
b'$GNVTG,,,,,,,,,N*2E' 12-00-43-325
b'$GNGGA,,,,,,0,00,99.99,,,,,,*56' 12-00-43-349
b'$GNVTG,,,,,,,,,N*2E' 12-00-43-376
b'$GNGGA,,,,,,0,00,99.99,,,,,,*56' 12-00-43-400
b'$GNVTG,,,,,,,,,N*2E' 12-00-43-425
b'$GNGGA,,,,,,0,00,99.99,,,,,,*56' 12-00-43-451
b'$GNVTG,,,,,,,,,N*2E' 12-00-43-476
b'$GNGGA,,,,,,0,00,99.99,,,,,,*56' 12-00-43-500
b'$GNVTG,,,,,,,,,N*2E' 12-00-43-524
b'$GNGGA,,,,,,0,00,99.99,,,,,,*56' 12-00-43-549
b'$GNVTG,,,,,,,,,N*2E' 12-00-43-572
b'$GNGGA,,,,,,0,00,99.99,,,,,,*56' 12-00-43-596
b'$GNVTG,,,,,,,,,N*2E' 12-00-43-619
b'$GNGGA,,,,,,0,00,99.99,,,,,,*56' 12-00-43-641
b'$GNVTG,,,,,,,,,N*2E' 12-00-43-664
b'$GNGGA,,,,,,0,00,99.99,,,,,,*56' 12-00-43-687
b'$GNVTG,,,,,,,,,N*2E' 12-00-43-710
b'$GNGGA,,,,,,0,00,99.99,,,,,,*56' 12-00-43-733
b'$GNVTG,,,,,,,,,N*2E' 12-00-43-756
b'$GNGGA,,,,,,0,00,99.99,,,,,,*56' 12-00-43-779
b'$GNVTG,,,,,,,,,N*2E' 12-00-43-800
b'$GNGGA,,,,,,0,00,99.99,,,,,,*56' 12-00-43-823
b'$GNVTG,,,,,,,,,N*2E' 12-00-43-846
b'$GNGGA,,,,,,0,00,99.99,,,,,,*56' 12-00-43-870
b'$GNVTG,,,,,,,,,N*2E' 12-00-43-895
b'$GNGGA,,,,,,0,00,99.99,,,,,,*56' 12-00-43-916
b'$GNVTG,,,,,,,,,N*2E' 12-00-43-938
b'$GNGGA,,,,,,0,00,99.99,,,,,,*56' 12-00-43-959
b'$GNVTG,,,,,,,,,N*2E' 12-00-43-980
b'$GNGGA,,,,,,0,00,99.99,,,,,,*56' 12-00-44-002
b'$GNVTG,,,,,,,,,N*2E' 12-00-44-023
b'$GNGGA,,,,,,0,00,99.99,,,,,,*56' 12-00-44-044
b'$GNVTG,,,,,,,,,N*2E' 12-00-44-065
b'$GNGGA,,,,,,0,00,99.99,,,,,,*56' 12-00-44-086
b'$GNVTG,,,,,,,,,N*2E' 12-00-44-107
b'$GNGGA,,,,,,0,00,99.99,,,,,,*56' 12-00-44-129
b'$GNVTG,,,,,,,,,N*2E' 12-00-44-150
b'$GNGGA,,,,,,0,00,99.99,,,,,,*56' 12-00-44-171
b'$GNVTG,,,,,,,,,N*2E' 12-00-44-192
b'$GNGGA,,,,,,0,00,99.99,,,,,,*56' 12-00-44-213
b'$GNVTG,,,,,,,,,N*2E' 12-00-44-234
b'$GNGGA,,,,,,0,00,99.99,,,,,,*56' 12-00-44-257
b'$GNVTG,,,,,,,,,N*2E' 12-00-44-278
b'$GNGGA,,,,,,0,00,99.99,,,,,,*56' 12-00-44-299
b'$GNVTG,,,,,,,,,N*2E' 12-00-44-320
b'$GNGGA,,,,,,0,00,99.99,,,,,,*56' 12-00-44-342
b'$GNVTG,,,,,,,,,N*2E' 12-00-44-363
b'$GNGGA,170016.88,,,,,0,00,99.99,,,,,,*79' 12-00-44-385
b'$GNVTG,,,,,,,,,N*2E' 12-00-44-405
b'$GNGGA,170016.93,,,,,0,00,99.99,,,,,,*73' 12-00-44-427
b'$GNVTG,,,,,,,,,N*2E' 12-00-44-449
b'$GNGGA,170016.98,,,,,0,00,99.99,,,,,,*78' 12-00-44-470
b'$GNVTG,,,,,,,,,N*2E' 12-00-44-491
b'$GNGGA,170017.03,,,,,0,00,99.99,,,,,,*7B' 12-00-44-513
b'$GNVTG,,,,,,,,,N*2E' 12-00-44-534
b'$GNGGA,170017.08,,,,,0,00,99.99,,,,,,*70' 12-00-44-556
b'$GNVTG,,,,,,,,,N*2E' 12-00-44-576
b'$GNGGA,170017.15,,,,,0,00,99.99,,,,,,*7C' 12-00-44-598
b'$GNVTG,,,,,,,,,N*2E' 12-00-44-619
b'$GNGGA,170017.20,,,,,0,00,99.99,,,,,,*7A' 12-00-44-641
b'$GNVTG,,,,,,,,,N*2E' 12-00-44-662
b'$GNGGA,170017.25,,,,,0,00,99.99,,,,,,*7F' 12-00-44-683
b'$GNVTG,,,,,,,,,N*2E' 12-00-44-704
b'$GNGGA,170017.30,,,,,0,00,99.99,,,,,,*7B' 12-00-44-726
b'$GNVTG,,,,,,,,,N*2E' 12-00-44-747
b'$GNGGA,170017.35,,,,,0,00,99.99,,,,,,*7E' 12-00-44-768
b'$GNVTG,,,,,,,,,N*2E' 12-00-44-789
b'$GNGGA,170017.40,,,,,0,00,99.99,,,,,,*7C' 12-00-44-811
b'$GNVTG,,,,,,,,,N*2E' 12-00-44-831
b'$GNGGA,170017.45,,,,,0,00,99.99,,,,,,*79' 12-00-44-853
b'$GNVTG,,,,,,,,,N*2E' 12-00-44-874
b'$GNGGA,170017.50,,,,,0,00,99.99,,,,,,*7D' 12-00-44-895
b'$GNVTG,,,,,,,,,N*2E' 12-00-44-916
b'$GNGGA,170017.55,,,,,0,00,99.99,,,,,,*78' 12-00-44-938
b'$GNVTG,,,,,,,,,N*2E' 12-00-44-959
b'$GNGGA,170017.60,,,,,0,00,99.99,,,,,,*7E' 12-00-44-980
b'$GNVTG,,,,,,,,,N*2E' 12-00-45-001
b'$GNGGA,170017.65,,,,,0,00,99.99,,,,,,*7B' 12-00-45-023
b'$GNVTG,,,,,,,,,N*2E' 12-00-45-044
b'$GNGGA,170017.70,,,,,0,00,99.99,,,,,,*7F' 12-00-45-066
b'$GNVTG,,,,,,,,,N*2E' 12-00-45-087
b'$GNGGA,170017.75,,,,,0,00,99.99,,,,,,*7A' 12-00-45-108
b'$GNVTG,,,,,,,,,N*2E' 12-00-45-129
b'$GNGGA,170017.80,,,,,0,00,99.99,,,,,,*70' 12-00-45-151
b'$GNVTG,,,,,,,,,N*2E' 12-00-45-172
b'$GNGGA,170017.85,,,,,0,00,99.99,,,,,,*75' 12-00-45-193
b'$GNVTG,,,,,,,,,N*2E' 12-00-45-214
b'$GNGGA,170017.90,,,,,0,00,99.99,,,,,,*71' 12-00-45-236
b'$GNVTG,,,,,,,,,N*2E' 12-00-45-257
b'$GNGGA,170017.95,,,,,0,00,99.99,,,,,,*74' 12-00-45-278
b'$GNVTG,,,,,,,,,N*2E' 12-00-45-299
b'$GNGGA,170018.00,,,,,0,00,99.99,,,,,,*77' 12-00-45-321
b'$GNVTG,,,,,,,,,N*2E' 12-00-45-343
b'$GNGGA,170018.05,,,,,0,00,99.99,,,,,,*72' 12-00-45-364
b'$GNVTG,,,,,,,,,N*2E' 12-00-45-385
b'$GNGGA,170018.10,,,,,0,00,99.99,,,,,,*76' 12-00-45-406
b'$GNVTG,,,,,,,,,N*2E' 12-00-45-427
b'$GNGGA,170018.15,,,,,0,00,99.99,,,,,,*73' 12-00-45-449
b'$GNVTG,,,,,,,,,N*2E' 12-00-45-471
b'$GNGGA,170018.20,,,,,0,00,99.99,,,,,,*75' 12-00-45-493
b'$GNVTG,,,,,,,,,N*2E' 12-00-45-514
b'$GNGGA,170018.25,,,,,0,00,99.99,,,,,,*70' 12-00-45-536
b'$GNVTG,,,,,,,,,N*2E' 12-00-45-557
b'$GNGGA,170018.30,,,,,0,00,99.99,,,,,,*74' 12-00-45-579
b'$GNVTG,,,,,,,,,N*2E' 12-00-45-600
b'$GNGGA,170018.35,,,,,0,00,99.99,,,,,,*71' 12-00-45-621
b'$GNVTG,,,,,,,,,N*2E' 12-00-45-643
b'$GNGGA,170024.35,,,,,0,00,99.99,,,,,,*7E' 12-00-45-665
b'$GNVTG,,,,,,,,,N*2E' 12-00-45-686
b'$GNGGA,170024.40,,,,,0,00,99.99,,,,,,*7C' 12-00-45-707
b'$GNVTG,,,,,,,,,N*2E' 12-00-45-728
b'$GNGGA,170024.45,,,,,0,00,99.99,,,,,,*79' 12-00-45-750
b'$GNVTG,,,,,,,,,N*2E' 12-00-45-771
b'$GNGGA,170024.50,,,,,0,00,99.99,,,,,,*7D' 12-00-45-792
b'$GNVTG,,,,,,,,,N*2E' 12-00-45-813
b'$GNGGA,170024.55,,,,,0,00,99.99,,,,,,*78' 12-00-45-834
b'$GNVTG,,,,,,,,,N*2E' 12-00-45-856
b'$GNGGA,170024.60,,,,,0,00,99.99,,,,,,*7E' 12-00-45-879
b'$GNVTG,,,,,,,,,N*2E' 12-00-45-900
b'$GNGGA,170024.65,,,,,0,00,99.99,,,,,,*7B' 12-00-45-921
b'$GNVTG,,,,,,,,,N*2E' 12-00-45-942
b'$GNGGA,170024.70,,,,,0,00,99.99,,,,,,*7F' 12-00-45-964
b'$GNVTG,,,,,,,,,N*2E' 12-00-45-985
b'$GNGGA,170024.75,,,,,0,00,99.99,,,,,,*7A' 12-00-46-006
b'$GNVTG,,,,,,,,,N*2E' 12-00-46-027
b'$GNGGA,170024.80,,,,,0,00,99.99,,,,,,*70' 12-00-46-049
b'$GNVTG,,,,,,,,,N*2E' 12-00-46-077
b'$GNGGA,170024.85,,,,,0,00,99.99,,,,,,*75' 12-00-46-098
b'$GNVTG,,,,,,,,,N*2E' 12-00-46-127
b'$GNGGA,170024.90,,,,,0,00,99.99,,,,,,*71' 12-00-46-150
b'$GNVTG,,,,,,,,,N*2E' 12-00-46-181
b'$GNGGA,170024.95,,,,,0,00,99.99,,,,,,*74' 12-00-46-202
b'$GNVTG,,,,,,,,,N*2E' 12-00-46-227
b'$GNGGA,170025.00,,,,,0,00,99.99,,,,,,*79' 12-00-46-249
b'$GNVTG,,,,,,,,,N*2E' 12-00-46-277
b'$GNGGA,170025.05,,,,,0,00,99.99,,,,,,*7C' 12-00-46-299
b'$GNVTG,,,,,,,,,N*2E' 12-00-46-327
b'$GNGGA,170025.10,,,,,0,00,99.99,,,,,,*78' 12-00-46-348
b'$GNVTG,,,,,,,,,N*2E' 12-00-46-377
b'$GNGGA,170025.15,,,,,0,00,99.99,,,,,,*7D' 12-00-46-399
b'$GNVTG,,,,,,,,,N*2E' 12-00-46-427
b'$GNGGA,170025.20,,,,,0,00,99.99,,,,,,*7B' 12-00-46-449
b'$GNVTG,,,,,,,,,N*2E' 12-00-46-477
b'$GNGGA,170025.25,,,,,0,00,99.99,,,,,,*7E' 12-00-46-499
b'$GNVTG,,,,,,,,,N*2E' 12-00-46-527
b'$GNGGA,170025.30,,,,,0,00,99.99,,,,,,*7A' 12-00-46-549
b'$GNVTG,,,,,,,,,N*2E' 12-00-46-577
b'$GNGGA,170025.35,,,,,0,00,99.99,,,,,,*7F' 12-00-46-599
b'$GNVTG,,,,,,,,,N*2E' 12-00-46-627
b'$GNGGA,170025.40,,,,,0,00,99.99,,,,,,*7D' 12-00-46-649
b'$GNVTG,,,,,,,,,N*2E' 12-00-46-677
b'$GNGGA,170025.45,,,,,0,00,99.99,,,,,,*78' 12-00-46-699
b'$GNVTG,,,,,,,,,N*2E' 12-00-46-727
b'$GNGGA,170025.50,,,,,0,00,99.99,,,,,,*7C' 12-00-46-749
b'$GNVTG,,,,,,,,,N*2E' 12-00-46-777
b'$GNGGA,170025.55,,,,,0,00,99.99,,,,,,*79' 12-00-46-799
b'$GNVTG,,,,,,,,,N*2E' 12-00-46-827
b'$GNGGA,170025.60,,,,,0,00,99.99,,,,,,*7F' 12-00-46-849
b'$GNVTG,,,,,,,,,N*2E' 12-00-46-877
b'$GNGGA,170025.65,,,,,0,00,99.99,,,,,,*7A' 12-00-46-899
b'$GNVTG,,,,,,,,,N*2E' 12-00-46-927
b'$GNGGA,170025.70,,,,,0,00,99.99,,,,,,*7E' 12-00-46-949
b'$GNVTG,,,,,,,,,N*2E' 12-00-46-977
b'$GNGGA,170025.75,,,,,0,00,99.99,,,,,,*7B' 12-00-46-999
b'$GNVTG,,,,,,,,,N*2E' 12-00-47-027
b'$GNGGA,170025.80,,,,,0,00,99.99,,,,,,*71' 12-00-47-048
b'$GNVTG,,,,,,,,,N*2E' 12-00-47-077
b'$GNGGA,170025.85,,,,,0,00,99.99,,,,,,*74' 12-00-47-099
b'$GNVTG,,,,,,,,,N*2E' 12-00-47-127
b'$GNGGA,170025.90,,,,,0,00,99.99,,,,,,*70' 12-00-47-148
b'$GNVTG,,,,,,,,,N*2E' 12-00-47-181
b'$GNGGA,170025.95,,,,,0,00,99.99,,,,,,*75' 12-00-47-202
b'$GNVTG,,,,,,,,,N*2E' 12-00-47-227
b'$GNGGA,170026.00,,,,,0,00,99.99,,,,,,*7A' 12-00-47-250
b'$GNVTG,,,,,,,,,N*2E' 12-00-47-277
b'$GNGGA,170026.05,,,,,0,00,99.99,,,,,,*7F' 12-00-47-299
b'$GNVTG,,,,,,,,,N*2E' 12-00-47-327
b'$GNGGA,170026.10,,,,,0,00,99.99,,,,,,*7B' 12-00-47-349
b'$GNVTG,,,,,,,,,N*2E' 12-00-47-377
b'$GNGGA,170026.15,,,,,0,00,99.99,,,,,,*7E' 12-00-47-400
b'$GNVTG,,,,,,,,,N*2E' 12-00-47-427
b'$GNGGA,170026.20,,,,,0,00,99.99,,,,,,*78' 12-00-47-449
b'$GNVTG,,,,,,,,,N*2E' 12-00-47-477
b'$GNGGA,170026.25,,,,,0,00,99.99,,,,,,*7D' 12-00-47-499
b'$GNVTG,,,,,,,,,N*2E' 12-00-47-527
b'$GNGGA,170026.30,,,,,0,00,99.99,,,,,,*79' 12-00-47-549
b'$GNVTG,,,,,,,,,N*2E' 12-00-47-577
b'$GNGGA,170026.35,,,,,0,00,99.99,,,,,,*7C' 12-00-47-599
b'$GNVTG,,,,,,,,,N*2E' 12-00-47-628
b'$GNGGA,170026.40,,,,,0,00,99.99,,,,,,*7E' 12-00-47-649
b'$GNVTG,,,,,,,,,N*2E' 12-00-47-677
b'$GNGGA,170026.45,,,,,0,00,99.99,,,,,,*7B' 12-00-47-699
b'$GNVTG,,,,,,,,,N*2E' 12-00-47-727
b'$GNGGA,170026.50,,,,,0,00,99.99,,,,,,*7F' 12-00-47-749
b'$GNVTG,,,,,,,,,N*2E' 12-00-47-777
b'$GNGGA,170026.55,,,,,0,00,99.99,,,,,,*7A' 12-00-47-799
b'$GNVTG,,,,,,,,,N*2E' 12-00-47-827
b'$GNGGA,170026.60,,,,,0,00,99.99,,,,,,*7C' 12-00-47-849
b'$GNVTG,,,,,,,,,N*2E' 12-00-47-877
b'$GNGGA,170026.65,,,,,0,00,99.99,,,,,,*79' 12-00-47-899
b'$GNVTG,,,,,,,,,N*2E' 12-00-47-927
b'$GNGGA,170026.70,,,,,0,00,99.99,,,,,,*7D' 12-00-47-949
b'$GNVTG,,,,,,,,,N*2E' 12-00-47-977
b'$GNGGA,170026.75,,,,,0,00,99.99,,,,,,*78' 12-00-47-999
b'$GNVTG,,,,,,,,,N*2E' 12-00-48-027
b'$GNGGA,170026.80,,,,,0,00,99.99,,,,,,*72' 12-00-48-049
b'$GNVTG,,,,,,,,,N*2E' 12-00-48-077
b'$GNGGA,170026.85,,,,,0,00,99.99,,,,,,*77' 12-00-48-099
b'$GNVTG,,,,,,,,,N*2E' 12-00-48-127
b'$GNGGA,170026.90,,,,,0,00,99.99,,,,,,*73' 12-00-48-149
b'$GNVTG,,,,,,,,,N*2E' 12-00-48-181
b'$GNGGA,170026.95,,,,,0,00,99.99,,,,,,*76' 12-00-48-203
b'$GNVTG,,,,,,,,,N*2E' 12-00-48-228
b'$GNGGA,170027.00,,,,,0,00,99.99,,,,,,*7B' 12-00-48-249
b'$GNVTG,,,,,,,,,N*2E' 12-00-48-277
b'$GNGGA,170027.05,,,,,0,00,99.99,,,,,,*7E' 12-00-48-299
b'$GNVTG,,,,,,,,,N*2E' 12-00-48-327
b'$GNGGA,170027.10,,,,,0,00,99.99,,,,,,*7A' 12-00-48-349
b'$GNVTG,,,,,,,,,N*2E' 12-00-48-377
b'$GNGGA,170027.15,,,,,0,00,99.99,,,,,,*7F' 12-00-48-399
b'$GNVTG,,,,,,,,,N*2E' 12-00-48-427
b'$GNGGA,170027.20,,,,,0,00,99.99,,,,,,*79' 12-00-48-449
b'$GNVTG,,,,,,,,,N*2E' 12-00-48-477
b'$GNGGA,170027.25,,,,,0,00,99.99,,,,,,*7C' 12-00-48-499
b'$GNVTG,,,,,,,,,N*2E' 12-00-48-527
b'$GNGGA,170027.30,,,,,0,00,99.99,,,,,,*78' 12-00-48-549
b'$GNVTG,,,,,,,,,N*2E' 12-00-48-577
b'$GNGGA,170027.35,,,,,0,00,99.99,,,,,,*7D' 12-00-48-599
b'$GNVTG,,,,,,,,,N*2E' 12-00-48-627
b'$GNGGA,170027.40,,,,,0,00,99.99,,,,,,*7F' 12-00-48-649
b'$GNVTG,,,,,,,,,N*2E' 12-00-48-677
b'$GNGGA,170027.45,,,,,0,00,99.99,,,,,,*7A' 12-00-48-700
b'$GNVTG,,,,,,,,,N*2E' 12-00-48-727
b'$GNGGA,170027.50,,,,,0,00,99.99,,,,,,*7E' 12-00-48-748
b'$GNVTG,,,,,,,,,N*2E' 12-00-48-777
b'$GNGGA,170027.55,,,,,0,00,99.99,,,,,,*7B' 12-00-48-799
b'$GNVTG,,,,,,,,,N*2E' 12-00-48-827
b'$GNGGA,170027.60,,,,,0,00,99.99,,,,,,*7D' 12-00-48-849
b'$GNVTG,,,,,,,,,N*2E' 12-00-48-877
b'$GNGGA,170027.65,,,,,0,00,99.99,,,,,,*78' 12-00-48-899
b'$GNVTG,,,,,,,,,N*2E' 12-00-48-927
b'$GNGGA,170027.70,,,,,0,00,99.99,,,,,,*7C' 12-00-48-949
b'$GNVTG,,,,,,,,,N*2E' 12-00-48-977
b'$GNGGA,170027.75,,,,,0,00,99.99,,,,,,*79' 12-00-48-999
b'$GNVTG,,,,,,,,,N*2E' 12-00-49-027
b'$GNGGA,170027.80,,,,,0,00,99.99,,,,,,*73' 12-00-49-049
b'$GNVTG,,,,,,,,,N*2E' 12-00-49-077
b'$GNGGA,170027.85,,,,,0,00,99.99,,,,,,*76' 12-00-49-099
b'$GNVTG,,,,,,,,,N*2E' 12-00-49-127
b'$GNGGA,170027.90,,,,,0,00,99.99,,,,,,*72' 12-00-49-149
b'$GNVTG,,,,,,,,,N*2E' 12-00-49-181
b'$GNGGA,170027.95,,,,,0,00,99.99,,,,,,*77' 12-00-49-203
b'$GNVTG,,,,,,,,,N*2E' 12-00-49-227
b'$GNGGA,170028.00,,,,,0,00,99.99,,,,,,*74' 12-00-49-249
b'$GNVTG,,,,,,,,,N*2E' 12-00-49-278
b'$GNGGA,170028.05,,,,,0,00,99.99,,,,,,*71' 12-00-49-299
b'$GNVTG,,,,,,,,,N*2E' 12-00-49-327
b'$GNGGA,170028.10,,,,,0,00,99.99,,,,,,*75' 12-00-49-349
b'$GNVTG,,,,,,,,,N*2E' 12-00-49-378
b'$GNGGA,170028.15,,,,,0,00,99.99,,,,,,*70' 12-00-49-400
b'$GNVTG,,,,,,,,,N*2E' 12-00-49-427
b'$GNGGA,170028.20,,,,,0,00,99.99,,,,,,*76' 12-00-49-449
b'$GNVTG,,,,,,,,,N*2E' 12-00-49-478
b'$GNGGA,170028.25,,,,,0,00,99.99,,,,,,*73' 12-00-49-499
b'$GNVTG,,,,,,,,,N*2E' 12-00-49-527
b'$GNGGA,170028.30,,,,,0,00,99.99,,,,,,*77' 12-00-49-549
b'$GNVTG,,,,,,,,,N*2E' 12-00-49-578
b'$GNGGA,170028.35,,,,,0,00,99.99,,,,,,*72' 12-00-49-599
b'$GNVTG,,,,,,,,,N*2E' 12-00-49-627
b'$GNGGA,170028.40,,,,,0,00,99.99,,,,,,*70' 12-00-49-649
b'$GNVTG,,,,,,,,,N*2E' 12-00-49-678
b'$GNGGA,170028.45,,,,,0,00,99.99,,,,,,*75' 12-00-49-699
b'$GNVTG,,,,,,,,,N*2E' 12-00-49-727
b'$GNGGA,170028.50,,,,,0,00,99.99,,,,,,*71' 12-00-49-749
b'$GNVTG,,,,,,,,,N*2E' 12-00-49-777
b'$GNGGA,170028.55,,,,,0,00,99.99,,,,,,*74' 12-00-49-799
b'$GNVTG,,,,,,,,,N*2E' 12-00-49-827
b'$GNGGA,170028.60,,,,,0,00,99.99,,,,,,*72' 12-00-49-849
b'$GNVTG,,,,,,,,,N*2E' 12-00-49-877
b'$GNGGA,170028.65,,,,,0,00,99.99,,,,,,*77' 12-00-49-899
b'$GNVTG,,,,,,,,,N*2E' 12-00-49-927
b'$GNGGA,170028.70,,,,,0,00,99.99,,,,,,*73' 12-00-49-949
b'$GNVTG,,,,,,,,,N*2E' 12-00-49-977
b'$GNGGA,170028.75,,,,,0,00,99.99,,,,,,*76' 12-00-49-999
b'$GNVTG,,,,,,,,,N*2E' 12-00-50-027
b'$GNGGA,170028.80,,,,,0,00,99.99,,,,,,*7C' 12-00-50-049
b'$GNVTG,,,,,,,,,N*2E' 12-00-50-077
b'$GNGGA,170028.85,,,,,0,00,99.99,,,,,,*79' 12-00-50-099
b'$GNVTG,,,,,,,,,N*2E' 12-00-50-127
b'$GNGGA,170028.90,,,,,0,00,99.99,,,,,,*7D' 12-00-50-150
b'$GNVTG,,,,,,,,,N*2E' 12-00-50-181
b'$GNGGA,170028.95,,,,,0,00,99.99,,,,,,*78' 12-00-50-204
b'$GNVTG,,,,,,,,,N*2E' 12-00-50-228
b'$GNGGA,170029.00,,,,,0,00,99.99,,,,,,*75' 12-00-50-251
b'$GNVTG,,,,,,,,,N*2E' 12-00-50-278
b'$GNGGA,170029.05,,,,,0,00,99.99,,,,,,*70' 12-00-50-302
b'$GNVTG,,,,,,,,,N*2E' 12-00-50-328
b'$GNGGA,170029.10,,,,,0,00,99.99,,,,,,*74' 12-00-50-350
b'$GNVTG,,,,,,,,,N*2E' 12-00-50-377
b'$GNGGA,170029.15,,,,,0,00,99.99,,,,,,*71' 12-00-50-399
b'$GNVTG,,,,,,,,,N*2E' 12-00-50-427
b'$GNGGA,170029.20,,,,,0,00,99.99,,,,,,*77' 12-00-50-449
b'$GNVTG,,,,,,,,,N*2E' 12-00-50-477
b'$GNGGA,170029.25,,,,,0,00,99.99,,,,,,*72' 12-00-50-499
b'$GNVTG,,,,,,,,,N*2E' 12-00-50-528
b'$GNGGA,170029.30,,,,,0,00,99.99,,,,,,*76' 12-00-50-549
b'$GNVTG,,,,,,,,,N*2E' 12-00-50-577
b'$GNGGA,170029.35,,,,,0,00,99.99,,,,,,*73' 12-00-50-599
b'$GNVTG,,,,,,,,,N*2E' 12-00-50-628
b'$GNGGA,170029.40,,,,,0,00,99.99,,,,,,*71' 12-00-50-649
b'$GNVTG,,,,,,,,,N*2E' 12-00-50-677
b'$GNGGA,170029.45,,,,,0,00,99.99,,,,,,*74' 12-00-50-699
b'$GNVTG,,,,,,,,,N*2E' 12-00-50-727
b'$GNGGA,170029.50,,,,,0,00,99.99,,,,,,*70' 12-00-50-749
b'$GNVTG,,,,,,,,,N*2E' 12-00-50-777
b'$GNGGA,170029.55,,,,,0,00,99.99,,,,,,*75' 12-00-50-799
b'$GNVTG,,,,,,,,,N*2E' 12-00-50-828
b'$GNGGA,170029.60,,,,,0,00,99.99,,,,,,*73' 12-00-50-850
b'$GNVTG,,,,,,,,,N*2E' 12-00-50-877
b'$GNGGA,170029.65,,,,,0,00,99.99,,,,,,*76' 12-00-50-900
b'$GNVTG,,,,,,,,,N*2E' 12-00-50-928
b'$GNGGA,170029.70,,,,,0,00,99.99,,,,,,*72' 12-00-50-949
b'$GNVTG,,,,,,,,,N*2E' 12-00-50-977
b'$GNGGA,170029.75,,,,,0,00,99.99,,,,,,*77' 12-00-50-999
b'$GNVTG,,,,,,,,,N*2E' 12-00-51-027
b'$GNGGA,170029.80,,,,,0,00,99.99,,,,,,*7D' 12-00-51-049
b'$GNVTG,,,,,,,,,N*2E' 12-00-51-078
b'$GNGGA,170029.85,,,,,0,00,99.99,,,,,,*78' 12-00-51-100
b'$GNVTG,,,,,,,,,N*2E' 12-00-51-128
b'$GNGGA,170029.90,,,,,0,00,99.99,,,,,,*7C' 12-00-51-149
b'$GNVTG,,,,,,,,,N*2E' 12-00-51-181
b'$GNGGA,170029.95,,,,,0,00,99.99,,,,,,*79' 12-00-51-203
b'$GNVTG,,,,,,,,,N*2E' 12-00-51-228
b'$GNGGA,170030.00,,,,,0,00,99.99,,,,,,*7D' 12-00-51-250
b'$GNVTG,,,,,,,,,N*2E' 12-00-51-278
b'$GNGGA,170030.05,,,,,0,00,99.99,,,,,,*78' 12-00-51-299
b'$GNVTG,,T,,M,0.401,N,0.742,K,A*39' 12-00-51-355
b'$GNGGA,170030.10,4005.68114,N,08814.36229,W,1,05,5.68,228.8,M,-33.2,M,,*77' 12-00-51-378
b'$GNVTG,,T,,M,0.564,N,1.044,K,A*3B' 12-00-51-400
b'$GNGGA,170030.15,4005.68116,N,08814.36228,W,1,05,5.68,228.7,M,-33.2,M,,*7E' 12-00-51-423
b'$GNVTG,348.28,T,,M,0.384,N,0.712,K,A*2D' 12-00-51-445
b'$GNGGA,170030.20,4005.68115,N,08814.36227,W,1,05,5.68,228.7,M,-33.2,M,,*74' 12-00-51-468
b'$GNVTG,,T,,M,0.222,N,0.412,K,A*38' 12-00-51-490
b'$GNGGA,170030.25,4005.68113,N,08814.36227,W,1,05,5.68,228.6,M,-33.2,M,,*76' 12-00-51-512
b'$GNVTG,,T,,M,0.085,N,0.158,K,A*3C' 12-00-51-535
b'$GNGGA,170030.30,4005.68111,N,08814.36226,W,1,05,5.68,228.6,M,-33.2,M,,*71' 12-00-51-557
b'$GNVTG,,T,,M,0.363,N,0.672,K,A*38' 12-00-51-581
b'$GNGGA,170030.35,4005.68107,N,08814.36225,W,1,05,5.68,228.5,M,-33.2,M,,*73' 12-00-51-605
b'$GNVTG,73.98,T,,M,0.276,N,0.511,K,A*10' 12-00-51-632
b'$GNGGA,170030.40,4005.68105,N,08814.36224,W,1,05,5.68,228.4,M,-33.2,M,,*73' 12-00-51-655
b'$GNVTG,,T,,M,0.162,N,0.299,K,A*3A' 12-00-51-682
b'$GNGGA,170030.45,4005.68102,N,08814.36222,W,1,05,5.68,228.4,M,-33.2,M,,*77' 12-00-51-705
b'$GNVTG,,T,,M,0.045,N,0.084,K,A*30' 12-00-51-732
b'$GNGGA,170030.50,4005.68094,N,08814.36217,W,1,05,5.69,228.2,M,-33.2,M,,*7C' 12-00-51-755
b'$GNVTG,,T,,M,0.024,N,0.045,K,A*3A' 12-00-51-783
b'$GNGGA,170030.55,4005.68087,N,08814.36214,W,1,05,5.69,228.0,M,-33.2,M,,*7A' 12-00-51-806
b'$GNVTG,,T,,M,0.013,N,0.024,K,A*39' 12-00-51-832
b'$GNGGA,170030.60,4005.68081,N,08814.36211,W,1,05,5.69,227.9,M,-33.2,M,,*79' 12-00-51-855
b'$GNVTG,,T,,M,0.028,N,0.052,K,A*30' 12-00-51-882
b'$GNGGA,170030.65,4005.68081,N,08814.36211,W,1,05,5.69,227.9,M,-33.2,M,,*7C' 12-00-51-905
b'$GNVTG,,T,,M,0.041,N,0.077,K,A*38' 12-00-51-932
b'$GNGGA,170030.70,4005.68082,N,08814.36212,W,1,05,5.69,227.9,M,-33.2,M,,*78' 12-00-51-955
b'$GNVTG,,T,,M,0.048,N,0.090,K,A*38' 12-00-51-982
b'$GNGGA,170030.75,4005.68082,N,08814.36212,W,1,05,5.69,227.9,M,-33.2,M,,*7D' 12-00-52-005
b'$GNVTG,,T,,M,0.042,N,0.078,K,A*34' 12-00-52-031
b'$GNGGA,170030.80,4005.68082,N,08814.36212,W,1,05,5.69,227.9,M,-33.2,M,,*77' 12-00-52-054
b'$GNVTG,,T,,M,0.058,N,0.108,K,A*39' 12-00-52-082
b'$GNGGA,170030.85,4005.68083,N,08814.36213,W,1,05,5.69,227.9,M,-33.2,M,,*72' 12-00-52-105
b'$GNVTG,,T,,M,0.114,N,0.212,K,A*38' 12-00-52-132
b'$GNGGA,170030.90,4005.68105,N,08814.36225,W,1,05,5.69,228.4,M,-33.2,M,,*7E' 12-00-52-155
b'$GNVTG,,T,,M,0.060,N,0.111,K,A*3A' 12-00-52-182
b'$GNGGA,170030.95,4005.68122,N,08814.36234,W,1,05,5.69,228.8,M,-33.2,M,,*72' 12-00-52-205
b'$GNVTG,,T,,M,0.183,N,0.340,K,A*30' 12-00-52-235
b'$GNGGA,170031.00,4005.68136,N,08814.36241,W,1,05,5.69,229.1,M,-33.2,M,,*70' 12-00-52-258
b'$GNVTG,,T,,M,0.090,N,0.167,K,A*34' 12-00-52-282
b'$GNGGA,170031.05,4005.68146,N,08814.36247,W,1,05,5.69,229.3,M,-33.2,M,,*76' 12-00-52-305
b'$GNVTG,,T,,M,0.203,N,0.375,K,A*3D' 12-00-52-332
b'$GNGGA,170031.10,4005.68156,N,08814.36253,W,1,05,5.69,229.6,M,-33.2,M,,*73' 12-00-52-355
b'$GNVTG,,T,,M,0.223,N,0.413,K,A*38' 12-00-52-382
b'$GNGGA,170031.15,4005.68164,N,08814.36257,W,1,05,5.69,229.8,M,-33.2,M,,*7D' 12-00-52-405
b'$GNVTG,,T,,M,0.049,N,0.091,K,A*38' 12-00-52-432
b'$GNGGA,170031.20,4005.68161,N,08814.36256,W,1,05,5.69,229.7,M,-33.2,M,,*70' 12-00-52-455
b'$GNVTG,,T,,M,0.055,N,0.101,K,A*3D' 12-00-52-482
b'$GNGGA,170031.25,4005.68160,N,08814.36255,W,1,05,5.69,229.7,M,-33.2,M,,*77' 12-00-52-505
b'$GNVTG,,T,,M,0.051,N,0.094,K,A*34' 12-00-52-532
b'$GNGGA,170031.30,4005.68158,N,08814.36255,W,1,05,5.69,229.6,M,-33.2,M,,*79' 12-00-52-555
b'$GNVTG,,T,,M,0.018,N,0.034,K,A*33' 12-00-52-582
b'$GNGGA,170031.35,4005.68156,N,08814.36254,W,1,05,5.69,229.6,M,-33.2,M,,*73' 12-00-52-605
b'$GNVTG,,T,,M,0.053,N,0.098,K,A*3A' 12-00-52-632
b'$GNGGA,170031.40,4005.68156,N,08814.36254,W,1,05,5.69,229.6,M,-33.2,M,,*71' 12-00-52-655
b'$GNVTG,,T,,M,0.025,N,0.046,K,A*38' 12-00-52-682
b'$GNGGA,170031.45,4005.68154,N,08814.36253,W,1,05,5.69,229.5,M,-33.2,M,,*72' 12-00-52-704
b'$GNVTG,,T,,M,0.059,N,0.109,K,A*39' 12-00-52-732
b'$GNGGA,170031.50,4005.68153,N,08814.36253,W,1,05,5.69,229.5,M,-33.2,M,,*71' 12-00-52-755
b'$GNVTG,,T,,M,0.051,N,0.095,K,A*35' 12-00-52-782
b'$GNGGA,170031.55,4005.68152,N,08814.36252,W,1,05,5.70,229.5,M,-33.2,M,,*7C' 12-00-52-804
b'$GNVTG,,T,,M,0.073,N,0.135,K,A*3E' 12-00-52-832
b'$GNGGA,170031.60,4005.68151,N,08814.36252,W,1,05,5.70,229.4,M,-33.2,M,,*78' 12-00-52-855
b'$GNVTG,,T,,M,0.127,N,0.236,K,A*3E' 12-00-52-882
b'$GNGGA,170031.65,4005.68150,N,08814.36251,W,1,05,5.70,229.4,M,-33.2,M,,*7F' 12-00-52-905
b'$GNVTG,,T,,M,0.220,N,0.408,K,A*31' 12-00-52-931
b'$GNGGA,170031.70,4005.68149,N,08814.36251,W,1,05,5.70,229.4,M,-33.2,M,,*73' 12-00-52-954
b'$GNVTG,,T,,M,0.089,N,0.165,K,A*3E' 12-00-52-982
b'$GNGGA,170031.75,4005.68146,N,08814.36250,W,1,05,5.70,229.3,M,-33.2,M,,*7F' 12-00-53-006
b'$GNVTG,,T,,M,0.013,N,0.024,K,A*39' 12-00-53-032
b'$GNGGA,170031.80,4005.68143,N,08814.36249,W,1,05,5.70,229.3,M,-33.2,M,,*78' 12-00-53-055
b'$GNVTG,,T,,M,0.027,N,0.050,K,A*3D' 12-00-53-082
b'$GNGGA,170031.85,4005.68142,N,08814.36248,W,1,05,5.70,229.2,M,-33.2,M,,*7C' 12-00-53-105
b'$GNVTG,,T,,M,0.057,N,0.106,K,A*38' 12-00-53-132
b'$GNGGA,170031.90,4005.68141,N,08814.36248,W,1,05,5.70,229.2,M,-33.2,M,,*7B' 12-00-53-155
b'$GNVTG,,T,,M,0.122,N,0.227,K,A*3B' 12-00-53-182
b'$GNGGA,170031.95,4005.68140,N,08814.36247,W,1,05,5.70,229.2,M,-33.2,M,,*70' 12-00-53-206
b'$GNVTG,,T,,M,0.093,N,0.173,K,A*32' 12-00-53-235
b'$GNGGA,170032.00,4005.68139,N,08814.36247,W,1,05,5.70,229.1,M,-33.2,M,,*72' 12-00-53-259
b'$GNVTG,,T,,M,0.101,N,0.188,K,A*3C' 12-00-53-282
b'$GNGGA,170032.05,4005.68138,N,08814.36247,W,1,05,5.70,229.1,M,-33.2,M,,*76' 12-00-53-305
b'$GNVTG,,T,,M,0.102,N,0.188,K,A*3F' 12-00-53-332
b'$GNGGA,170032.10,4005.68135,N,08814.36246,W,1,05,5.70,229.1,M,-33.2,M,,*7E' 12-00-53-355
b'$GNVTG,,T,,M,0.052,N,0.096,K,A*35' 12-00-53-382
b'$GNGGA,170032.15,4005.68136,N,08814.36246,W,1,05,5.70,229.1,M,-33.2,M,,*78' 12-00-53-405
b'$GNVTG,,T,,M,0.111,N,0.205,K,A*3B' 12-00-53-432
b'$GNGGA,170032.20,4005.68136,N,08814.36246,W,1,05,5.70,229.1,M,-33.2,M,,*7E' 12-00-53-455
b'$GNVTG,,T,,M,0.001,N,0.001,K,A*3D' 12-00-53-482
b'$GNGGA,170032.25,4005.68134,N,08814.36246,W,1,05,5.70,229.0,M,-33.2,M,,*78' 12-00-53-505
b'$GNVTG,,T,,M,0.047,N,0.086,K,A*30' 12-00-53-532
b'$GNGGA,170032.30,4005.68133,N,08814.36245,W,1,05,5.70,229.0,M,-33.2,M,,*78' 12-00-53-555
b'$GNVTG,,T,,M,0.100,N,0.186,K,A*33' 12-00-53-582
b'$GNGGA,170032.35,4005.68133,N,08814.36245,W,1,05,5.70,229.0,M,-33.2,M,,*7D' 12-00-53-606
b'$GNVTG,,T,,M,0.160,N,0.296,K,A*37' 12-00-53-632
b'$GNGGA,170032.40,4005.68134,N,08814.36246,W,1,05,5.70,229.0,M,-33.2,M,,*7B' 12-00-53-655
b'$GNVTG,,T,,M,0.074,N,0.137,K,A*3B' 12-00-53-682
b'$GNGGA,170032.45,4005.68135,N,08814.36247,W,1,05,5.70,229.0,M,-33.2,M,,*7E' 12-00-53-705
b'$GNVTG,,T,,M,0.067,N,0.123,K,A*3C' 12-00-53-732
b'$GNGGA,170032.50,4005.68135,N,08814.36247,W,1,05,5.70,229.0,M,-33.2,M,,*7A' 12-00-53-755
b'$GNVTG,,T,,M,0.061,N,0.113,K,A*39' 12-00-53-782
b'$GNGGA,170032.55,4005.68134,N,08814.36247,W,1,05,5.70,229.0,M,-33.2,M,,*7E' 12-00-53-805
b'$GNVTG,,T,,M,0.188,N,0.348,K,A*33' 12-00-53-832
b'$GNGGA,170032.60,4005.68135,N,08814.36248,W,1,05,5.70,229.0,M,-33.2,M,,*76' 12-00-53-856
b'$GNVTG,,T,,M,0.115,N,0.213,K,A*38' 12-00-53-882
b'$GNGGA,170032.65,4005.68135,N,08814.36247,W,1,05,5.71,229.0,M,-33.2,M,,*7D' 12-00-53-905
b'$GNVTG,,T,,M,0.050,N,0.092,K,A*33' 12-00-53-933
b'$GNGGA,170032.70,4005.68140,N,08814.36250,W,1,05,5.71,229.2,M,-33.2,M,,*7F' 12-00-53-956
b'$GNVTG,,T,,M,0.126,N,0.234,K,A*3D' 12-00-53-982
b'$GNGGA,170032.75,4005.68144,N,08814.36252,W,1,05,5.71,229.3,M,-33.2,M,,*7D' 12-00-54-005
b'$GNVTG,,T,,M,0.055,N,0.102,K,A*3E' 12-00-54-033
b'$GNGGA,170032.80,4005.68149,N,08814.36255,W,1,05,5.71,229.4,M,-33.2,M,,*7A' 12-00-54-055
b'$GNVTG,,T,,M,0.139,N,0.258,K,A*39' 12-00-54-082
b'$GNGGA,170032.85,4005.68153,N,08814.36257,W,1,05,5.71,229.5,M,-33.2,M,,*77' 12-00-54-105
b'$GNVTG,,T,,M,0.157,N,0.290,K,A*35' 12-00-54-132
b'$GNGGA,170032.90,4005.68156,N,08814.36259,W,1,05,5.71,229.5,M,-33.2,M,,*78' 12-00-54-155
b'$GNVTG,,T,,M,0.056,N,0.103,K,A*3C' 12-00-54-182
b'$GNGGA,170032.95,4005.68159,N,08814.36261,W,1,05,5.71,229.6,M,-33.2,M,,*7A' 12-00-54-206
b'$GNVTG,,T,,M,0.078,N,0.144,K,A*33' 12-00-54-237
b'$GNGGA,170033.00,4005.68162,N,08814.36262,W,1,05,5.71,229.7,M,-33.2,M,,*7D' 12-00-54-259
b'$GNVTG,,T,,M,0.035,N,0.066,K,A*3B' 12-00-54-282
b'$GNGGA,170033.05,4005.68164,N,08814.36264,W,1,05,5.71,229.8,M,-33.2,M,,*77' 12-00-54-305
b'$GNVTG,,T,,M,0.057,N,0.106,K,A*38' 12-00-54-333
b'$GNGGA,170033.10,4005.68167,N,08814.36266,W,1,05,5.71,229.8,M,-33.2,M,,*72' 12-00-54-356
b'$GNVTG,,T,,M,0.047,N,0.087,K,A*31' 12-00-54-382
b'$GNGGA,170033.15,4005.68167,N,08814.36266,W,1,05,5.71,229.8,M,-33.2,M,,*77' 12-00-54-406
b'$GNVTG,,T,,M,0.078,N,0.144,K,A*33' 12-00-54-433
b'$GNGGA,170033.20,4005.68166,N,08814.36265,W,1,05,5.71,229.8,M,-33.2,M,,*73' 12-00-54-456
b'$GNVTG,,T,,M,0.069,N,0.128,K,A*39' 12-00-54-482
b'$GNGGA,170033.25,4005.68166,N,08814.36265,W,1,05,5.71,229.8,M,-33.2,M,,*76' 12-00-54-505
b'$GNVTG,,T,,M,0.056,N,0.104,K,A*3B' 12-00-54-533
b'$GNGGA,170033.30,4005.68167,N,08814.36266,W,1,05,5.71,229.8,M,-33.2,M,,*70' 12-00-54-556
b'$GNVTG,,T,,M,0.024,N,0.044,K,A*3B' 12-00-54-582
b'$GNGGA,170033.35,4005.68168,N,08814.36266,W,1,05,5.71,229.8,M,-33.2,M,,*7A' 12-00-54-605
b'$GNVTG,,T,,M,0.080,N,0.148,K,A*38' 12-00-54-633
b'$GNGGA,170033.40,4005.68168,N,08814.36266,W,1,05,5.71,229.8,M,-33.2,M,,*78' 12-00-54-656
b'$GNVTG,,T,,M,0.084,N,0.156,K,A*33' 12-00-54-682
b'$GNGGA,170033.45,4005.68168,N,08814.36267,W,1,05,5.71,229.8,M,-33.2,M,,*7C' 12-00-54-705
b'$GNVTG,,T,,M,0.027,N,0.050,K,A*3D' 12-00-54-732
b'$GNGGA,170033.50,4005.68168,N,08814.36266,W,1,05,5.71,229.8,M,-33.2,M,,*79' 12-00-54-755
b'$GNVTG,,T,,M,0.110,N,0.204,K,A*3B' 12-00-54-782
b'$GNGGA,170033.55,4005.68169,N,08814.36267,W,1,05,5.71,229.9,M,-33.2,M,,*7D' 12-00-54-805
b'$GNVTG,,T,,M,0.184,N,0.342,K,A*35' 12-00-54-833
b'$GNGGA,170033.60,4005.68170,N,08814.36267,W,1,05,5.71,229.9,M,-33.2,M,,*73' 12-00-54-856
b'$GNVTG,,T,,M,0.142,N,0.262,K,A*3C' 12-00-54-882
b'$GNGGA,170033.65,4005.68170,N,08814.36267,W,1,05,5.71,229.9,M,-33.2,M,,*76' 12-00-54-906
b'$GNVTG,,T,,M,0.063,N,0.117,K,A*3F' 12-00-54-933
b'$GNGGA,170033.70,4005.68170,N,08814.36267,W,1,05,5.71,229.9,M,-33.2,M,,*72' 12-00-54-955
b'$GNVTG,,T,,M,0.042,N,0.078,K,A*34' 12-00-54-982
b'$GNGGA,170033.75,4005.68170,N,08814.36267,W,1,05,5.72,229.9,M,-33.2,M,,*74' 12-00-55-005
b'$GNVTG,,T,,M,0.091,N,0.169,K,A*3B' 12-00-55-033
b'$GNGGA,170033.80,4005.68170,N,08814.36267,W,1,05,5.72,229.9,M,-33.2,M,,*7E' 12-00-55-057
b'$GNVTG,,T,,M,0.053,N,0.098,K,A*3A' 12-00-55-082
b'$GNGGA,170033.85,4005.68170,N,08814.36267,W,1,05,5.72,229.9,M,-33.2,M,,*7B' 12-00-55-105
b'$GNVTG,,T,,M,0.044,N,0.081,K,A*34' 12-00-55-133
b'$GNGGA,170033.90,4005.68170,N,08814.36267,W,1,05,5.72,229.9,M,-33.2,M,,*7F' 12-00-55-156
b'$GNVTG,,T,,M,0.053,N,0.099,K,A*3B' 12-00-55-182
b'$GNGGA,170033.95,4005.68170,N,08814.36267,W,1,05,5.72,229.9,M,-33.2,M,,*7A' 12-00-55-205
b'$GNVTG,,T,,M,0.068,N,0.126,K,A*36' 12-00-55-237
b'$GNGGA,170034.00,4005.68169,N,08814.36267,W,1,05,5.72,229.9,M,-33.2,M,,*79' 12-00-55-259
b'$GNVTG,,T,,M,0.077,N,0.143,K,A*3B' 12-00-55-283
b'$GNGGA,170034.05,4005.68170,N,08814.36267,W,1,05,5.72,229.9,M,-33.2,M,,*74' 12-00-55-305
b'$GNVTG,,T,,M,0.120,N,0.222,K,A*3C' 12-00-55-333
b'$GNGGA,170034.10,4005.68168,N,08814.36266,W,1,05,5.72,229.8,M,-33.2,M,,*79' 12-00-55-356
b'$GNVTG,,T,,M,0.058,N,0.108,K,A*39' 12-00-55-382
b'$GNGGA,170034.15,4005.68167,N,08814.36265,W,1,05,5.72,229.8,M,-33.2,M,,*70' 12-00-55-405
b'$GNVTG,,T,,M,0.035,N,0.065,K,A*38' 12-00-55-433
b'$GNGGA,170034.20,4005.68166,N,08814.36265,W,1,05,5.72,229.8,M,-33.2,M,,*77' 12-00-55-456
b'$GNVTG,,T,,M,0.066,N,0.122,K,A*3C' 12-00-55-483
b'$GNGGA,170034.25,4005.68165,N,08814.36264,W,1,05,5.72,229.8,M,-33.2,M,,*70' 12-00-55-506
b'$GNVTG,,T,,M,0.103,N,0.191,K,A*36' 12-00-55-533
b'$GNGGA,170034.30,4005.68165,N,08814.36265,W,1,05,5.72,229.8,M,-33.2,M,,*75' 12-00-55-556
b'$GNVTG,,T,,M,0.100,N,0.185,K,A*30' 12-00-55-583
b'$GNGGA,170034.35,4005.68164,N,08814.36264,W,1,05,5.72,229.7,M,-33.2,M,,*7F' 12-00-55-605
b'$GNVTG,,T,,M,0.053,N,0.098,K,A*3A' 12-00-55-632
b'$GNGGA,170034.40,4005.68162,N,08814.36263,W,1,05,5.72,229.7,M,-33.2,M,,*7C' 12-00-55-656
b'$GNVTG,,T,,M,0.151,N,0.280,K,A*32' 12-00-55-682
b'$GNGGA,170034.45,4005.68160,N,08814.36263,W,1,05,5.72,229.6,M,-33.2,M,,*7A' 12-00-55-705
b'$GNVTG,,T,,M,0.167,N,0.309,K,A*37' 12-00-55-734
b'$GNGGA,170034.50,4005.68160,N,08814.36263,W,1,05,5.72,229.7,M,-33.2,M,,*7F' 12-00-55-756
b'$GNVTG,,T,,M,0.014,N,0.027,K,A*3D' 12-00-55-782
b'$GNGGA,170034.55,4005.68160,N,08814.36263,W,1,05,5.72,229.7,M,-33.2,M,,*7A' 12-00-55-806
b'$GNVTG,,T,,M,0.083,N,0.154,K,A*36' 12-00-55-833
b'$GNGGA,170034.60,4005.68159,N,08814.36262,W,1,05,5.72,229.6,M,-33.2,M,,*76' 12-00-55-856
b'$GNVTG,,T,,M,0.127,N,0.235,K,A*3D' 12-00-55-883
b'$GNGGA,170034.65,4005.68157,N,08814.36261,W,1,05,5.72,229.6,M,-33.2,M,,*7E' 12-00-55-905
b'$GNVTG,,T,,M,0.110,N,0.204,K,A*3B' 12-00-55-934
b'$GNGGA,170034.70,4005.68155,N,08814.36260,W,1,05,5.72,229.5,M,-33.2,M,,*7A' 12-00-55-957
b'$GNVTG,,T,,M,0.064,N,0.118,K,A*37' 12-00-55-982
b'$GNGGA,170034.75,4005.68155,N,08814.36260,W,1,05,5.72,229.5,M,-33.2,M,,*7F' 12-00-56-005
b'$GNVTG,,T,,M,0.066,N,0.122,K,A*3C' 12-00-56-034
b'$GNGGA,170034.80,4005.68154,N,08814.36260,W,1,05,5.73,229.5,M,-33.2,M,,*75' 12-00-56-058
b'$GNVTG,,T,,M,0.090,N,0.167,K,A*34' 12-00-56-082
b'$GNGGA,170034.85,4005.68152,N,08814.36259,W,1,05,5.73,229.5,M,-33.2,M,,*7C' 12-00-56-105
b'$GNVTG,,T,,M,0.065,N,0.121,K,A*3C' 12-00-56-134
b'$GNGGA,170034.90,4005.68152,N,08814.36258,W,1,05,5.73,229.4,M,-33.2,M,,*78' 12-00-56-156
b'$GNVTG,,T,,M,0.055,N,0.101,K,A*3D' 12-00-56-183
b'$GNGGA,170034.95,4005.68151,N,08814.36257,W,1,05,5.73,229.4,M,-33.2,M,,*71' 12-00-56-205
b'$GNVTG,,T,,M,0.040,N,0.075,K,A*3B' 12-00-56-237
b'$GNGGA,170035.00,4005.68149,N,08814.36257,W,1,05,5.73,229.4,M,-33.2,M,,*75' 12-00-56-260
b'$GNVTG,,T,,M,0.062,N,0.115,K,A*3C' 12-00-56-282
b'$GNGGA,170035.05,4005.68149,N,08814.36256,W,1,05,5.73,229.4,M,-33.2,M,,*71' 12-00-56-305
b'$GNVTG,,T,,M,0.126,N,0.233,K,A*3A' 12-00-56-334
b'$GNGGA,170035.10,4005.68147,N,08814.36255,W,1,05,5.73,229.3,M,-33.2,M,,*7F' 12-00-56-357
b'$GNVTG,,T,,M,0.038,N,0.071,K,A*30' 12-00-56-382
b'$GNGGA,170035.15,4005.68146,N,08814.36255,W,1,05,5.73,229.3,M,-33.2,M,,*7B' 12-00-56-405
b'$GNVTG,,T,,M,0.102,N,0.190,K,A*36' 12-00-56-433
b'$GNGGA,170035.20,4005.68146,N,08814.36255,W,1,05,5.73,229.3,M,-33.2,M,,*7D' 12-00-56-457
b'$GNVTG,,T,,M,0.132,N,0.245,K,A*3E' 12-00-56-483
b'$GNGGA,170035.25,4005.68146,N,08814.36255,W,1,05,5.73,229.3,M,-33.2,M,,*78' 12-00-56-505
b'$GNVTG,,T,,M,0.043,N,0.080,K,A*32' 12-00-56-532
b'$GNGGA,170035.30,4005.68145,N,08814.36254,W,1,05,5.73,229.2,M,-33.2,M,,*7F' 12-00-56-555
b'$GNVTG,,T,,M,0.092,N,0.170,K,A*30' 12-00-56-582
b'$GNGGA,170035.35,4005.68143,N,08814.36253,W,1,05,5.73,229.2,M,-33.2,M,,*7B' 12-00-56-605
b'$GNVTG,,T,,M,0.061,N,0.114,K,A*3E' 12-00-56-633
b'$GNGGA,170035.40,4005.68142,N,08814.36253,W,1,05,5.73,229.2,M,-33.2,M,,*78' 12-00-56-656
b'$GNVTG,,T,,M,0.036,N,0.067,K,A*39' 12-00-56-682
b'$GNGGA,170035.45,4005.68142,N,08814.36253,W,1,05,5.73,229.2,M,-33.2,M,,*7D' 12-00-56-705
b'$GNVTG,,T,,M,0.091,N,0.168,K,A*3A' 12-00-56-733
b'$GNGGA,170035.50,4005.68142,N,08814.36253,W,1,05,5.73,229.2,M,-33.2,M,,*79' 12-00-56-755
b'$GNVTG,,T,,M,0.023,N,0.043,K,A*3B' 12-00-56-782
b'$GNGGA,170035.55,4005.68140,N,08814.36252,W,1,05,5.73,229.1,M,-33.2,M,,*7C' 12-00-56-805
b'$GNVTG,,T,,M,0.095,N,0.177,K,A*30' 12-00-56-833
b'$GNGGA,170035.60,4005.68139,N,08814.36251,W,1,05,5.73,229.1,M,-33.2,M,,*77' 12-00-56-855
b'$GNVTG,,T,,M,0.046,N,0.085,K,A*32' 12-00-56-882
b'$GNGGA,170035.65,4005.68138,N,08814.36250,W,1,05,5.73,229.1,M,-33.2,M,,*72' 12-00-56-905
b'$GNVTG,,T,,M,0.024,N,0.044,K,A*3B' 12-00-56-933
b'$GNGGA,170035.70,4005.68137,N,08814.36250,W,1,05,5.73,229.1,M,-33.2,M,,*79' 12-00-56-957
b'$GNVTG,,T,,M,0.081,N,0.150,K,A*30' 12-00-56-982
b'$GNGGA,170035.75,4005.68136,N,08814.36250,W,1,05,5.73,229.0,M,-33.2,M,,*7C' 12-00-57-005
b'$GNVTG,,T,,M,0.017,N,0.031,K,A*39' 12-00-57-032
b'$GNGGA,170035.80,4005.68135,N,08814.36249,W,1,05,5.73,229.0,M,-33.2,M,,*7D' 12-00-57-055
b'$GNVTG,,T,,M,0.062,N,0.114,K,A*3D' 12-00-57-082
b'$GNGGA,170035.85,4005.68135,N,08814.36249,W,1,05,5.73,229.0,M,-33.2,M,,*78' 12-00-57-105
b'$GNVTG,,T,,M,0.071,N,0.131,K,A*38' 12-00-57-132
b'$GNGGA,170035.90,4005.68133,N,08814.36248,W,1,05,5.74,229.0,M,-33.2,M,,*7C' 12-00-57-155
b'$GNVTG,,T,,M,0.053,N,0.098,K,A*3A' 12-00-57-182
b'$GNGGA,170035.95,4005.68132,N,08814.36248,W,1,05,5.74,229.0,M,-33.2,M,,*78' 12-00-57-205
b'$GNVTG,,T,,M,0.023,N,0.043,K,A*3B' 12-00-57-236
b'$GNGGA,170036.00,4005.68132,N,08814.36247,W,1,05,5.74,228.9,M,-33.2,M,,*70' 12-00-57-259
b'$GNVTG,,T,,M,0.025,N,0.046,K,A*38' 12-00-57-282
b'$GNGGA,170036.05,4005.68132,N,08814.36247,W,1,05,5.74,228.9,M,-33.2,M,,*75' 12-00-57-305
b'$GNVTG,,T,,M,0.077,N,0.142,K,A*3A' 12-00-57-333
b'$GNGGA,170036.10,4005.68131,N,08814.36247,W,1,05,5.74,228.9,M,-33.2,M,,*72' 12-00-57-356
b'$GNVTG,,T,,M,0.063,N,0.117,K,A*3F' 12-00-57-383
b'$GNGGA,170036.15,4005.68130,N,08814.36246,W,1,05,5.74,228.9,M,-33.2,M,,*77' 12-00-57-405
b'$GNVTG,,T,,M,0.071,N,0.132,K,A*3B' 12-00-57-432
b'$GNGGA,170036.20,4005.68129,N,08814.36246,W,1,05,5.74,228.9,M,-33.2,M,,*79' 12-00-57-455
b'$GNVTG,,T,,M,0.080,N,0.147,K,A*37' 12-00-57-482
b'$GNGGA,170036.25,4005.68129,N,08814.36246,W,1,05,5.74,228.9,M,-33.2,M,,*7C' 12-00-57-505
b'$GNVTG,,T,,M,0.055,N,0.102,K,A*3E' 12-00-57-533
b'$GNGGA,170036.30,4005.68129,N,08814.36246,W,1,05,5.74,228.9,M,-33.2,M,,*78' 12-00-57-556
b'$GNVTG,,T,,M,0.074,N,0.138,K,A*34' 12-00-57-582
b'$GNGGA,170036.35,4005.68128,N,08814.36245,W,1,05,5.74,228.8,M,-33.2,M,,*7E' 12-00-57-605
b'$GNVTG,,T,,M,0.157,N,0.291,K,A*34' 12-00-57-633
b'$GNGGA,170036.40,4005.68126,N,08814.36244,W,1,05,5.74,228.8,M,-33.2,M,,*73' 12-00-57-655
b'$GNVTG,,T,,M,0.100,N,0.186,K,A*33' 12-00-57-683
b'$GNGGA,170036.45,4005.68126,N,08814.36244,W,1,05,5.74,228.8,M,-33.2,M,,*76' 12-00-57-705
b'$GNVTG,,T,,M,0.058,N,0.107,K,A*36' 12-00-57-733
b'$GNGGA,170036.50,4005.68127,N,08814.36245,W,1,05,5.74,228.8,M,-33.2,M,,*72' 12-00-57-755
b'$GNVTG,,T,,M,0.014,N,0.025,K,A*3F' 12-00-57-783
b'$GNGGA,170036.55,4005.68126,N,08814.36244,W,1,05,5.74,228.8,M,-33.2,M,,*77' 12-00-57-806
b'$GNVTG,,T,,M,0.056,N,0.103,K,A*3C' 12-00-57-833
b'$GNGGA,170036.60,4005.68125,N,08814.36244,W,1,05,5.74,228.8,M,-33.2,M,,*72' 12-00-57-857
b'$GNVTG,,T,,M,0.039,N,0.073,K,A*33' 12-00-57-882
b'$GNGGA,170036.65,4005.68124,N,08814.36243,W,1,05,5.74,228.8,M,-33.2,M,,*71' 12-00-57-905
b'$GNVTG,,T,,M,0.061,N,0.114,K,A*3E' 12-00-57-934
b'$GNGGA,170036.70,4005.68123,N,08814.36243,W,1,05,5.74,228.8,M,-33.2,M,,*72' 12-00-57-957
b'$GNVTG,,T,,M,0.004,N,0.008,K,A*31' 12-00-57-983
b'$GNGGA,170036.75,4005.68124,N,08814.36243,W,1,05,5.74,228.8,M,-33.2,M,,*70' 12-00-58-005
b'$GNVTG,,T,,M,0.100,N,0.185,K,A*30' 12-00-58-033
b'$GNGGA,170036.80,4005.68121,N,08814.36241,W,1,05,5.74,228.7,M,-33.2,M,,*72' 12-00-58-056
b'$GNVTG,,T,,M,0.173,N,0.321,K,A*38' 12-00-58-083
b'$GNGGA,170036.85,4005.68121,N,08814.36241,W,1,05,5.74,228.7,M,-33.2,M,,*77' 12-00-58-105
b'$GNVTG,,T,,M,0.053,N,0.099,K,A*3B' 12-00-58-133
b'$GNGGA,170036.90,4005.68121,N,08814.36241,W,1,05,5.74,228.7,M,-33.2,M,,*73' 12-00-58-156
b'$GNVTG,,T,,M,0.032,N,0.059,K,A*30' 12-00-58-183
b'$GNGGA,170036.95,4005.68122,N,08814.36242,W,1,05,5.75,228.7,M,-33.2,M,,*77' 12-00-58-206
b'$GNVTG,,T,,M,0.052,N,0.097,K,A*34' 12-00-58-237
b'$GNGGA,170037.00,4005.68121,N,08814.36241,W,1,05,5.75,228.7,M,-33.2,M,,*7A' 12-00-58-261
b'$GNVTG,,T,,M,0.029,N,0.054,K,A*37' 12-00-58-283
b'$GNGGA,170037.05,4005.68120,N,08814.36241,W,1,05,5.75,228.7,M,-33.2,M,,*7E' 12-00-58-305
b'$GNVTG,,T,,M,0.019,N,0.035,K,A*33' 12-00-58-332
b'$GNGGA,170037.10,4005.68119,N,08814.36240,W,1,05,5.75,228.7,M,-33.2,M,,*71' 12-00-58-355
b'$GNVTG,,T,,M,0.082,N,0.152,K,A*31' 12-00-58-382
b'$GNGGA,170037.15,4005.68120,N,08814.36240,W,1,05,5.75,228.7,M,-33.2,M,,*7E' 12-00-58-406
b'$GNVTG,,T,,M,0.064,N,0.118,K,A*37' 12-00-58-433
b'$GNGGA,170037.20,4005.68117,N,08814.36240,W,1,05,5.75,228.6,M,-33.2,M,,*7D' 12-00-58-456
b'$GNVTG,,T,,M,0.050,N,0.093,K,A*32' 12-00-58-482
b'$GNGGA,170037.25,4005.68117,N,08814.36239,W,1,05,5.75,228.6,M,-33.2,M,,*76' 12-00-58-505
b'$GNVTG,,T,,M,0.042,N,0.077,K,A*3B' 12-00-58-533
b'$GNGGA,170037.30,4005.68117,N,08814.36239,W,1,05,5.75,228.6,M,-33.2,M,,*72' 12-00-58-556
b'$GNVTG,,T,,M,0.015,N,0.028,K,A*33' 12-00-58-582
b'$GNGGA,170037.35,4005.68116,N,08814.36239,W,1,05,5.75,228.6,M,-33.2,M,,*76' 12-00-58-605
b'$GNVTG,,T,,M,0.012,N,0.023,K,A*3F' 12-00-58-633
b'$GNGGA,170037.40,4005.68115,N,08814.36239,W,1,05,5.75,228.6,M,-33.2,M,,*77' 12-00-58-656
b'$GNVTG,,T,,M,0.057,N,0.105,K,A*3B' 12-00-58-682
b'$GNGGA,170037.45,4005.68115,N,08814.36239,W,1,05,5.75,228.6,M,-33.2,M,,*72' 12-00-58-706
b'$GNVTG,,T,,M,0.045,N,0.084,K,A*30' 12-00-58-733
b'$GNGGA,170037.50,4005.68115,N,08814.36238,W,1,05,5.75,228.5,M,-33.2,M,,*74' 12-00-58-755
b'$GNVTG,,T,,M,0.080,N,0.147,K,A*37' 12-00-58-782
b'$GNGGA,170037.55,4005.68115,N,08814.36238,W,1,05,5.75,228.5,M,-33.2,M,,*71' 12-00-58-805
b'$GNVTG,,T,,M,0.083,N,0.154,K,A*36' 12-00-58-833
b'$GNGGA,170037.60,4005.68114,N,08814.36238,W,1,05,5.75,228.5,M,-33.2,M,,*76' 12-00-58-856
b'$GNVTG,,T,,M,0.151,N,0.280,K,A*32' 12-00-58-882
b'$GNGGA,170037.65,4005.68113,N,08814.36238,W,1,05,5.75,228.5,M,-33.2,M,,*74' 12-00-58-905
b'$GNVTG,,T,,M,0.147,N,0.273,K,A*39' 12-00-58-932
b'$GNGGA,170037.70,4005.68111,N,08814.36237,W,1,05,5.75,228.5,M,-33.2,M,,*7D' 12-00-58-956
b'$GNVTG,,T,,M,0.091,N,0.169,K,A*3B' 12-00-58-982
b'$GNGGA,170037.75,4005.68112,N,08814.36238,W,1,05,5.75,228.5,M,-33.2,M,,*74' 12-00-59-005
b'$GNVTG,,T,,M,0.072,N,0.134,K,A*3E' 12-00-59-033
b'$GNGGA,170037.80,4005.68112,N,08814.36237,W,1,05,5.75,228.5,M,-33.2,M,,*71' 12-00-59-055
b'$GNVTG,,T,,M,0.107,N,0.197,K,A*34' 12-00-59-082
b'$GNGGA,170037.85,4005.68111,N,08814.36237,W,1,05,5.75,228.5,M,-33.2,M,,*77' 12-00-59-105
b'$GNVTG,,T,,M,0.101,N,0.187,K,A*33' 12-00-59-132
b'$GNGGA,170037.90,4005.68111,N,08814.36237,W,1,05,5.75,228.5,M,-33.2,M,,*73' 12-00-59-155
b'$GNVTG,,T,,M,0.170,N,0.315,K,A*3C' 12-00-59-182
b'$GNGGA,170037.95,4005.68111,N,08814.36237,W,1,05,5.75,228.5,M,-33.2,M,,*76' 12-00-59-205
b'$GNVTG,,T,,M,0.076,N,0.141,K,A*38' 12-00-59-235
b'$GNGGA,170038.00,4005.68111,N,08814.36237,W,1,05,5.75,228.5,M,-33.2,M,,*75' 12-00-59-258
b'$GNVTG,,T,,M,0.051,N,0.095,K,A*35' 12-00-59-282
b'$GNGGA,170038.05,4005.68112,N,08814.36237,W,1,05,5.76,228.5,M,-33.2,M,,*70' 12-00-59-305
b'$GNVTG,,T,,M,0.047,N,0.087,K,A*31' 12-00-59-337
b'$GNGGA,170038.10,4005.68112,N,08814.36237,W,1,05,5.76,228.5,M,-33.2,M,,*74' 12-00-59-361
b'$GNVTG,,T,,M,0.075,N,0.139,K,A*34' 12-00-59-383
b'$GNGGA,170038.15,4005.68112,N,08814.36237,W,1,05,5.76,228.5,M,-33.2,M,,*71' 12-00-59-406
b'$GNVTG,,T,,M,0.048,N,0.088,K,A*31' 12-00-59-433
b'$GNGGA,170038.20,4005.68111,N,08814.36237,W,1,05,5.76,228.5,M,-33.2,M,,*74' 12-00-59-456
b'$GNVTG,,T,,M,0.106,N,0.196,K,A*34' 12-00-59-483
b'$GNGGA,170038.25,4005.68110,N,08814.36236,W,1,05,5.76,228.4,M,-33.2,M,,*70' 12-00-59-506
b'$GNVTG,,T,,M,0.057,N,0.106,K,A*38' 12-00-59-533
b'$GNGGA,170038.30,4005.68111,N,08814.36237,W,1,05,5.76,228.5,M,-33.2,M,,*75' 12-00-59-557
b'$GNVTG,,T,,M,0.057,N,0.105,K,A*3B' 12-00-59-583
b'$GNGGA,170038.35,4005.68112,N,08814.36237,W,1,05,5.76,228.5,M,-33.2,M,,*73' 12-00-59-605
b'$GNVTG,,T,,M,0.064,N,0.118,K,A*37' 12-00-59-633
b'$GNGGA,170038.40,4005.68111,N,08814.36237,W,1,05,5.76,228.5,M,-33.2,M,,*72' 12-00-59-656
b'$GNVTG,,T,,M,0.070,N,0.130,K,A*38' 12-00-59-683
b'$GNGGA,170038.45,4005.68111,N,08814.36236,W,1,05,5.76,228.5,M,-33.2,M,,*76' 12-00-59-707
b'$GNVTG,,T,,M,0.034,N,0.062,K,A*3E' 12-00-59-733
b'$GNGGA,170038.50,4005.68111,N,08814.36236,W,1,05,5.76,228.4,M,-33.2,M,,*73' 12-00-59-756
b'$GNVTG,,T,,M,0.051,N,0.094,K,A*34' 12-00-59-783
b'$GNGGA,170038.55,4005.68110,N,08814.36236,W,1,05,5.76,228.4,M,-33.2,M,,*77' 12-00-59-806
b'$GNVTG,,T,,M,0.068,N,0.125,K,A*35' 12-00-59-833
b'$GNGGA,170038.60,4005.68109,N,08814.36236,W,1,05,5.76,228.4,M,-33.2,M,,*79' 12-00-59-856
b'$GNVTG,,T,,M,0.054,N,0.101,K,A*3C' 12-00-59-883
b'$GNGGA,170038.65,4005.68110,N,08814.36236,W,1,05,5.76,228.4,M,-33.2,M,,*74' 12-00-59-905
b'$GNVTG,,T,,M,0.039,N,0.072,K,A*32' 12-00-59-933
b'$GNGGA,170038.70,4005.68110,N,08814.36236,W,1,05,5.76,228.4,M,-33.2,M,,*70' 12-00-59-956
b'$GNVTG,,T,,M,0.040,N,0.075,K,A*3B' 12-00-59-983
b'$GNGGA,170038.75,4005.68109,N,08814.36235,W,1,05,5.76,228.4,M,-33.2,M,,*7E' 12-01-00-005
b'$GNVTG,,T,,M,0.102,N,0.188,K,A*3F' 12-01-00-033
b'$GNGGA,170038.80,4005.68109,N,08814.36235,W,1,05,5.76,228.4,M,-33.2,M,,*74' 12-01-00-057
b'$GNVTG,,T,,M,0.121,N,0.225,K,A*3A' 12-01-00-083
b'$GNGGA,170038.85,4005.68109,N,08814.36235,W,1,05,5.76,228.4,M,-33.2,M,,*71' 12-01-00-106
b'$GNVTG,,T,,M,0.103,N,0.191,K,A*36' 12-01-00-132
b'$GNGGA,170038.90,4005.68108,N,08814.36235,W,1,05,5.76,228.4,M,-33.2,M,,*74' 12-01-00-156
b'$GNVTG,,T,,M,0.072,N,0.133,K,A*39' 12-01-00-183
b'$GNGGA,170038.95,4005.68108,N,08814.36235,W,1,05,5.76,228.4,M,-33.2,M,,*71' 12-01-00-205
b'$GNVTG,,T,,M,0.115,N,0.213,K,A*38' 12-01-00-237
b'$GNGGA,170039.00,4005.68107,N,08814.36235,W,1,05,5.76,228.4,M,-33.2,M,,*73' 12-01-00-261
b'$GNVTG,,T,,M,0.066,N,0.121,K,A*3F' 12-01-00-283
b'$GNGGA,170039.05,4005.68107,N,08814.36235,W,1,05,5.76,228.4,M,-33.2,M,,*76' 12-01-00-306
b'$GNVTG,,T,,M,0.155,N,0.287,K,A*31' 12-01-00-333
b'$GNGGA,170039.10,4005.68107,N,08814.36234,W,1,05,5.77,228.3,M,-33.2,M,,*75' 12-01-00-356
b'$GNVTG,,T,,M,0.068,N,0.126,K,A*36' 12-01-00-383
b'$GNGGA,170039.15,4005.68107,N,08814.36234,W,1,05,5.77,228.3,M,-33.2,M,,*70' 12-01-00-407
b'$GNVTG,,T,,M,0.102,N,0.189,K,A*3E' 12-01-00-433
b'$GNGGA,170039.20,4005.68106,N,08814.36234,W,1,05,5.77,228.3,M,-33.2,M,,*77' 12-01-00-455
b'$GNVTG,,T,,M,0.128,N,0.237,K,A*30' 12-01-00-483
b'$GNGGA,170039.25,4005.68105,N,08814.36233,W,1,05,5.77,228.3,M,-33.2,M,,*76' 12-01-00-505
b'$GNVTG,,T,,M,0.035,N,0.066,K,A*3B' 12-01-00-533
b'$GNGGA,170039.30,4005.68106,N,08814.36234,W,1,05,5.77,228.3,M,-33.2,M,,*76' 12-01-00-556
b'$GNVTG,,T,,M,0.061,N,0.113,K,A*39' 12-01-00-582
b'$GNGGA,170039.35,4005.68106,N,08814.36234,W,1,05,5.77,228.3,M,-33.2,M,,*73' 12-01-00-606
b'$GNVTG,,T,,M,0.012,N,0.023,K,A*3F' 12-01-00-633
b'$GNGGA,170039.40,4005.68106,N,08814.36234,W,1,05,5.77,228.3,M,-33.2,M,,*71' 12-01-00-656
b'$GNVTG,,T,,M,0.109,N,0.202,K,A*35' 12-01-00-683
b'$GNGGA,170039.45,4005.68105,N,08814.36233,W,1,05,5.77,228.3,M,-33.2,M,,*70' 12-01-00-705
b'$GNVTG,,T,,M,0.071,N,0.131,K,A*38' 12-01-00-733
b'$GNGGA,170039.50,4005.68104,N,08814.36233,W,1,05,5.77,228.3,M,-33.2,M,,*75' 12-01-00-756
b'$GNVTG,,T,,M,0.052,N,0.096,K,A*35' 12-01-00-782
b'$GNGGA,170039.55,4005.68105,N,08814.36233,W,1,05,5.77,228.3,M,-33.2,M,,*71' 12-01-00-806
b'$GNVTG,,T,,M,0.053,N,0.099,K,A*3B' 12-01-00-833
b'$GNGGA,170039.60,4005.68105,N,08814.36233,W,1,05,5.77,228.3,M,-33.2,M,,*77' 12-01-00-856
b'$GNVTG,,T,,M,0.090,N,0.166,K,A*35' 12-01-00-882
b'$GNGGA,170039.65,4005.68104,N,08814.36232,W,1,05,5.77,228.3,M,-33.2,M,,*72' 12-01-00-905
b'$GNVTG,,T,,M,0.094,N,0.173,K,A*35' 12-01-00-933
b'$GNGGA,170039.70,4005.68103,N,08814.36232,W,1,05,5.77,228.2,M,-33.2,M,,*70' 12-01-00-956
b'$GNVTG,,T,,M,0.082,N,0.151,K,A*32' 12-01-00-983
b'$GNGGA,170039.75,4005.68102,N,08814.36232,W,1,05,5.77,228.2,M,-33.2,M,,*74' 12-01-01-005
b'$GNVTG,,T,,M,0.112,N,0.207,K,A*3A' 12-01-01-032
b'$GNGGA,170039.80,4005.68102,N,08814.36231,W,1,05,5.77,228.2,M,-33.2,M,,*7D' 12-01-01-055
b'$GNVTG,,T,,M,0.074,N,0.137,K,A*3B' 12-01-01-083
b'$GNGGA,170039.85,4005.68102,N,08814.36231,W,1,05,5.77,228.2,M,-33.2,M,,*78' 12-01-01-105
b'$GNVTG,,T,,M,0.043,N,0.080,K,A*32' 12-01-01-133
b'$GNGGA,170039.90,4005.68102,N,08814.36232,W,1,05,5.77,228.2,M,-33.2,M,,*7F' 12-01-01-157
b'$GNVTG,,T,,M,0.021,N,0.039,K,A*34' 12-01-01-183
b'$GNGGA,170039.95,4005.68102,N,08814.36231,W,1,05,5.77,228.2,M,-33.2,M,,*79' 12-01-01-205
b'$GNVTG,,T,,M,0.026,N,0.048,K,A*35' 12-01-01-237
b'$GNGGA,170040.00,4005.68101,N,08814.36231,W,1,05,5.77,228.2,M,-33.2,M,,*78' 12-01-01-260
b'$GNVTG,,T,,M,0.062,N,0.115,K,A*3C' 12-01-01-283
b'$GNGGA,170040.05,4005.68101,N,08814.36231,W,1,05,5.77,228.2,M,-33.2,M,,*7D' 12-01-01-307
b'$GNVTG,,T,,M,0.072,N,0.133,K,A*39' 12-01-01-336
b'$GNGGA,170040.10,4005.68103,N,08814.36232,W,1,07,1.67,228.3,M,-33.2,M,,*7E' 12-01-01-359
b'$GNVTG,,T,,M,0.094,N,0.173,K,A*35' 12-01-01-383
b'$GNGGA,170040.15,4005.68099,N,08814.36230,W,1,07,1.67,228.1,M,-33.2,M,,*79' 12-01-01-406
b'$GNVTG,,T,,M,0.060,N,0.112,K,A*39' 12-01-01-434
b'$GNGGA,170040.20,4005.68100,N,08814.36231,W,1,07,1.67,228.2,M,-33.2,M,,*7C' 12-01-01-457
b'$GNVTG,,T,,M,0.036,N,0.066,K,A*38' 12-01-01-483
b'$GNGGA,170040.25,4005.68102,N,08814.36231,W,1,07,1.67,228.2,M,-33.2,M,,*7B' 12-01-01-506
b'$GNVTG,,T,,M,0.042,N,0.078,K,A*34' 12-01-01-533
b'$GNGGA,170040.30,4005.68101,N,08814.36231,W,1,07,1.67,228.2,M,-33.2,M,,*7C' 12-01-01-556
b'$GNVTG,,T,,M,0.017,N,0.031,K,A*39' 12-01-01-583
b'$GNGGA,170040.35,4005.68101,N,08814.36231,W,1,07,1.67,228.2,M,-33.2,M,,*79' 12-01-01-607
b'$GNVTG,,T,,M,0.046,N,0.084,K,A*33' 12-01-01-633
b'$GNGGA,170040.40,4005.68101,N,08814.36230,W,1,07,1.67,228.2,M,-33.2,M,,*7A' 12-01-01-656
b'$GNVTG,,T,,M,0.022,N,0.040,K,A*39' 12-01-01-683
b'$GNGGA,170040.45,4005.68101,N,08814.36230,W,1,07,1.67,228.2,M,-33.2,M,,*7F' 12-01-01-706
b'$GNVTG,,T,,M,0.067,N,0.125,K,A*3A' 12-01-01-733
b'$GNGGA,170040.50,4005.68100,N,08814.36230,W,1,07,1.67,228.2,M,-33.2,M,,*7A' 12-01-01-756
b'$GNVTG,,T,,M,0.009,N,0.016,K,A*33' 12-01-01-783
b'$GNGGA,170040.55,4005.68100,N,08814.36230,W,1,07,1.67,228.2,M,-33.2,M,,*7F' 12-01-01-806
b'$GNVTG,,T,,M,0.038,N,0.070,K,A*31' 12-01-01-833
b'$GNGGA,170040.60,4005.68100,N,08814.36230,W,1,07,1.67,228.2,M,-33.2,M,,*79' 12-01-01-856
b'$GNVTG,,T,,M,0.046,N,0.084,K,A*33' 12-01-01-883
b'$GNGGA,170040.65,4005.68100,N,08814.36230,W,1,07,1.67,228.2,M,-33.2,M,,*7C' 12-01-01-906
b'$GNVTG,,T,,M,0.063,N,0.117,K,A*3F' 12-01-01-933
b'$GNGGA,170040.70,4005.68100,N,08814.36230,W,1,07,1.67,228.2,M,-33.2,M,,*78' 12-01-01-956
b'$GNVTG,,T,,M,0.035,N,0.065,K,A*38' 12-01-01-983
b'$GNGGA,170040.75,4005.68101,N,08814.36231,W,1,07,1.67,228.2,M,-33.2,M,,*7D' 12-01-02-006
b'$GNVTG,,T,,M,0.027,N,0.050,K,A*3D' 12-01-02-034
b'$GNGGA,170040.80,4005.68101,N,08814.36231,W,1,07,1.67,228.2,M,-33.2,M,,*77' 12-01-02-057
b'$GNVTG,,T,,M,0.058,N,0.107,K,A*36' 12-01-02-083
b'$GNGGA,170040.85,4005.68101,N,08814.36231,W,1,07,1.67,228.2,M,-33.2,M,,*72' 12-01-02-106
b'$GNVTG,,T,,M,0.046,N,0.084,K,A*33' 12-01-02-134
b'$GNGGA,170040.90,4005.68101,N,08814.36231,W,1,07,1.67,228.2,M,-33.2,M,,*76' 12-01-02-156
b'$GNVTG,,T,,M,0.088,N,0.164,K,A*3E' 12-01-02-184
b'$GNGGA,170040.95,4005.68101,N,08814.36231,W,1,07,1.67,228.2,M,-33.2,M,,*73' 12-01-02-206
b'$GNVTG,,T,,M,0.026,N,0.048,K,A*35' 12-01-02-237
b'$GNGGA,170041.00,4005.68101,N,08814.36231,W,1,07,1.67,228.2,M,-33.2,M,,*7E' 12-01-02-260
b'$GNVTG,,T,,M,0.037,N,0.069,K,A*36' 12-01-02-284
b'$GNGGA,170041.05,4005.68101,N,08814.36231,W,1,07,1.67,228.2,M,-33.2,M,,*7B' 12-01-02-306
b'$GNVTG,,T,,M,0.028,N,0.052,K,A*30' 12-01-02-335
b'$GNGGA,170041.10,4005.68102,N,08814.36231,W,1,07,1.67,228.2,M,-33.2,M,,*7C' 12-01-02-357
b'$GNVTG,,T,,M,0.060,N,0.111,K,A*3A' 12-01-02-384
b'$GNGGA,170041.15,4005.68102,N,08814.36231,W,1,07,1.67,228.2,M,-33.2,M,,*79' 12-01-02-407
b'$GNVTG,,T,,M,0.043,N,0.080,K,A*32' 12-01-02-434
b'$GNGGA,170041.20,4005.68102,N,08814.36231,W,1,07,1.67,228.2,M,-33.2,M,,*7F' 12-01-02-456
b'$GNVTG,,T,,M,0.053,N,0.098,K,A*3A' 12-01-02-484
b'$GNGGA,170041.25,4005.68102,N,08814.36231,W,1,07,1.67,228.3,M,-33.2,M,,*7B' 12-01-02-506
b'$GNVTG,,T,,M,0.023,N,0.042,K,A*3A' 12-01-02-534
b'$GNGGA,170041.30,4005.68102,N,08814.36231,W,1,07,1.67,228.2,M,-33.2,M,,*7E' 12-01-02-557
b'$GNVTG,,T,,M,0.049,N,0.091,K,A*38' 12-01-02-583
b'$GNGGA,170041.35,4005.68102,N,08814.36231,W,1,07,1.67,228.2,M,-33.2,M,,*7B' 12-01-02-607
b'$GNVTG,,T,,M,0.069,N,0.128,K,A*39' 12-01-02-634
b'$GNGGA,170041.40,4005.68101,N,08814.36231,W,1,07,1.67,228.2,M,-33.2,M,,*7A' 12-01-02-657
b'$GNVTG,,T,,M,0.101,N,0.188,K,A*3C' 12-01-02-683
b'$GNGGA,170041.45,4005.68101,N,08814.36231,W,1,07,1.67,228.3,M,-33.2,M,,*7E' 12-01-02-706
b'$GNVTG,,T,,M,0.014,N,0.026,K,A*3C' 12-01-02-734
b'$GNGGA,170041.50,4005.68102,N,08814.36231,W,1,07,1.67,228.3,M,-33.2,M,,*79' 12-01-02-756
b'$GNVTG,,T,,M,0.050,N,0.092,K,A*33' 12-01-02-784
b'$GNGGA,170041.55,4005.68102,N,08814.36231,W,1,07,1.67,228.3,M,-33.2,M,,*7C' 12-01-02-808
b'$GNVTG,,T,,M,0.044,N,0.081,K,A*34' 12-01-02-833
b'$GNGGA,170041.60,4005.68102,N,08814.36231,W,1,07,1.67,228.3,M,-33.2,M,,*7A' 12-01-02-856
b'$GNVTG,,T,,M,0.015,N,0.029,K,A*32' 12-01-02-884
b'$GNGGA,170041.65,4005.68102,N,08814.36231,W,1,07,1.67,228.3,M,-33.2,M,,*7F' 12-01-02-906
b'$GNVTG,,T,,M,0.018,N,0.032,K,A*35' 12-01-02-934
b'$GNGGA,170041.70,4005.68102,N,08814.36231,W,1,07,1.67,228.3,M,-33.2,M,,*7B' 12-01-02-958
b'$GNVTG,,T,,M,0.110,N,0.204,K,A*3B' 12-01-02-984
b'$GNGGA,170041.75,4005.68102,N,08814.36231,W,1,07,1.67,228.3,M,-33.2,M,,*7E' 12-01-03-006
b'$GNVTG,,T,,M,0.131,N,0.243,K,A*3B' 12-01-03-033
b'$GNGGA,170041.80,4005.68102,N,08814.36231,W,1,07,1.67,228.3,M,-33.2,M,,*74' 12-01-03-057
b'$GNVTG,,T,,M,0.055,N,0.102,K,A*3E' 12-01-03-084
b'$GNGGA,170041.85,4005.68102,N,08814.36231,W,1,07,1.67,228.3,M,-33.2,M,,*71' 12-01-03-107
b'$GNVTG,,T,,M,0.070,N,0.130,K,A*38' 12-01-03-133
b'$GNGGA,170041.90,4005.68102,N,08814.36231,W,1,07,1.67,228.3,M,-33.2,M,,*75' 12-01-03-157
b'$GNVTG,,T,,M,0.062,N,0.114,K,A*3D' 12-01-03-184
b'$GNGGA,170041.95,4005.68102,N,08814.36231,W,1,07,1.67,228.3,M,-33.2,M,,*70' 12-01-03-206
b'$GNVTG,,T,,M,0.036,N,0.067,K,A*39' 12-01-03-238
b'$GNGGA,170042.00,4005.68102,N,08814.36231,W,1,07,1.67,228.3,M,-33.2,M,,*7F' 12-01-03-262
b'$GNVTG,,T,,M,0.017,N,0.032,K,A*3A' 12-01-03-284
b'$GNGGA,170042.05,4005.68102,N,08814.36231,W,1,07,1.67,228.3,M,-33.2,M,,*7A' 12-01-03-307
b'$GNVTG,,T,,M,0.029,N,0.053,K,A*30' 12-01-03-334
b'$GNGGA,170042.10,4005.68102,N,08814.36231,W,1,07,1.67,228.3,M,-33.2,M,,*7E' 12-01-03-357
b'$GNVTG,,T,,M,0.053,N,0.097,K,A*35' 12-01-03-384
b'$GNGGA,170042.15,4005.68102,N,08814.36231,W,1,07,1.67,228.3,M,-33.2,M,,*7B' 12-01-03-408
b'$GNVTG,,T,,M,0.024,N,0.044,K,A*3B' 12-01-03-434
b'$GNGGA,170042.20,4005.68102,N,08814.36231,W,1,07,1.67,228.3,M,-33.2,M,,*7D' 12-01-03-457
b'$GNVTG,,T,,M,0.050,N,0.092,K,A*33' 12-01-03-484
b'$GNGGA,170042.25,4005.68102,N,08814.36230,W,1,07,1.67,228.3,M,-33.2,M,,*79' 12-01-03-508
b'$GNVTG,,T,,M,0.040,N,0.075,K,A*3B' 12-01-03-534
b'$GNGGA,170042.30,4005.68102,N,08814.36231,W,1,07,1.67,228.3,M,-33.2,M,,*7C' 12-01-03-557
b'$GNVTG,,T,,M,0.023,N,0.042,K,A*3A' 12-01-03-584
b'$GNGGA,170042.35,4005.68102,N,08814.36230,W,1,07,1.67,228.3,M,-33.2,M,,*78' 12-01-03-607
b'$GNVTG,,T,,M,0.078,N,0.144,K,A*33' 12-01-03-635
b'$GNGGA,170042.40,4005.68103,N,08814.36231,W,1,07,1.67,228.3,M,-33.2,M,,*7A' 12-01-03-657
b'$GNVTG,,T,,M,0.014,N,0.026,K,A*3C' 12-01-03-684
b'$GNGGA,170042.45,4005.68103,N,08814.36231,W,1,07,1.67,228.3,M,-33.2,M,,*7F' 12-01-03-707
b'$GNVTG,,T,,M,0.029,N,0.054,K,A*37' 12-01-03-734
b'$GNGGA,170042.50,4005.68104,N,08814.36231,W,1,07,1.67,228.3,M,-33.2,M,,*7C' 12-01-03-756
b'$GNVTG,,T,,M,0.015,N,0.028,K,A*33' 12-01-03-784
b'$GNGGA,170042.55,4005.68104,N,08814.36231,W,1,07,1.67,228.3,M,-33.2,M,,*79' 12-01-03-807
b'$GNVTG,,T,,M,0.048,N,0.089,K,A*30' 12-01-03-834
b'$GNGGA,170042.60,4005.68104,N,08814.36232,W,1,07,1.67,228.3,M,-33.2,M,,*7C' 12-01-03-857
b'$GNVTG,,T,,M,0.043,N,0.079,K,A*34' 12-01-03-884
b'$GNGGA,170042.65,4005.68104,N,08814.36232,W,1,07,1.67,228.3,M,-33.2,M,,*79' 12-01-03-907
b'$GNVTG,,T,,M,0.036,N,0.066,K,A*38' 12-01-03-934
b'$GNGGA,170042.70,4005.68105,N,08814.36232,W,1,07,1.67,228.4,M,-33.2,M,,*7B' 12-01-03-956
b'$GNVTG,,T,,M,0.157,N,0.291,K,A*34' 12-01-03-984
b'$GNGGA,170042.75,4005.68106,N,08814.36232,W,1,07,1.67,228.4,M,-33.2,M,,*7D' 12-01-04-008
b'$GNVTG,,T,,M,0.118,N,0.219,K,A*3F' 12-01-04-034
b'$GNGGA,170042.80,4005.68106,N,08814.36232,W,1,07,1.67,228.4,M,-33.2,M,,*77' 12-01-04-056
b'$GNVTG,,T,,M,0.005,N,0.008,K,A*30' 12-01-04-084
b'$GNGGA,170042.85,4005.68106,N,08814.36232,W,1,07,1.67,228.4,M,-33.2,M,,*72' 12-01-04-107
b'$GNVTG,,T,,M,0.028,N,0.052,K,A*30' 12-01-04-134
b'$GNGGA,170042.90,4005.68106,N,08814.36232,W,1,07,1.67,228.4,M,-33.2,M,,*76' 12-01-04-156
b'$GNVTG,,T,,M,0.079,N,0.146,K,A*30' 12-01-04-184
b'$GNGGA,170042.95,4005.68107,N,08814.36232,W,1,07,1.67,228.4,M,-33.2,M,,*72' 12-01-04-207
b'$GNVTG,,T,,M,0.047,N,0.087,K,A*31' 12-01-04-237
b'$GNGGA,170043.00,4005.68107,N,08814.36232,W,1,07,1.67,228.4,M,-33.2,M,,*7F' 12-01-04-260
b'$GNVTG,,T,,M,0.052,N,0.097,K,A*34' 12-01-04-284
b'$GNGGA,170043.05,4005.68107,N,08814.36232,W,1,07,1.67,228.4,M,-33.2,M,,*7A' 12-01-04-306
b'$GNVTG,,T,,M,0.011,N,0.020,K,A*3F' 12-01-04-334
b'$GNGGA,170043.10,4005.68107,N,08814.36232,W,1,07,1.67,228.4,M,-33.2,M,,*7E' 12-01-04-357
b'$GNVTG,,T,,M,0.044,N,0.081,K,A*34' 12-01-04-384
b'$GNGGA,170043.15,4005.68107,N,08814.36232,W,1,07,1.67,228.4,M,-33.2,M,,*7B' 12-01-04-408
b'$GNVTG,,T,,M,0.031,N,0.057,K,A*3D' 12-01-04-434
b'$GNGGA,170043.20,4005.68107,N,08814.36232,W,1,07,1.67,228.4,M,-33.2,M,,*7D' 12-01-04-458
b'$GNVTG,,T,,M,0.082,N,0.153,K,A*30' 12-01-04-484
b'$GNGGA,170043.25,4005.68107,N,08814.36233,W,1,07,1.67,228.4,M,-33.2,M,,*79' 12-01-04-506
b'$GNVTG,,T,,M,0.088,N,0.162,K,A*38' 12-01-04-534
b'$GNGGA,170043.30,4005.68108,N,08814.36233,W,1,07,1.67,228.4,M,-33.2,M,,*72' 12-01-04-557
b'$GNVTG,,T,,M,0.078,N,0.144,K,A*33' 12-01-04-584
b'$GNGGA,170043.35,4005.68108,N,08814.36233,W,1,07,1.67,228.4,M,-33.2,M,,*77' 12-01-04-607
b'$GNVTG,,T,,M,0.055,N,0.102,K,A*3E' 12-01-04-633
b'$GNGGA,170043.40,4005.68108,N,08814.36233,W,1,07,1.67,228.4,M,-33.2,M,,*75' 12-01-04-656
b'$GNVTG,,T,,M,0.055,N,0.102,K,A*3E' 12-01-04-684
b'$GNGGA,170043.45,4005.68109,N,08814.36233,W,1,07,1.67,228.4,M,-33.2,M,,*71' 12-01-04-707
b'$GNVTG,,T,,M,0.053,N,0.099,K,A*3B' 12-01-04-734
b'$GNGGA,170043.50,4005.68109,N,08814.36233,W,1,07,1.67,228.4,M,-33.2,M,,*75' 12-01-04-757
b'$GNVTG,,T,,M,0.005,N,0.010,K,A*39' 12-01-04-784
b'$GNGGA,170043.55,4005.68109,N,08814.36233,W,1,07,1.67,228.4,M,-33.2,M,,*70' 12-01-04-807
b'$GNVTG,,T,,M,0.084,N,0.155,K,A*30' 12-01-04-834
b'$GNGGA,170043.60,4005.68109,N,08814.36233,W,1,07,1.67,228.4,M,-33.2,M,,*76' 12-01-04-857
b'$GNVTG,,T,,M,0.000,N,0.001,K,A*3C' 12-01-04-884
b'$GNGGA,170043.65,4005.68109,N,08814.36233,W,1,07,1.67,228.5,M,-33.2,M,,*72' 12-01-04-906
b'$GNVTG,,T,,M,0.109,N,0.202,K,A*35' 12-01-04-934
b'$GNGGA,170043.70,4005.68109,N,08814.36234,W,1,07,1.67,228.5,M,-33.2,M,,*71' 12-01-04-957
b'$GNVTG,,T,,M,0.051,N,0.094,K,A*34' 12-01-04-983
b'$GNGGA,170043.75,4005.68109,N,08814.36234,W,1,07,1.67,228.5,M,-33.2,M,,*74' 12-01-05-006
b'$GNVTG,,T,,M,0.090,N,0.166,K,A*35' 12-01-05-034
b'$GNGGA,170043.80,4005.68109,N,08814.36233,W,1,07,1.67,228.5,M,-33.2,M,,*79' 12-01-05-057
b'$GNVTG,,T,,M,0.043,N,0.079,K,A*34' 12-01-05-083
b'$GNGGA,170043.85,4005.68109,N,08814.36233,W,1,07,1.67,228.5,M,-33.2,M,,*7C' 12-01-05-106
b'$GNVTG,,T,,M,0.120,N,0.223,K,A*3D' 12-01-05-133
b'$GNGGA,170043.90,4005.68109,N,08814.36234,W,1,07,1.67,228.5,M,-33.2,M,,*7F' 12-01-05-156
b'$GNVTG,,T,,M,0.133,N,0.247,K,A*3D' 12-01-05-184
b'$GNGGA,170043.95,4005.68109,N,08814.36234,W,1,07,1.67,228.5,M,-33.2,M,,*7A' 12-01-05-206
b'$GNVTG,,T,,M,0.112,N,0.208,K,A*35' 12-01-05-237
b'$GNGGA,170044.00,4005.68109,N,08814.36234,W,1,07,1.67,228.5,M,-33.2,M,,*71' 12-01-05-260
b'$GNVTG,,T,,M,0.068,N,0.126,K,A*36' 12-01-05-283
b'$GNGGA,170044.05,4005.68109,N,08814.36234,W,1,07,1.67,228.5,M,-33.2,M,,*74' 12-01-05-306
b'$GNVTG,,T,,M,0.073,N,0.135,K,A*3E' 12-01-05-334
b'$GNGGA,170044.10,4005.68109,N,08814.36234,W,1,07,1.67,228.5,M,-33.2,M,,*70' 12-01-05-357
b'$GNVTG,,T,,M,0.102,N,0.190,K,A*36' 12-01-05-383
b'$GNGGA,170044.15,4005.68110,N,08814.36234,W,1,07,1.67,228.5,M,-33.2,M,,*7D' 12-01-05-406
b'$GNVTG,,T,,M,0.072,N,0.133,K,A*39' 12-01-05-434
b'$GNGGA,170044.20,4005.68110,N,08814.36234,W,1,07,1.67,228.5,M,-33.2,M,,*7B' 12-01-05-457
b'$GNVTG,,T,,M,0.100,N,0.185,K,A*30' 12-01-05-484
b'$GNGGA,170044.25,4005.68110,N,08814.36234,W,1,07,1.67,228.5,M,-33.2,M,,*7E' 12-01-05-507
b'$GNVTG,,T,,M,0.050,N,0.092,K,A*33' 12-01-05-533
b'$GNGGA,170044.30,4005.68110,N,08814.36234,W,1,07,1.67,228.5,M,-33.2,M,,*7A' 12-01-05-556
b'$GNVTG,,T,,M,0.026,N,0.047,K,A*3A' 12-01-05-583
b'$GNGGA,170044.35,4005.68110,N,08814.36234,W,1,07,1.67,228.5,M,-33.2,M,,*7F' 12-01-05-606
b'$GNVTG,,T,,M,0.067,N,0.124,K,A*3B' 12-01-05-634
b'$GNGGA,170044.40,4005.68109,N,08814.36234,W,1,07,1.67,228.5,M,-33.2,M,,*75' 12-01-05-657
b'$GNVTG,,T,,M,0.035,N,0.065,K,A*38' 12-01-05-684
b'$GNGGA,170044.45,4005.68110,N,08814.36234,W,1,07,1.67,228.5,M,-33.2,M,,*78' 12-01-05-707
b'$GNVTG,,T,,M,0.053,N,0.099,K,A*3B' 12-01-05-734
b'$GNGGA,170044.50,4005.68109,N,08814.36233,W,1,07,1.67,228.5,M,-33.2,M,,*73' 12-01-05-757
b'$GNVTG,,T,,M,0.068,N,0.127,K,A*37' 12-01-05-784
b'$GNGGA,170044.55,4005.68110,N,08814.36234,W,1,07,1.67,228.5,M,-33.2,M,,*79' 12-01-05-808
b'$GNVTG,,T,,M,0.071,N,0.132,K,A*3B' 12-01-05-834
b'$GNGGA,170044.60,4005.68109,N,08814.36233,W,1,07,1.67,228.5,M,-33.2,M,,*70' 12-01-05-857
b'$GNVTG,,T,,M,0.037,N,0.068,K,A*37' 12-01-05-884
b'$GNGGA,170044.65,4005.68109,N,08814.36233,W,1,07,1.67,228.5,M,-33.2,M,,*75' 12-01-05-907
b'$GNVTG,,T,,M,0.064,N,0.119,K,A*36' 12-01-05-934
b'$GNGGA,170044.70,4005.68109,N,08814.36233,W,1,07,1.67,228.5,M,-33.2,M,,*71' 12-01-05-958
b'$GNVTG,,T,,M,0.085,N,0.157,K,A*33' 12-01-05-983
b'$GNGGA,170044.75,4005.68109,N,08814.36233,W,1,07,1.67,228.5,M,-33.2,M,,*74' 12-01-06-007
b'$GNVTG,,T,,M,0.025,N,0.045,K,A*3B' 12-01-06-033
b'$GNGGA,170044.80,4005.68109,N,08814.36233,W,1,07,1.67,228.5,M,-33.2,M,,*7E' 12-01-06-058
b'$GNVTG,,T,,M,0.048,N,0.089,K,A*30' 12-01-06-084
b'$GNGGA,170044.85,4005.68108,N,08814.36233,W,1,07,1.67,228.5,M,-33.2,M,,*7A' 12-01-06-108
b'$GNVTG,,T,,M,0.038,N,0.070,K,A*31' 12-01-06-133
b'$GNGGA,170044.90,4005.68108,N,08814.36233,W,1,07,1.67,228.5,M,-33.2,M,,*7E' 12-01-06-157
b'$GNVTG,,T,,M,0.013,N,0.024,K,A*39' 12-01-06-183
b'$GNGGA,170044.95,4005.68108,N,08814.36233,W,1,07,1.67,228.5,M,-33.2,M,,*7B' 12-01-06-207
b'$GNVTG,,T,,M,0.080,N,0.148,K,A*38' 12-01-06-238
b'$GNGGA,170045.00,4005.68108,N,08814.36233,W,1,07,1.67,228.5,M,-33.2,M,,*76' 12-01-06-262
b'$GNVTG,,T,,M,0.158,N,0.292,K,A*38' 12-01-06-284
b'$GNGGA,170045.05,4005.68109,N,08814.36232,W,1,07,1.67,228.5,M,-33.2,M,,*73' 12-01-06-308
b'$GNVTG,,T,,M,0.128,N,0.238,K,A*3F' 12-01-06-334
b'$GNGGA,170045.10,4005.68108,N,08814.36232,W,1,07,1.67,228.5,M,-33.2,M,,*76' 12-01-06-357
b'$GNVTG,,T,,M,0.060,N,0.111,K,A*3A' 12-01-06-384
b'$GNGGA,170045.15,4005.68108,N,08814.36232,W,1,07,1.67,228.5,M,-33.2,M,,*73' 12-01-06-408
b'$GNVTG,,T,,M,0.047,N,0.087,K,A*31' 12-01-06-433
b'$GNGGA,170045.20,4005.68108,N,08814.36232,W,1,07,1.67,228.5,M,-33.2,M,,*75' 12-01-06-457
