hello
CAN logging
Accel logging
Steering logging
Cooling loop logging
b'$GNVTG,,,,,,,,,N*2E' 12-22-10-143
b'$GNGGA,,,,,,0,00,99.99,,,,,,*56' 12-22-10-166
b'$GNVTG,,,,,,,,,N*2E' 12-22-10-187
b'$GNGGA,,,,,,0,00,99.99,,,,,,*56' 12-22-10-208
b'$GNVTG,,,,,,,,,N*2E' 12-22-10-230
b'$GNGGA,,,,,,0,00,99.99,,,,,,*56' 12-22-10-252
b'$GNVTG,,,,,,,,,N*2E' 12-22-10-277
b'$GNGGA,,,,,,0,00,99.99,,,,,,*56' 12-22-10-300
b'$GNVTG,,,,,,,,,N*2E' 12-22-10-321
b'$GNGGA,,,,,,0,00,99.99,,,,,,*56' 12-22-10-342
b'$GNVTG,,,,,,,,,N*2E' 12-22-10-364
b'$GNGGA,,,,,,0,00,99.99,,,,,,*56' 12-22-10-386
b'$GNVTG,,,,,,,,,N*2E' 12-22-10-407
b'$GNGGA,,,,,,0,00,99.99,,,,,,*56' 12-22-10-429
b'$GNVTG,,,,,,,,,N*2E' 12-22-10-450
b'$GNGGA,,,,,,0,00,99.99,,,,,,*56' 12-22-10-472
b'$GNVTG,,,,,,,,,N*2E' 12-22-10-494
b'$GNGGA,,,,,,0,00,99.99,,,,,,*56' 12-22-10-516
b'$GNVTG,,,,,,,,,N*2E' 12-22-10-536
b'$GNGGA,,,,,,0,00,99.99,,,,,,*56' 12-22-10-558
b'$GNVTG,,,,,,,,,N*2E' 12-22-10-578
b'$GNGGA,,,,,,0,00,99.99,,,,,,*56' 12-22-10-600
b'$GNVTG,,,,,,,,,N*2E' 12-22-10-620
b'$GNGGA,,,,,,0,00,99.99,,,,,,*56' 12-22-10-644
b'$GNVTG,,,,,,,,,N*2E' 12-22-10-669
b'$GNGGA,,,,,,0,00,99.99,,,,,,*56' 12-22-10-694
b'$GNVTG,,,,,,,,,N*2E' 12-22-10-718
b'$GNGGA,,,,,,0,00,99.99,,,,,,*56' 12-22-10-743
b'$GNVTG,,,,,,,,,N*2E' 12-22-10-766
b'$GNGGA,,,,,,0,00,99.99,,,,,,*56' 12-22-10-791
b'$GNVTG,,,,,,,,,N*2E' 12-22-10-814
b'$GNGGA,,,,,,0,00,99.99,,,,,,*56' 12-22-10-838
b'$GNVTG,,,,,,,,,N*2E' 12-22-10-861
b'$GNGGA,,,,,,0,00,99.99,,,,,,*56' 12-22-10-884
b'$GNVTG,,,,,,,,,N*2E' 12-22-10-908
b'$GNGGA,,,,,,0,00,99.99,,,,,,*56' 12-22-10-931
b'$GNVTG,,,,,,,,,N*2E' 12-22-10-953
b'$GNGGA,,,,,,0,00,99.99,,,,,,*56' 12-22-10-974
b'$GNVTG,,,,,,,,,N*2E' 12-22-10-995
b'$GNGGA,,,,,,0,00,99.99,,,,,,*56' 12-22-11-017
b'$GNVTG,,,,,,,,,N*2E' 12-22-11-038
b'$GNGGA,,,,,,0,00,99.99,,,,,,*56' 12-22-11-060
b'$GNVTG,,,,,,,,,N*2E' 12-22-11-082
b'$GNGGA,,,,,,0,00,99.99,,,,,,*56' 12-22-11-104
b'$GNVTG,,,,,,,,,N*2E' 12-22-11-125
b'$GNGGA,,,,,,0,00,99.99,,,,,,*56' 12-22-11-147
b'$GNVTG,,,,,,,,,N*2E' 12-22-11-168
b'$GNGGA,,,,,,0,00,99.99,,,,,,*56' 12-22-11-190
b'$GNVTG,,,,,,,,,N*2E' 12-22-11-214
b'$GNGGA,,,,,,0,00,99.99,,,,,,*56' 12-22-11-240
b'$GNVTG,,,,,,,,,N*2E' 12-22-11-263
b'$GNGGA,,,,,,0,00,99.99,,,,,,*56' 12-22-11-288
b'$GNVTG,,,,,,,,,N*2E' 12-22-11-313
b'$GNGGA,,,,,,0,00,99.99,,,,,,*56' 12-22-11-337
b'$GNVTG,,,,,,,,,N*2E' 12-22-11-360
b'$GNGGA,,,,,,0,00,99.99,,,,,,*56' 12-22-11-384
b'$GNVTG,,,,,,,,,N*2E' 12-22-11-407
b'$GNGGA,,,,,,0,00,99.99,,,,,,*56' 12-22-11-430
b'$GNVTG,,,,,,,,,N*2E' 12-22-11-451
b'$GNGGA,,,,,,0,00,99.99,,,,,,*56' 12-22-11-473
b'$GNVTG,,,,,,,,,N*2E' 12-22-11-494
b'$GNGGA,,,,,,0,00,99.99,,,,,,*56' 12-22-11-515
b'$GNVTG,,,,,,,,,N*2E' 12-22-11-537
b'$GNGGA,,,,,,0,00,99.99,,,,,,*56' 12-22-11-558
b'$GNVTG,,,,,,,,,N*2E' 12-22-11-579
b'$GNGGA,,,,,,0,00,99.99,,,,,,*56' 12-22-11-601
b'$GNVTG,,,,,,,,,N*2E' 12-22-11-622
b'$GNGGA,,,,,,0,00,99.99,,,,,,*56' 12-22-11-643
b'$GNGGA,,,,,,0,00,99.99,,,,,,*56' 12-22-11-665
b'$GNVTG,,,,,,,,,N*2E' 12-22-11-686
b'$GNGGA,,,,,,0,00,99.99,,,,,,*56' 12-22-11-709
b'$GNVTG,,,,,,,,,N*2E' 12-22-11-732
b'$GNGGA,,,,,,0,00,99.99,,,,,,*56' 12-22-11-753
b'$GNVTG,,,,,,,,,N*2E' 12-22-11-774
b'$GNGGA,,,,,,0,00,99.99,,,,,,*56' 12-22-11-796
b'$GNVTG,,,,,,,,,N*2E' 12-22-11-817
b'$GNGGA,,,,,,0,00,99.99,,,,,,*56' 12-22-11-839
b'$GNVTG,,,,,,,,,N*2E' 12-22-11-860
b'$GNGGA,,,,,,0,00,99.99,,,,,,*56' 12-22-11-881
b'$GNVTG,,,,,,,,,N*2E' 12-22-11-902
b'$GNGGA,,,,,,0,00,99.99,,,,,,*56' 12-22-11-923
b'$GNVTG,,,,,,,,,N*2E' 12-22-11-944
b'$GNGGA,,,,,,0,00,99.99,,,,,,*56' 12-22-11-965
b'$GNVTG,,,,,,,,,N*2E' 12-22-11-987
b'$GNGGA,,,,,,0,00,99.99,,,,,,*56' 12-22-12-008
b'$GNVTG,,,,,,,,,N*2E' 12-22-12-029
b'$GNGGA,,,,,,0,00,99.99,,,,,,*56' 12-22-12-050
b'$GNVTG,,,,,,,,,N*2E' 12-22-12-071
b'$GNGGA,,,,,,0,00,99.99,,,,,,*56' 12-22-12-095
b'$GNVTG,,,,,,,,,N*2E' 12-22-12-116
b'$GNGGA,,,,,,0,00,99.99,,,,,,*56' 12-22-12-138
b'$GNVTG,,,,,,,,,N*2E' 12-22-12-158
b'$GNGGA,,,,,,0,00,99.99,,,,,,*56' 12-22-12-181
b'$GNVTG,,,,,,,,,N*2E' 12-22-12-201
b'$GNGGA,,,,,,0,00,99.99,,,,,,*56' 12-22-12-223
b'$GNVTG,,,,,,,,,N*2E' 12-22-12-243
b'$GNGGA,,,,,,0,00,99.99,,,,,,*56' 12-22-12-266
b'$GNVTG,,,,,,,,,N*2E' 12-22-12-287
b'$GNGGA,,,,,,0,00,99.99,,,,,,*56' 12-22-12-309
b'$GNVTG,,,,,,,,,N*2E' 12-22-12-329
b'$GNGGA,,,,,,0,00,99.99,,,,,,*56' 12-22-12-351
b'$GNVTG,,,,,,,,,N*2E' 12-22-12-371
b'$GNGGA,,,,,,0,00,99.99,,,,,,*56' 12-22-12-393
b'$GNVTG,,,,,,,,,N*2E' 12-22-12-413
b'$GNGGA,,,,,,0,00,99.99,,,,,,*56' 12-22-12-435
b'$GNVTG,,,,,,,,,N*2E' 12-22-12-455
b'$GNGGA,172145.08,,,,,0,00,99.99,,,,,,*74' 12-22-12-477
b'$GNVTG,,,,,,,,,N*2E' 12-22-12-499
b'$GNGGA,172145.13,,,,,0,00,99.99,,,,,,*7E' 12-22-12-520
b'$GNVTG,,,,,,,,,N*2E' 12-22-12-541
b'$GNGGA,172145.18,,,,,0,00,99.99,,,,,,*75' 12-22-12-563
b'$GNVTG,,,,,,,,,N*2E' 12-22-12-583
b'$GNGGA,172145.23,,,,,0,00,99.99,,,,,,*7D' 12-22-12-606
b'$GNVTG,,,,,,,,,N*2E' 12-22-12-627
b'$GNGGA,172145.28,,,,,0,00,99.99,,,,,,*76' 12-22-12-650
b'$GNVTG,,,,,,,,,N*2E' 12-22-12-670
b'$GNGGA,172145.35,,,,,0,00,99.99,,,,,,*7A' 12-22-12-693
b'$GNVTG,,,,,,,,,N*2E' 12-22-12-715
b'$GNGGA,172145.40,,,,,0,00,99.99,,,,,,*78' 12-22-12-736
b'$GNVTG,,,,,,,,,N*2E' 12-22-12-757
b'$GNGGA,172145.45,,,,,0,00,99.99,,,,,,*7D' 12-22-12-778
b'$GNVTG,,,,,,,,,N*2E' 12-22-12-799
b'$GNGGA,172145.50,,,,,0,00,99.99,,,,,,*79' 12-22-12-821
b'$GNVTG,,,,,,,,,N*2E' 12-22-12-842
b'$GNGGA,172145.55,,,,,0,00,99.99,,,,,,*7C' 12-22-12-863
b'$GNVTG,,,,,,,,,N*2E' 12-22-12-884
b'$GNGGA,172145.60,,,,,0,00,99.99,,,,,,*7A' 12-22-12-906
b'$GNVTG,,,,,,,,,N*2E' 12-22-12-927
b'$GNGGA,172145.65,,,,,0,00,99.99,,,,,,*7F' 12-22-12-948
b'$GNVTG,,,,,,,,,N*2E' 12-22-12-969
b'$GNGGA,172145.70,,,,,0,00,99.99,,,,,,*7B' 12-22-12-991
b'$GNVTG,,,,,,,,,N*2E' 12-22-13-012
b'$GNGGA,172145.75,,,,,0,00,99.99,,,,,,*7E' 12-22-13-033
b'$GNVTG,,,,,,,,,N*2E' 12-22-13-054
b'$GNGGA,172145.80,,,,,0,00,99.99,,,,,,*74' 12-22-13-075
b'$GNVTG,,,,,,,,,N*2E' 12-22-13-096
b'$GNGGA,172145.85,,,,,0,00,99.99,,,,,,*71' 12-22-13-118
b'$GNVTG,,,,,,,,,N*2E' 12-22-13-138
b'$GNGGA,172145.90,,,,,0,00,99.99,,,,,,*75' 12-22-13-160
b'$GNVTG,,,,,,,,,N*2E' 12-22-13-182
b'$GNGGA,172145.95,,,,,0,00,99.99,,,,,,*70' 12-22-13-203
b'$GNVTG,,,,,,,,,N*2E' 12-22-13-224
b'$GNGGA,172146.00,,,,,0,00,99.99,,,,,,*7F' 12-22-13-248
b'$GNVTG,,,,,,,,,N*2E' 12-22-13-270
b'$GNGGA,172146.05,,,,,0,00,99.99,,,,,,*7A' 12-22-13-292
b'$GNVTG,,,,,,,,,N*2E' 12-22-13-315
b'$GNGGA,172146.10,,,,,0,00,99.99,,,,,,*7E' 12-22-13-337
b'$GNVTG,,,,,,,,,N*2E' 12-22-13-359
b'$GNGGA,172146.15,,,,,0,00,99.99,,,,,,*7B' 12-22-13-381
b'$GNVTG,,,,,,,,,N*2E' 12-22-13-403
b'$GNGGA,172146.20,,,,,0,00,99.99,,,,,,*7D' 12-22-13-426
b'$GNVTG,,,,,,,,,N*2E' 12-22-13-447
b'$GNGGA,172152.15,,,,,0,00,99.99,,,,,,*7E' 12-22-13-470
b'$GNVTG,,,,,,,,,N*2E' 12-22-13-491
b'$GNGGA,172152.20,,,,,0,00,99.99,,,,,,*78' 12-22-13-514
b'$GNVTG,,,,,,,,,N*2E' 12-22-13-536
b'$GNGGA,172152.25,,,,,0,00,99.99,,,,,,*7D' 12-22-13-559
b'$GNVTG,,,,,,,,,N*2E' 12-22-13-580
b'$GNGGA,172152.30,,,,,0,00,99.99,,,,,,*79' 12-22-13-603
b'$GNVTG,,,,,,,,,N*2E' 12-22-13-625
b'$GNGGA,172152.35,,,,,0,00,99.99,,,,,,*7C' 12-22-13-647
b'$GNVTG,,,,,,,,,N*2E' 12-22-13-669
b'$GNGGA,172152.40,,,,,0,00,99.99,,,,,,*7E' 12-22-13-692
b'$GNVTG,,,,,,,,,N*2E' 12-22-13-713
b'$GNGGA,172152.45,,,,,0,00,99.99,,,,,,*7B' 12-22-13-736
b'$GNVTG,,,,,,,,,N*2E' 12-22-13-758
b'$GNGGA,172152.50,,,,,0,00,99.99,,,,,,*7F' 12-22-13-780
b'$GNVTG,,,,,,,,,N*2E' 12-22-13-802
b'$GNGGA,172152.55,,,,,0,00,99.99,,,,,,*7A' 12-22-13-824
b'$GNVTG,,,,,,,,,N*2E' 12-22-13-846
b'$GNGGA,172152.60,,,,,0,00,99.99,,,,,,*7C' 12-22-13-869
b'$GNVTG,,,,,,,,,N*2E' 12-22-13-891
b'$GNGGA,172152.65,,,,,0,00,99.99,,,,,,*79' 12-22-13-913
b'$GNVTG,,,,,,,,,N*2E' 12-22-13-935
b'$GNGGA,172152.70,,,,,0,00,99.99,,,,,,*7D' 12-22-13-958
b'$GNVTG,,,,,,,,,N*2E' 12-22-13-980
b'$GNGGA,172152.75,,,,,0,00,99.99,,,,,,*78' 12-22-14-002
b'$GNVTG,,,,,,,,,N*2E' 12-22-14-024
b'$GNGGA,172152.80,,,,,0,00,99.99,,,,,,*72' 12-22-14-047
b'$GNVTG,,,,,,,,,N*2E' 12-22-14-069
b'$GNGGA,172152.85,,,,,0,00,99.99,,,,,,*77' 12-22-14-091
b'$GNVTG,,,,,,,,,N*2E' 12-22-14-114
b'$GNGGA,172152.90,,,,,0,00,99.99,,,,,,*73' 12-22-14-136
b'$GNVTG,,,,,,,,,N*2E' 12-22-14-161
b'$GNGGA,172152.95,,,,,0,00,99.99,,,,,,*76' 12-22-14-183
b'$GNVTG,,,,,,,,,N*2E' 12-22-14-207
b'$GNGGA,172153.00,,,,,0,00,99.99,,,,,,*7B' 12-22-14-230
b'$GNVTG,,,,,,,,,N*2E' 12-22-14-257
b'$GNGGA,172153.05,,,,,0,00,99.99,,,,,,*7E' 12-22-14-280
b'$GNVTG,,,,,,,,,N*2E' 12-22-14-308
b'$GNGGA,172153.10,,,,,0,00,99.99,,,,,,*7A' 12-22-14-330
b'$GNVTG,,,,,,,,,N*2E' 12-22-14-357
b'$GNGGA,172153.15,,,,,0,00,99.99,,,,,,*7F' 12-22-14-380
b'$GNVTG,,,,,,,,,N*2E' 12-22-14-407
b'$GNGGA,172153.20,,,,,0,00,99.99,,,,,,*79' 12-22-14-430
b'$GNVTG,,,,,,,,,N*2E' 12-22-14-457
b'$GNGGA,172153.25,,,,,0,00,99.99,,,,,,*7C' 12-22-14-480
b'$GNVTG,,,,,,,,,N*2E' 12-22-14-507
b'$GNGGA,172153.30,,,,,0,00,99.99,,,,,,*78' 12-22-14-529
b'$GNVTG,,,,,,,,,N*2E' 12-22-14-557
b'$GNGGA,172153.35,,,,,0,00,99.99,,,,,,*7D' 12-22-14-580
b'$GNVTG,,,,,,,,,N*2E' 12-22-14-607
b'$GNGGA,172153.40,,,,,0,00,99.99,,,,,,*7F' 12-22-14-630
b'$GNVTG,,,,,,,,,N*2E' 12-22-14-657
b'$GNGGA,172153.45,,,,,0,00,99.99,,,,,,*7A' 12-22-14-680
b'$GNVTG,,,,,,,,,N*2E' 12-22-14-707
b'$GNGGA,172153.50,,,,,0,00,99.99,,,,,,*7E' 12-22-14-730
b'$GNVTG,,,,,,,,,N*2E' 12-22-14-757
b'$GNGGA,172153.55,,,,,0,00,99.99,,,,,,*7B' 12-22-14-780
b'$GNVTG,,,,,,,,,N*2E' 12-22-14-807
b'$GNGGA,172153.60,,,,,0,00,99.99,,,,,,*7D' 12-22-14-830
b'$GNVTG,,,,,,,,,N*2E' 12-22-14-857
b'$GNGGA,172153.65,,,,,0,00,99.99,,,,,,*78' 12-22-14-880
b'$GNVTG,,,,,,,,,N*2E' 12-22-14-907
b'$GNGGA,172153.70,,,,,0,00,99.99,,,,,,*7C' 12-22-14-930
b'$GNVTG,,,,,,,,,N*2E' 12-22-14-957
b'$GNGGA,172153.75,,,,,0,00,99.99,,,,,,*79' 12-22-14-979
b'$GNVTG,,,,,,,,,N*2E' 12-22-15-007
b'$GNGGA,172153.80,,,,,0,00,99.99,,,,,,*73' 12-22-15-030
b'$GNVTG,,,,,,,,,N*2E' 12-22-15-057
b'$GNGGA,172153.85,,,,,0,00,99.99,,,,,,*76' 12-22-15-080
b'$GNVTG,,,,,,,,,N*2E' 12-22-15-107
b'$GNGGA,172153.90,,,,,0,00,99.99,,,,,,*72' 12-22-15-130
b'$GNVTG,,,,,,,,,N*2E' 12-22-15-161
b'$GNGGA,172153.95,,,,,0,00,99.99,,,,,,*77' 12-22-15-183
b'$GNVTG,,,,,,,,,N*2E' 12-22-15-207
b'$GNGGA,172154.00,,,,,0,00,99.99,,,,,,*7C' 12-22-15-230
b'$GNVTG,,,,,,,,,N*2E' 12-22-15-257
b'$GNGGA,172154.05,,,,,0,00,99.99,,,,,,*79' 12-22-15-280
b'$GNVTG,,,,,,,,,N*2E' 12-22-15-307
b'$GNGGA,172154.10,,,,,0,00,99.99,,,,,,*7D' 12-22-15-329
b'$GNVTG,,,,,,,,,N*2E' 12-22-15-358
b'$GNGGA,172154.15,,,,,0,00,99.99,,,,,,*78' 12-22-15-380
b'$GNVTG,,,,,,,,,N*2E' 12-22-15-407
b'$GNGGA,172154.20,,,,,0,00,99.99,,,,,,*7E' 12-22-15-429
b'$GNVTG,,,,,,,,,N*2E' 12-22-15-458
b'$GNGGA,172154.25,,,,,0,00,99.99,,,,,,*7B' 12-22-15-480
b'$GNVTG,,,,,,,,,N*2E' 12-22-15-507
b'$GNGGA,172154.30,,,,,0,00,99.99,,,,,,*7F' 12-22-15-530
b'$GNVTG,,,,,,,,,N*2E' 12-22-15-557
b'$GNGGA,172154.35,,,,,0,00,99.99,,,,,,*7A' 12-22-15-580
b'$GNVTG,,,,,,,,,N*2E' 12-22-15-607
b'$GNGGA,172154.40,,,,,0,00,99.99,,,,,,*78' 12-22-15-630
b'$GNVTG,,,,,,,,,N*2E' 12-22-15-657
b'$GNGGA,172154.45,,,,,0,00,99.99,,,,,,*7D' 12-22-15-680
b'$GNVTG,,,,,,,,,N*2E' 12-22-15-707
b'$GNGGA,172154.50,,,,,0,00,99.99,,,,,,*79' 12-22-15-730
b'$GNVTG,,,,,,,,,N*2E' 12-22-15-757
b'$GNGGA,172154.55,,,,,0,00,99.99,,,,,,*7C' 12-22-15-780
b'$GNVTG,,,,,,,,,N*2E' 12-22-15-808
b'$GNGGA,172154.60,,,,,0,00,99.99,,,,,,*7A' 12-22-15-830
b'$GNVTG,,,,,,,,,N*2E' 12-22-15-857
b'$GNGGA,172154.65,,,,,0,00,99.99,,,,,,*7F' 12-22-15-880
b'$GNVTG,,,,,,,,,N*2E' 12-22-15-907
b'$GNGGA,172154.70,,,,,0,00,99.99,,,,,,*7B' 12-22-15-930
b'$GNVTG,,,,,,,,,N*2E' 12-22-15-957
b'$GNGGA,172154.75,,,,,0,00,99.99,,,,,,*7E' 12-22-15-980
b'$GNVTG,,,,,,,,,N*2E' 12-22-16-007
b'$GNGGA,172154.80,,,,,0,00,99.99,,,,,,*74' 12-22-16-030
b'$GNVTG,,,,,,,,,N*2E' 12-22-16-057
b'$GNGGA,172154.85,,,,,0,00,99.99,,,,,,*71' 12-22-16-080
b'$GNVTG,,,,,,,,,N*2E' 12-22-16-107
b'$GNGGA,172154.90,,,,,0,00,99.99,,,,,,*75' 12-22-16-130
b'$GNVTG,,,,,,,,,N*2E' 12-22-16-161
b'$GNGGA,172154.95,,,,,0,00,99.99,,,,,,*70' 12-22-16-184
b'$GNVTG,,,,,,,,,N*2E' 12-22-16-207
b'$GNGGA,172155.00,,,,,0,00,99.99,,,,,,*7D' 12-22-16-230
b'$GNVTG,,,,,,,,,N*2E' 12-22-16-258
b'$GNGGA,172155.05,,,,,0,00,99.99,,,,,,*78' 12-22-16-280
b'$GNVTG,,,,,,,,,N*2E' 12-22-16-307
b'$GNGGA,172155.10,,,,,0,00,99.99,,,,,,*7C' 12-22-16-330
b'$GNVTG,,,,,,,,,N*2E' 12-22-16-358
b'$GNGGA,172155.15,,,,,0,00,99.99,,,,,,*79' 12-22-16-380
b'$GNVTG,,,,,,,,,N*2E' 12-22-16-407
b'$GNGGA,172155.20,,,,,0,00,99.99,,,,,,*7F' 12-22-16-430
b'$GNVTG,,,,,,,,,N*2E' 12-22-16-458
b'$GNGGA,172155.25,,,,,0,00,99.99,,,,,,*7A' 12-22-16-480
b'$GNVTG,,,,,,,,,N*2E' 12-22-16-507
b'$GNGGA,172155.30,,,,,0,00,99.99,,,,,,*7E' 12-22-16-530
b'$GNVTG,,,,,,,,,N*2E' 12-22-16-558
b'$GNGGA,172155.35,,,,,0,00,99.99,,,,,,*7B' 12-22-16-580
b'$GNVTG,,,,,,,,,N*2E' 12-22-16-607
b'$GNGGA,172155.40,,,,,0,00,99.99,,,,,,*79' 12-22-16-630
b'$GNVTG,,,,,,,,,N*2E' 12-22-16-657
b'$GNGGA,172155.45,,,,,0,00,99.99,,,,,,*7C' 12-22-16-680
b'$GNVTG,,,,,,,,,N*2E' 12-22-16-707
b'$GNGGA,172155.50,,,,,0,00,99.99,,,,,,*78' 12-22-16-730
b'$GNVTG,,,,,,,,,N*2E' 12-22-16-757
b'$GNGGA,172155.55,,,,,0,00,99.99,,,,,,*7D' 12-22-16-780
b'$GNVTG,,,,,,,,,N*2E' 12-22-16-807
b'$GNGGA,172155.60,,,,,0,00,99.99,,,,,,*7B' 12-22-16-830
b'$GNVTG,,,,,,,,,N*2E' 12-22-16-857
b'$GNGGA,172155.65,,,,,0,00,99.99,,,,,,*7E' 12-22-16-880
b'$GNVTG,,,,,,,,,N*2E' 12-22-16-908
b'$GNGGA,172155.70,,,,,0,00,99.99,,,,,,*7A' 12-22-16-930
b'$GNVTG,,,,,,,,,N*2E' 12-22-16-957
b'$GNGGA,172155.75,,,,,0,00,99.99,,,,,,*7F' 12-22-16-980
b'$GNVTG,,,,,,,,,N*2E' 12-22-17-008
b'$GNGGA,172155.80,,,,,0,00,99.99,,,,,,*75' 12-22-17-030
b'$GNVTG,,,,,,,,,N*2E' 12-22-17-057
b'$GNGGA,172155.85,,,,,0,00,99.99,,,,,,*70' 12-22-17-080
b'$GNVTG,,,,,,,,,N*2E' 12-22-17-107
b'$GNGGA,172155.90,,,,,0,00,99.99,,,,,,*74' 12-22-17-130
b'$GNVTG,,,,,,,,,N*2E' 12-22-17-161
b'$GNGGA,172155.95,,,,,0,00,99.99,,,,,,*71' 12-22-17-183
b'$GNVTG,,,,,,,,,N*2E' 12-22-17-207
b'$GNGGA,172156.00,,,,,0,00,99.99,,,,,,*7E' 12-22-17-229
b'$GNVTG,,,,,,,,,N*2E' 12-22-17-257
b'$GNGGA,172156.05,,,,,0,00,99.99,,,,,,*7B' 12-22-17-280
b'$GNVTG,,,,,,,,,N*2E' 12-22-17-307
b'$GNGGA,172156.10,,,,,0,00,99.99,,,,,,*7F' 12-22-17-330
b'$GNVTG,,,,,,,,,N*2E' 12-22-17-358
b'$GNGGA,172156.15,,,,,0,00,99.99,,,,,,*7A' 12-22-17-380
b'$GNVTG,,,,,,,,,N*2E' 12-22-17-407
b'$GNGGA,172156.20,,,,,0,00,99.99,,,,,,*7C' 12-22-17-430
b'$GNVTG,,,,,,,,,N*2E' 12-22-17-458
b'$GNGGA,172156.25,,,,,0,00,99.99,,,,,,*79' 12-22-17-481
b'$GNVTG,,,,,,,,,N*2E' 12-22-17-507
b'$GNGGA,172156.30,,,,,0,00,99.99,,,,,,*7D' 12-22-17-530
b'$GNVTG,,,,,,,,,N*2E' 12-22-17-558
b'$GNGGA,172156.35,,,,,0,00,99.99,,,,,,*78' 12-22-17-580
b'$GNVTG,,,,,,,,,N*2E' 12-22-17-607
b'$GNGGA,172156.40,,,,,0,00,99.99,,,,,,*7A' 12-22-17-630
b'$GNVTG,,,,,,,,,N*2E' 12-22-17-657
b'$GNGGA,172156.45,,,,,0,00,99.99,,,,,,*7F' 12-22-17-680
b'$GNVTG,,,,,,,,,N*2E' 12-22-17-708
b'$GNGGA,172156.50,,,,,0,00,99.99,,,,,,*7B' 12-22-17-730
b'$GNVTG,,,,,,,,,N*2E' 12-22-17-757
b'$GNGGA,172156.55,,,,,0,00,99.99,,,,,,*7E' 12-22-17-780
b'$GNVTG,,,,,,,,,N*2E' 12-22-17-808
b'$GNGGA,172156.60,,,,,0,00,99.99,,,,,,*78' 12-22-17-830
b'$GNVTG,,,,,,,,,N*2E' 12-22-17-857
b'$GNGGA,172156.65,,,,,0,00,99.99,,,,,,*7D' 12-22-17-880
b'$GNVTG,,,,,,,,,N*2E' 12-22-17-908
b'$GNGGA,172156.70,,,,,0,00,99.99,,,,,,*79' 12-22-17-930
b'$GNVTG,,,,,,,,,N*2E' 12-22-17-957
b'$GNGGA,172156.75,,,,,0,00,99.99,,,,,,*7C' 12-22-17-980
b'$GNVTG,,,,,,,,,N*2E' 12-22-18-007
b'$GNGGA,172156.80,,,,,0,00,99.99,,,,,,*76' 12-22-18-030
b'$GNVTG,,,,,,,,,N*2E' 12-22-18-058
b'$GNGGA,172156.85,,,,,0,00,99.99,,,,,,*73' 12-22-18-080
b'$GNVTG,,,,,,,,,N*2E' 12-22-18-107
b'$GNGGA,172156.90,,,,,0,00,99.99,,,,,,*77' 12-22-18-129
b'$GNVTG,,,,,,,,,N*2E' 12-22-18-161
b'$GNGGA,172156.95,,,,,0,00,99.99,,,,,,*72' 12-22-18-183
b'$GNVTG,,,,,,,,,N*2E' 12-22-18-207
b'$GNGGA,172157.00,,,,,0,00,99.99,,,,,,*7F' 12-22-18-230
b'$GNVTG,,,,,,,,,N*2E' 12-22-18-258
b'$GNGGA,172157.05,,,,,0,00,99.99,,,,,,*7A' 12-22-18-280
b'$GNVTG,,,,,,,,,N*2E' 12-22-18-307
b'$GNGGA,172157.10,,,,,0,00,99.99,,,,,,*7E' 12-22-18-330
b'$GNVTG,,,,,,,,,N*2E' 12-22-18-358
b'$GNGGA,172157.15,,,,,0,00,99.99,,,,,,*7B' 12-22-18-380
b'$GNVTG,,,,,,,,,N*2E' 12-22-18-407
b'$GNGGA,172157.20,,,,,0,00,99.99,,,,,,*7D' 12-22-18-430
b'$GNVTG,,,,,,,,,N*2E' 12-22-18-457
b'$GNGGA,172157.25,,,,,0,00,99.99,,,,,,*78' 12-22-18-480
b'$GNVTG,,,,,,,,,N*2E' 12-22-18-508
b'$GNGGA,172157.30,,,,,0,00,99.99,,,,,,*7C' 12-22-18-530
b'$GNVTG,,,,,,,,,N*2E' 12-22-18-557
b'$GNGGA,172157.35,,,,,0,00,99.99,,,,,,*79' 12-22-18-580
b'$GNVTG,,,,,,,,,N*2E' 12-22-18-607
b'$GNGGA,172157.40,,,,,0,00,99.99,,,,,,*7B' 12-22-18-630
b'$GNVTG,,,,,,,,,N*2E' 12-22-18-657
b'$GNGGA,172157.45,,,,,0,00,99.99,,,,,,*7E' 12-22-18-680
b'$GNVTG,,,,,,,,,N*2E' 12-22-18-708
b'$GNGGA,172157.50,,,,,0,00,99.99,,,,,,*7A' 12-22-18-730
b'$GNVTG,,,,,,,,,N*2E' 12-22-18-757
b'$GNGGA,172157.55,,,,,0,00,99.99,,,,,,*7F' 12-22-18-780
b'$GNVTG,,,,,,,,,N*2E' 12-22-18-807
b'$GNGGA,172157.60,,,,,0,00,99.99,,,,,,*79' 12-22-18-830
b'$GNVTG,,,,,,,,,N*2E' 12-22-18-857
b'$GNGGA,172157.65,,,,,0,00,99.99,,,,,,*7C' 12-22-18-880
b'$GNVTG,,,,,,,,,N*2E' 12-22-18-907
b'$GNGGA,172157.70,,,,,0,00,99.99,,,,,,*78' 12-22-18-930
b'$GNVTG,,,,,,,,,N*2E' 12-22-18-958
b'$GNGGA,172157.75,,,,,0,00,99.99,,,,,,*7D' 12-22-18-980
b'$GNVTG,,,,,,,,,N*2E' 12-22-19-007
b'$GNGGA,172157.80,,,,,0,00,99.99,,,,,,*77' 12-22-19-030
b'$GNVTG,,,,,,,,,N*2E' 12-22-19-058
b'$GNGGA,172157.85,,,,,0,00,99.99,,,,,,*72' 12-22-19-080
b'$GNVTG,,,,,,,,,N*2E' 12-22-19-108
b'$GNGGA,172157.90,,,,,0,00,99.99,,,,,,*76' 12-22-19-130
b'$GNVTG,,,,,,,,,N*2E' 12-22-19-161
b'$GNGGA,172157.95,,,,,0,00,99.99,,,,,,*73' 12-22-19-183
b'$GNVTG,,,,,,,,,N*2E' 12-22-19-207
b'$GNGGA,172158.00,,,,,0,00,99.99,,,,,,*70' 12-22-19-230
b'$GNVTG,,,,,,,,,N*2E' 12-22-19-257
b'$GNGGA,172158.05,,,,,0,00,99.99,,,,,,*75' 12-22-19-280
b'$GNVTG,,,,,,,,,N*2E' 12-22-19-308
b'$GNGGA,172158.10,,,,,0,00,99.99,,,,,,*71' 12-22-19-330
b'$GNVTG,,,,,,,,,N*2E' 12-22-19-357
b'$GNGGA,172158.15,,,,,0,00,99.99,,,,,,*74' 12-22-19-380
b'$GNVTG,,,,,,,,,N*2E' 12-22-19-408
b'$GNGGA,172158.20,,,,,0,00,99.99,,,,,,*72' 12-22-19-430
b'$GNVTG,,,,,,,,,N*2E' 12-22-19-457
b'$GNGGA,172158.25,,,,,0,00,99.99,,,,,,*77' 12-22-19-480
b'$GNVTG,,,,,,,,,N*2E' 12-22-19-507
b'$GNGGA,172158.30,,,,,0,00,99.99,,,,,,*73' 12-22-19-530
b'$GNVTG,,,,,,,,,N*2E' 12-22-19-558
b'$GNGGA,172158.35,,,,,0,00,99.99,,,,,,*76' 12-22-19-580
b'$GNVTG,,,,,,,,,N*2E' 12-22-19-607
b'$GNGGA,172158.40,,,,,0,00,99.99,,,,,,*74' 12-22-19-630
b'$GNVTG,,,,,,,,,N*2E' 12-22-19-658
b'$GNGGA,172158.45,,,,,0,00,99.99,,,,,,*71' 12-22-19-681
b'$GNVTG,,,,,,,,,N*2E' 12-22-19-707
b'$GNGGA,172158.50,,,,,0,00,99.99,,,,,,*75' 12-22-19-730
b'$GNVTG,,,,,,,,,N*2E' 12-22-19-758
b'$GNGGA,172158.55,,,,,0,00,99.99,,,,,,*70' 12-22-19-780
b'$GNVTG,,,,,,,,,N*2E' 12-22-19-807
b'$GNGGA,172158.60,,,,,0,00,99.99,,,,,,*76' 12-22-19-830
b'$GNVTG,,,,,,,,,N*2E' 12-22-19-858
b'$GNGGA,172158.65,,,,,0,00,99.99,,,,,,*73' 12-22-19-880
b'$GNVTG,,,,,,,,,N*2E' 12-22-19-907
b'$GNGGA,172158.70,,,,,0,00,99.99,,,,,,*77' 12-22-19-929
b'$GNVTG,,,,,,,,,N*2E' 12-22-19-957
b'$GNGGA,172158.75,,,,,0,00,99.99,,,,,,*72' 12-22-19-980
b'$GNVTG,,,,,,,,,N*2E' 12-22-20-008
b'$GNGGA,172158.80,,,,,0,00,99.99,,,,,,*78' 12-22-20-031
b'$GNVTG,,,,,,,,,N*2E' 12-22-20-057
b'$GNGGA,172158.85,,,,,0,00,99.99,,,,,,*7D' 12-22-20-080
b'$GNVTG,,,,,,,,,N*2E' 12-22-20-107
b'$GNGGA,172158.90,,,,,0,00,99.99,,,,,,*79' 12-22-20-130
b'$GNVTG,,,,,,,,,N*2E' 12-22-20-161
b'$GNGGA,172158.95,,,,,0,00,99.99,,,,,,*7C' 12-22-20-183
b'$GNVTG,,,,,,,,,N*2E' 12-22-20-207
b'$GNGGA,172159.00,,,,,0,00,99.99,,,,,,*71' 12-22-20-230
b'$GNVTG,,,,,,,,,N*2E' 12-22-20-257
b'$GNGGA,172159.05,,,,,0,00,99.99,,,,,,*74' 12-22-20-280
b'$GNVTG,,,,,,,,,N*2E' 12-22-20-307
b'$GNGGA,172159.10,,,,,0,00,99.99,,,,,,*70' 12-22-20-330
b'$GNVTG,,,,,,,,,N*2E' 12-22-20-357
b'$GNGGA,172159.15,,,,,0,00,99.99,,,,,,*75' 12-22-20-380
b'$GNVTG,,,,,,,,,N*2E' 12-22-20-407
b'$GNGGA,172159.20,,,,,0,00,99.99,,,,,,*73' 12-22-20-430
b'$GNVTG,,,,,,,,,N*2E' 12-22-20-457
b'$GNGGA,172159.25,,,,,0,00,99.99,,,,,,*76' 12-22-20-480
b'$GNVTG,,,,,,,,,N*2E' 12-22-20-507
b'$GNGGA,172159.30,,,,,0,00,99.99,,,,,,*72' 12-22-20-530
b'$GNVTG,,,,,,,,,N*2E' 12-22-20-557
b'$GNGGA,172159.35,,,,,0,00,99.99,,,,,,*77' 12-22-20-580
b'$GNVTG,,,,,,,,,N*2E' 12-22-20-607
b'$GNGGA,172159.40,,,,,0,00,99.99,,,,,,*75' 12-22-20-630
b'$GNVTG,,,,,,,,,N*2E' 12-22-20-657
b'$GNGGA,172159.45,,,,,0,00,99.99,,,,,,*70' 12-22-20-680
b'$GNVTG,,,,,,,,,N*2E' 12-22-20-707
b'$GNGGA,172159.50,,,,,0,00,99.99,,,,,,*74' 12-22-20-730
b'$GNVTG,,,,,,,,,N*2E' 12-22-20-758
b'$GNGGA,172159.55,,,,,0,00,99.99,,,,,,*71' 12-22-20-780
b'$GNVTG,,,,,,,,,N*2E' 12-22-20-807
b'$GNGGA,172159.60,,,,,0,00,99.99,,,,,,*77' 12-22-20-829
b'$GNVTG,,,,,,,,,N*2E' 12-22-20-857
b'$GNGGA,172159.65,,,,,0,00,99.99,,,,,,*72' 12-22-20-880
b'$GNVTG,,,,,,,,,N*2E' 12-22-20-907
b'$GNGGA,172159.70,,,,,0,00,99.99,,,,,,*76' 12-22-20-930
b'$GNVTG,,,,,,,,,N*2E' 12-22-20-957
b'$GNGGA,172159.75,,,,,0,00,99.99,,,,,,*73' 12-22-20-980
b'$GNVTG,,,,,,,,,N*2E' 12-22-21-007
b'$GNGGA,172159.80,,,,,0,00,99.99,,,,,,*79' 12-22-21-030
b'$GNVTG,,,,,,,,,N*2E' 12-22-21-057
b'$GNGGA,172159.85,,,,,0,00,99.99,,,,,,*7C' 12-22-21-080
b'$GNVTG,,,,,,,,,N*2E' 12-22-21-107
b'$GNGGA,172159.90,,,,,0,00,99.99,,,,,,*78' 12-22-21-130
b'$GNVTG,,,,,,,,,N*2E' 12-22-21-161
b'$GNGGA,172159.95,,,,,0,00,99.99,,,,,,*7D' 12-22-21-183
b'$GNVTG,,,,,,,,,N*2E' 12-22-21-208
b'$GNGGA,172200.00,,,,,0,00,99.99,,,,,,*7E' 12-22-21-230
b'$GNVTG,,,,,,,,,N*2E' 12-22-21-257
b'$GNGGA,172200.05,,,,,0,00,99.99,,,,,,*7B' 12-22-21-280
b'$GNVTG,,T,,M,0.184,N,0.341,K,A*36' 12-22-21-338
b'$GNGGA,172200.10,4005.68174,N,08814.36169,W,1,05,1.81,225.0,M,-33.2,M,,*73' 12-22-21-362
b'$GNVTG,,T,,M,0.194,N,0.360,K,A*34' 12-22-21-384
b'$GNGGA,172200.15,4005.68175,N,08814.36169,W,1,05,1.81,225.0,M,-33.2,M,,*77' 12-22-21-408
b'$GNVTG,,T,,M,0.108,N,0.200,K,A*36' 12-22-21-430
b'$GNGGA,172200.20,4005.68175,N,08814.36169,W,1,05,1.81,225.0,M,-33.2,M,,*71' 12-22-21-454
b'$GNVTG,,T,,M,0.051,N,0.094,K,A*34' 12-22-21-477
b'$GNGGA,172200.25,4005.68175,N,08814.36170,W,1,05,1.81,225.0,M,-33.2,M,,*7C' 12-22-21-500
b'$GNVTG,,T,,M,0.111,N,0.205,K,A*3B' 12-22-21-522
b'$GNGGA,172200.30,4005.68175,N,08814.36171,W,1,05,1.81,225.1,M,-33.2,M,,*78' 12-22-21-546
b'$GNVTG,,T,,M,0.040,N,0.075,K,A*3B' 12-22-21-569
b'$GNGGA,172200.35,4005.68175,N,08814.36171,W,1,05,1.81,225.1,M,-33.2,M,,*7D' 12-22-21-592
b'$GNVTG,,T,,M,0.038,N,0.070,K,A*31' 12-22-21-617
b'$GNGGA,172200.40,4005.68175,N,08814.36172,W,1,05,1.81,225.1,M,-33.2,M,,*7C' 12-22-21-641
b'$GNVTG,,T,,M,0.077,N,0.143,K,A*3B' 12-22-21-667
b'$GNGGA,172200.45,4005.68175,N,08814.36172,W,1,05,1.81,225.1,M,-33.2,M,,*79' 12-22-21-691
b'$GNVTG,328.18,T,,M,0.403,N,0.747,K,A*20' 12-22-21-717
b'$GNGGA,172200.50,4005.68176,N,08814.36173,W,1,05,1.81,225.2,M,-33.2,M,,*7C' 12-22-21-741
b'$GNVTG,,T,,M,0.285,N,0.528,K,A*3D' 12-22-21-768
b'$GNGGA,172200.55,4005.68177,N,08814.36173,W,1,05,1.81,225.2,M,-33.2,M,,*78' 12-22-21-792
b'$GNVTG,334.33,T,,M,0.298,N,0.552,K,A*26' 12-22-21-818
b'$GNGGA,172200.60,4005.68177,N,08814.36173,W,1,05,1.81,225.2,M,-33.2,M,,*7E' 12-22-21-842
b'$GNVTG,,T,,M,0.193,N,0.358,K,A*38' 12-22-21-868
b'$GNGGA,172200.65,4005.68177,N,08814.36173,W,1,05,1.81,225.2,M,-33.2,M,,*7B' 12-22-21-891
b'$GNVTG,,T,,M,0.005,N,0.009,K,A*31' 12-22-21-918
b'$GNGGA,172200.70,4005.68177,N,08814.36173,W,1,05,1.81,225.3,M,-33.2,M,,*7E' 12-22-21-942
b'$GNVTG,,T,,M,0.022,N,0.041,K,A*38' 12-22-21-968
b'$GNGGA,172200.75,4005.68178,N,08814.36173,W,1,05,1.81,225.3,M,-33.2,M,,*74' 12-22-21-992
b'$GNVTG,,T,,M,0.039,N,0.072,K,A*32' 12-22-22-018
b'$GNGGA,172200.80,4005.68178,N,08814.36173,W,1,05,1.81,225.3,M,-33.2,M,,*7E' 12-22-22-042
b'$GNVTG,,T,,M,0.080,N,0.147,K,A*37' 12-22-22-068
b'$GNGGA,172200.85,4005.68178,N,08814.36174,W,1,05,1.81,225.3,M,-33.2,M,,*7C' 12-22-22-092
b'$GNVTG,,T,,M,0.102,N,0.189,K,A*3E' 12-22-22-118
b'$GNGGA,172200.90,4005.68179,N,08814.36174,W,1,05,1.81,225.3,M,-33.2,M,,*79' 12-22-22-142
b'$GNVTG,,T,,M,0.012,N,0.023,K,A*3F' 12-22-22-171
b'$GNGGA,172200.95,4005.68179,N,08814.36174,W,1,05,1.81,225.3,M,-33.2,M,,*7C' 12-22-22-195
b'$GNVTG,,T,,M,0.052,N,0.096,K,A*35' 12-22-22-218
b'$GNGGA,172201.00,4005.68180,N,08814.36174,W,1,05,1.81,225.4,M,-33.2,M,,*70' 12-22-22-242
b'$GNVTG,,T,,M,0.032,N,0.060,K,A*3A' 12-22-22-268
b'$GNGGA,172201.05,4005.68180,N,08814.36174,W,1,05,1.81,225.4,M,-33.2,M,,*75' 12-22-22-292
b'$GNVTG,,T,,M,0.028,N,0.051,K,A*33' 12-22-22-318
b'$GNGGA,172201.10,4005.68180,N,08814.36174,W,1,05,1.81,225.4,M,-33.2,M,,*71' 12-22-22-341
b'$GNVTG,,T,,M,0.032,N,0.059,K,A*30' 12-22-22-368
b'$GNGGA,172201.15,4005.68181,N,08814.36174,W,1,05,1.81,225.4,M,-33.2,M,,*75' 12-22-22-392
b'$GNVTG,,T,,M,0.069,N,0.128,K,A*39' 12-22-22-418
b'$GNGGA,172201.20,4005.68181,N,08814.36174,W,1,05,1.81,225.4,M,-33.2,M,,*73' 12-22-22-442
b'$GNVTG,,T,,M,0.035,N,0.065,K,A*38' 12-22-22-468
b'$GNGGA,172201.25,4005.68181,N,08814.36175,W,1,05,1.81,225.4,M,-33.2,M,,*77' 12-22-22-491
b'$GNVTG,,T,,M,0.029,N,0.053,K,A*30' 12-22-22-518
b'$GNGGA,172201.30,4005.68181,N,08814.36175,W,1,05,1.81,225.4,M,-33.2,M,,*73' 12-22-22-542
b'$GNVTG,,T,,M,0.053,N,0.098,K,A*3A' 12-22-22-567
b'$GNGGA,172201.35,4005.68181,N,08814.36175,W,1,05,1.81,225.4,M,-33.2,M,,*76' 12-22-22-591
b'$GNVTG,,T,,M,0.011,N,0.021,K,A*3E' 12-22-22-617
b'$GNGGA,172201.40,4005.68181,N,08814.36175,W,1,05,1.81,225.4,M,-33.2,M,,*74' 12-22-22-641
b'$GNVTG,,T,,M,0.032,N,0.059,K,A*30' 12-22-22-668
b'$GNGGA,172201.45,4005.68182,N,08814.36175,W,1,05,1.81,225.4,M,-33.2,M,,*72' 12-22-22-691
b'$GNVTG,,T,,M,0.021,N,0.040,K,A*3A' 12-22-22-718
b'$GNGGA,172201.50,4005.68182,N,08814.36175,W,1,05,1.81,225.4,M,-33.2,M,,*76' 12-22-22-742
b'$GNVTG,,T,,M,0.060,N,0.111,K,A*3A' 12-22-22-768
b'$GNGGA,172201.55,4005.68182,N,08814.36175,W,1,05,1.81,225.5,M,-33.2,M,,*72' 12-22-22-791
b'$GNVTG,,T,,M,0.027,N,0.050,K,A*3D' 12-22-22-818
b'$GNGGA,172201.60,4005.68182,N,08814.36175,W,1,05,1.81,225.5,M,-33.2,M,,*74' 12-22-22-842
b'$GNVTG,,T,,M,0.024,N,0.044,K,A*3B' 12-22-22-868
b'$GNGGA,172201.65,4005.68182,N,08814.36175,W,1,05,1.81,225.5,M,-33.2,M,,*71' 12-22-22-891
b'$GNVTG,,T,,M,0.044,N,0.081,K,A*34' 12-22-22-918
b'$GNGGA,172201.70,4005.68182,N,08814.36175,W,1,05,1.81,225.5,M,-33.2,M,,*75' 12-22-22-941
b'$GNVTG,,T,,M,0.059,N,0.110,K,A*31' 12-22-22-968
b'$GNGGA,172201.75,4005.68182,N,08814.36175,W,1,05,1.81,225.5,M,-33.2,M,,*70' 12-22-22-991
b'$GNVTG,,T,,M,0.044,N,0.082,K,A*37' 12-22-23-018
b'$GNGGA,172201.80,4005.68182,N,08814.36175,W,1,05,1.81,225.5,M,-33.2,M,,*7A' 12-22-23-042
b'$GNVTG,,T,,M,0.083,N,0.153,K,A*31' 12-22-23-068
b'$GNGGA,172201.85,4005.68182,N,08814.36175,W,1,05,1.81,225.5,M,-33.2,M,,*7F' 12-22-23-091
b'$GNVTG,,T,,M,0.004,N,0.008,K,A*31' 12-22-23-118
b'$GNGGA,172201.90,4005.68183,N,08814.36175,W,1,05,1.81,225.5,M,-33.2,M,,*7A' 12-22-23-141
b'$GNVTG,,T,,M,0.043,N,0.080,K,A*32' 12-22-23-171
b'$GNGGA,172201.95,4005.68183,N,08814.36175,W,1,05,1.81,225.5,M,-33.2,M,,*7F' 12-22-23-195
b'$GNVTG,,T,,M,0.036,N,0.066,K,A*38' 12-22-23-218
b'$GNGGA,172202.00,4005.68183,N,08814.36175,W,1,05,1.81,225.5,M,-33.2,M,,*70' 12-22-23-241
b'$GNVTG,,T,,M,0.005,N,0.009,K,A*31' 12-22-23-268
b'$GNGGA,172202.05,4005.68183,N,08814.36175,W,1,05,1.81,225.5,M,-33.2,M,,*75' 12-22-23-292
b'$GNVTG,,T,,M,0.012,N,0.022,K,A*3E' 12-22-23-318
b'$GNGGA,172202.10,4005.68183,N,08814.36175,W,1,05,1.81,225.5,M,-33.2,M,,*71' 12-22-23-341
b'$GNVTG,,T,,M,0.020,N,0.036,K,A*3A' 12-22-23-367
b'$GNGGA,172202.15,4005.68184,N,08814.36175,W,1,05,1.81,225.5,M,-33.2,M,,*73' 12-22-23-391
b'$GNVTG,,T,,M,0.035,N,0.064,K,A*39' 12-22-23-418
b'$GNGGA,172202.20,4005.68184,N,08814.36175,W,1,05,1.81,225.5,M,-33.2,M,,*75' 12-22-23-442
b'$GNVTG,,T,,M,0.037,N,0.069,K,A*36' 12-22-23-467
b'$GNGGA,172202.25,4005.68184,N,08814.36176,W,1,05,1.81,225.5,M,-33.2,M,,*73' 12-22-23-491
b'$GNVTG,,T,,M,0.049,N,0.090,K,A*39' 12-22-23-517
b'$GNGGA,172202.30,4005.68184,N,08814.36175,W,1,05,1.81,225.5,M,-33.2,M,,*74' 12-22-23-540
b'$GNVTG,,T,,M,0.025,N,0.046,K,A*38' 12-22-23-567
b'$GNGGA,172202.35,4005.68184,N,08814.36175,W,1,05,1.81,225.5,M,-33.2,M,,*71' 12-22-23-591
b'$GNVTG,,T,,M,0.046,N,0.085,K,A*32' 12-22-23-618
b'$GNGGA,172202.40,4005.68184,N,08814.36176,W,1,05,1.81,225.5,M,-33.2,M,,*70' 12-22-23-642
b'$GNVTG,,T,,M,0.056,N,0.104,K,A*3B' 12-22-23-668
b'$GNGGA,172202.45,4005.68184,N,08814.36176,W,1,05,1.81,225.6,M,-33.2,M,,*76' 12-22-23-691
b'$GNVTG,,T,,M,0.021,N,0.039,K,A*34' 12-22-23-718
b'$GNGGA,172202.50,4005.68184,N,08814.36176,W,1,05,1.81,225.6,M,-33.2,M,,*72' 12-22-23-742
b'$GNVTG,,T,,M,0.034,N,0.063,K,A*3F' 12-22-23-768
b'$GNGGA,172202.55,4005.68185,N,08814.36176,W,1,05,1.81,225.6,M,-33.2,M,,*76' 12-22-23-791
b'$GNVTG,,T,,M,0.075,N,0.139,K,A*34' 12-22-23-818
b'$GNGGA,172202.60,4005.68185,N,08814.36176,W,1,05,1.81,225.6,M,-33.2,M,,*70' 12-22-23-841
b'$GNVTG,,T,,M,0.044,N,0.082,K,A*37' 12-22-23-868
b'$GNGGA,172202.65,4005.68185,N,08814.36176,W,1,05,1.81,225.6,M,-33.2,M,,*75' 12-22-23-892
b'$GNVTG,,T,,M,0.045,N,0.084,K,A*30' 12-22-23-918
b'$GNGGA,172202.70,4005.68185,N,08814.36176,W,1,05,1.81,225.6,M,-33.2,M,,*71' 12-22-23-942
b'$GNVTG,,T,,M,0.045,N,0.084,K,A*30' 12-22-23-968
b'$GNGGA,172202.75,4005.68185,N,08814.36177,W,1,05,1.81,225.6,M,-33.2,M,,*75' 12-22-23-992
b'$GNVTG,,T,,M,0.024,N,0.045,K,A*3A' 12-22-24-018
b'$GNGGA,172202.80,4005.68185,N,08814.36177,W,1,05,1.81,225.6,M,-33.2,M,,*7F' 12-22-24-042
b'$GNVTG,,T,,M,0.015,N,0.029,K,A*32' 12-22-24-068
b'$GNGGA,172202.85,4005.68185,N,08814.36177,W,1,05,1.81,225.7,M,-33.2,M,,*7B' 12-22-24-092
b'$GNVTG,,T,,M,0.045,N,0.083,K,A*37' 12-22-24-118
b'$GNGGA,172202.90,4005.68186,N,08814.36177,W,1,05,1.81,225.7,M,-33.2,M,,*7C' 12-22-24-141
b'$GNVTG,,T,,M,0.019,N,0.035,K,A*33' 12-22-24-171
b'$GNGGA,172202.95,4005.68186,N,08814.36177,W,1,05,1.81,225.7,M,-33.2,M,,*79' 12-22-24-195
b'$GNVTG,,T,,M,0.026,N,0.048,K,A*35' 12-22-24-218
b'$GNGGA,172203.00,4005.68186,N,08814.36178,W,1,05,1.81,225.7,M,-33.2,M,,*7B' 12-22-24-242
b'$GNVTG,,T,,M,0.023,N,0.042,K,A*3A' 12-22-24-268
b'$GNGGA,172203.05,4005.68186,N,08814.36178,W,1,05,1.81,225.7,M,-33.2,M,,*7E' 12-22-24-291
b'$GNVTG,,T,,M,0.039,N,0.073,K,A*33' 12-22-24-318
b'$GNGGA,172203.10,4005.68186,N,08814.36178,W,1,05,1.81,225.7,M,-33.2,M,,*7A' 12-22-24-342
b'$GNVTG,,T,,M,0.055,N,0.103,K,A*3F' 12-22-24-367
b'$GNGGA,172203.15,4005.68186,N,08814.36178,W,1,05,1.81,225.7,M,-33.2,M,,*7F' 12-22-24-391
b'$GNVTG,,T,,M,0.058,N,0.108,K,A*39' 12-22-24-417
b'$GNGGA,172203.20,4005.68186,N,08814.36178,W,1,05,1.81,225.7,M,-33.2,M,,*79' 12-22-24-441
b'$GNVTG,,T,,M,0.036,N,0.066,K,A*38' 12-22-24-468
b'$GNGGA,172203.25,4005.68186,N,08814.36178,W,1,05,1.81,225.7,M,-33.2,M,,*7C' 12-22-24-492
b'$GNVTG,,T,,M,0.027,N,0.051,K,A*3C' 12-22-24-518
b'$GNGGA,172203.30,4005.68187,N,08814.36178,W,1,05,1.81,225.8,M,-33.2,M,,*76' 12-22-24-542
b'$GNVTG,,T,,M,0.028,N,0.052,K,A*30' 12-22-24-568
b'$GNGGA,172203.35,4005.68187,N,08814.36178,W,1,05,1.81,225.8,M,-33.2,M,,*73' 12-22-24-591
b'$GNVTG,,T,,M,0.034,N,0.064,K,A*38' 12-22-24-618
b'$GNGGA,172203.40,4005.68187,N,08814.36179,W,1,05,1.81,225.8,M,-33.2,M,,*70' 12-22-24-641
b'$GNVTG,,T,,M,0.075,N,0.140,K,A*3A' 12-22-24-668
b'$GNGGA,172203.45,4005.68187,N,08814.36179,W,1,05,1.81,225.8,M,-33.2,M,,*75' 12-22-24-692
b'$GNVTG,,T,,M,0.007,N,0.013,K,A*38' 12-22-24-718
b'$GNGGA,172203.50,4005.68187,N,08814.36179,W,1,05,1.81,225.8,M,-33.2,M,,*71' 12-22-24-741
b'$GNVTG,,T,,M,0.033,N,0.061,K,A*3A' 12-22-24-768
b'$GNGGA,172203.55,4005.68187,N,08814.36179,W,1,05,1.81,225.8,M,-33.2,M,,*74' 12-22-24-791
b'$GNVTG,,T,,M,0.046,N,0.084,K,A*33' 12-22-24-818
b'$GNGGA,172203.60,4005.68187,N,08814.36179,W,1,05,1.81,225.8,M,-33.2,M,,*72' 12-22-24-842
b'$GNVTG,,T,,M,0.024,N,0.045,K,A*3A' 12-22-24-867
b'$GNGGA,172203.65,4005.68187,N,08814.36179,W,1,05,1.81,225.8,M,-33.2,M,,*77' 12-22-24-891
b'$GNVTG,,T,,M,0.009,N,0.016,K,A*33' 12-22-24-918
b'$GNGGA,172203.70,4005.68188,N,08814.36179,W,1,05,1.81,225.8,M,-33.2,M,,*7C' 12-22-24-941
b'$GNVTG,,T,,M,0.021,N,0.038,K,A*35' 12-22-24-968
b'$GNGGA,172203.75,4005.68188,N,08814.36180,W,1,05,1.81,225.8,M,-33.2,M,,*7F' 12-22-24-992
b'$GNVTG,,T,,M,0.043,N,0.080,K,A*32' 12-22-25-018
b'$GNGGA,172203.80,4005.68188,N,08814.36180,W,1,05,1.81,225.8,M,-33.2,M,,*75' 12-22-25-041
b'$GNVTG,,T,,M,0.036,N,0.067,K,A*39' 12-22-25-068
b'$GNGGA,172203.85,4005.68188,N,08814.36180,W,1,05,1.81,225.9,M,-33.2,M,,*71' 12-22-25-091
b'$GNVTG,,T,,M,0.040,N,0.074,K,A*3A' 12-22-25-118
b'$GNGGA,172203.90,4005.68188,N,08814.36180,W,1,05,1.81,225.9,M,-33.2,M,,*75' 12-22-25-142
b'$GNVTG,,T,,M,0.049,N,0.092,K,A*3B' 12-22-25-171
b'$GNGGA,172203.95,4005.68188,N,08814.36180,W,1,05,1.81,225.9,M,-33.2,M,,*70' 12-22-25-195
b'$GNVTG,,T,,M,0.032,N,0.060,K,A*3A' 12-22-25-218
b'$GNGGA,172204.00,4005.68188,N,08814.36180,W,1,05,1.81,225.9,M,-33.2,M,,*7B' 12-22-25-241
b'$GNVTG,,T,,M,0.044,N,0.082,K,A*37' 12-22-25-267
b'$GNGGA,172204.05,4005.68188,N,08814.36180,W,1,05,1.81,225.9,M,-33.2,M,,*7E' 12-22-25-291
b'$GNVTG,,T,,M,0.031,N,0.058,K,A*32' 12-22-25-317
b'$GNGGA,172204.10,4005.68188,N,08814.36181,W,1,05,1.81,225.9,M,-33.2,M,,*7B' 12-22-25-341
b'$GNVTG,,T,,M,0.062,N,0.115,K,A*3C' 12-22-25-368
b'$GNGGA,172204.15,4005.68188,N,08814.36180,W,1,05,1.81,225.9,M,-33.2,M,,*7F' 12-22-25-392
b'$GNVTG,,T,,M,0.057,N,0.105,K,A*3B' 12-22-25-418
b'$GNGGA,172204.20,4005.68188,N,08814.36181,W,1,05,1.81,225.9,M,-33.2,M,,*78' 12-22-25-442
b'$GNVTG,,T,,M,0.051,N,0.094,K,A*34' 12-22-25-468
b'$GNGGA,172204.25,4005.68188,N,08814.36181,W,1,05,1.81,225.9,M,-33.2,M,,*7D' 12-22-25-492
b'$GNVTG,,T,,M,0.072,N,0.133,K,A*39' 12-22-25-518
b'$GNGGA,172204.30,4005.68189,N,08814.36181,W,1,05,1.81,225.9,M,-33.2,M,,*78' 12-22-25-541
b'$GNVTG,,T,,M,0.079,N,0.146,K,A*30' 12-22-25-568
b'$GNGGA,172204.35,4005.68188,N,08814.36181,W,1,05,1.81,225.9,M,-33.2,M,,*7C' 12-22-25-592
b'$GNVTG,,T,,M,0.034,N,0.062,K,A*3E' 12-22-25-618
b'$GNGGA,172204.40,4005.68188,N,08814.36181,W,1,05,1.81,225.9,M,-33.2,M,,*7E' 12-22-25-642
b'$GNVTG,,T,,M,0.025,N,0.045,K,A*3B' 12-22-25-668
b'$GNGGA,172204.45,4005.68188,N,08814.36181,W,1,05,1.81,225.9,M,-33.2,M,,*7B' 12-22-25-692
b'$GNVTG,,T,,M,0.024,N,0.045,K,A*3A' 12-22-25-718
b'$GNGGA,172204.50,4005.68188,N,08814.36181,W,1,05,1.81,225.9,M,-33.2,M,,*7F' 12-22-25-742
b'$GNVTG,,T,,M,0.022,N,0.040,K,A*39' 12-22-25-768
b'$GNGGA,172204.55,4005.68188,N,08814.36181,W,1,05,1.81,225.9,M,-33.2,M,,*7A' 12-22-25-792
b'$GNVTG,,T,,M,0.039,N,0.072,K,A*32' 12-22-25-818
b'$GNGGA,172204.60,4005.68189,N,08814.36182,W,1,05,1.81,225.9,M,-33.2,M,,*7E' 12-22-25-841
b'$GNVTG,,T,,M,0.068,N,0.126,K,A*36' 12-22-25-868
b'$GNGGA,172204.65,4005.68189,N,08814.36182,W,1,05,1.81,226.0,M,-33.2,M,,*71' 12-22-25-892
b'$GNVTG,,T,,M,0.044,N,0.081,K,A*34' 12-22-25-918
b'$GNGGA,172204.70,4005.68188,N,08814.36182,W,1,05,1.81,226.0,M,-33.2,M,,*74' 12-22-25-941
b'$GNVTG,,T,,M,0.023,N,0.043,K,A*3B' 12-22-25-968
b'$GNGGA,172204.75,4005.68188,N,08814.36182,W,1,05,1.81,226.0,M,-33.2,M,,*71' 12-22-25-992
b'$GNVTG,,T,,M,0.022,N,0.041,K,A*38' 12-22-26-018
b'$GNGGA,172204.80,4005.68189,N,08814.36182,W,1,05,1.81,226.0,M,-33.2,M,,*7A' 12-22-26-041
b'$GNVTG,,T,,M,0.033,N,0.062,K,A*39' 12-22-26-067
b'$GNGGA,172204.85,4005.68189,N,08814.36182,W,1,05,1.81,226.0,M,-33.2,M,,*7F' 12-22-26-091
b'$GNVTG,,T,,M,0.046,N,0.086,K,A*31' 12-22-26-118
b'$GNGGA,172204.90,4005.68189,N,08814.36182,W,1,05,1.81,226.0,M,-33.2,M,,*7B' 12-22-26-141
b'$GNVTG,,T,,M,0.070,N,0.129,K,A*30' 12-22-26-171
b'$GNGGA,172204.95,4005.68189,N,08814.36182,W,1,05,1.81,226.0,M,-33.2,M,,*7E' 12-22-26-195
b'$GNVTG,,T,,M,0.019,N,0.035,K,A*33' 12-22-26-217
b'$GNGGA,172205.00,4005.68189,N,08814.36182,W,1,05,1.81,226.0,M,-33.2,M,,*73' 12-22-26-241
b'$GNVTG,,T,,M,0.052,N,0.097,K,A*34' 12-22-26-268
b'$GNGGA,172205.05,4005.68189,N,08814.36183,W,1,05,1.81,226.0,M,-33.2,M,,*77' 12-22-26-292
b'$GNVTG,,T,,M,0.015,N,0.027,K,A*3C' 12-22-26-318
b'$GNGGA,172205.10,4005.68189,N,08814.36183,W,1,05,1.81,226.0,M,-33.2,M,,*73' 12-22-26-342
b'$GNVTG,,T,,M,0.035,N,0.065,K,A*38' 12-22-26-368
b'$GNGGA,172205.15,4005.68189,N,08814.36183,W,1,05,1.81,226.0,M,-33.2,M,,*76' 12-22-26-392
b'$GNVTG,,T,,M,0.025,N,0.047,K,A*39' 12-22-26-418
b'$GNGGA,172205.20,4005.68189,N,08814.36183,W,1,05,1.81,226.0,M,-33.2,M,,*70' 12-22-26-442
b'$GNVTG,,T,,M,0.030,N,0.056,K,A*3D' 12-22-26-468
b'$GNGGA,172205.25,4005.68189,N,08814.36183,W,1,05,1.81,226.0,M,-33.2,M,,*75' 12-22-26-492
b'$GNVTG,,T,,M,0.010,N,0.018,K,A*35' 12-22-26-518
b'$GNGGA,172205.30,4005.68189,N,08814.36183,W,1,05,1.81,226.0,M,-33.2,M,,*71' 12-22-26-541
b'$GNVTG,,T,,M,0.010,N,0.019,K,A*34' 12-22-26-568
b'$GNGGA,172205.35,4005.68189,N,08814.36183,W,1,05,1.81,226.0,M,-33.2,M,,*74' 12-22-26-592
b'$GNVTG,,T,,M,0.053,N,0.098,K,A*3A' 12-22-26-618
b'$GNGGA,172205.40,4005.68189,N,08814.36183,W,1,05,1.81,226.0,M,-33.2,M,,*76' 12-22-26-642
b'$GNVTG,,T,,M,0.008,N,0.015,K,A*31' 12-22-26-668
b'$GNGGA,172205.45,4005.68189,N,08814.36183,W,1,05,1.81,226.0,M,-33.2,M,,*73' 12-22-26-692
b'$GNVTG,,T,,M,0.051,N,0.095,K,A*35' 12-22-26-718
b'$GNGGA,172205.50,4005.68189,N,08814.36183,W,1,05,1.81,226.0,M,-33.2,M,,*77' 12-22-26-742
b'$GNVTG,,T,,M,0.048,N,0.088,K,A*31' 12-22-26-768
b'$GNGGA,172205.55,4005.68189,N,08814.36183,W,1,05,1.81,226.0,M,-33.2,M,,*72' 12-22-26-792
b'$GNVTG,,T,,M,0.054,N,0.101,K,A*3C' 12-22-26-818
b'$GNGGA,172205.60,4005.68189,N,08814.36183,W,1,05,1.81,226.0,M,-33.2,M,,*74' 12-22-26-842
b'$GNVTG,,T,,M,0.013,N,0.024,K,A*39' 12-22-26-868
b'$GNGGA,172205.65,4005.68189,N,08814.36184,W,1,05,1.81,226.0,M,-33.2,M,,*76' 12-22-26-892
b'$GNVTG,,T,,M,0.051,N,0.095,K,A*35' 12-22-26-918
b'$GNGGA,172205.70,4005.68189,N,08814.36184,W,1,05,1.81,226.0,M,-33.2,M,,*72' 12-22-26-942
b'$GNVTG,,T,,M,0.007,N,0.013,K,A*38' 12-22-26-967
b'$GNGGA,172205.75,4005.68189,N,08814.36184,W,1,05,1.81,226.0,M,-33.2,M,,*77' 12-22-26-992
b'$GNVTG,,T,,M,0.007,N,0.013,K,A*38' 12-22-27-018
b'$GNGGA,172205.80,4005.68189,N,08814.36184,W,1,05,1.81,226.0,M,-33.2,M,,*7D' 12-22-27-042
b'$GNVTG,,T,,M,0.048,N,0.090,K,A*38' 12-22-27-067
b'$GNGGA,172205.85,4005.68189,N,08814.36184,W,1,05,1.81,226.0,M,-33.2,M,,*78' 12-22-27-091
b'$GNVTG,,T,,M,0.032,N,0.060,K,A*3A' 12-22-27-117
b'$GNGGA,172205.90,4005.68190,N,08814.36184,W,1,05,1.81,226.0,M,-33.2,M,,*74' 12-22-27-142
b'$GNVTG,,T,,M,0.032,N,0.060,K,A*3A' 12-22-27-172
b'$GNGGA,172205.95,4005.68189,N,08814.36184,W,1,05,1.81,226.1,M,-33.2,M,,*78' 12-22-27-196
b'$GNVTG,,T,,M,0.021,N,0.039,K,A*34' 12-22-27-219
b'$GNGGA,172206.00,4005.68190,N,08814.36185,W,1,05,1.81,226.1,M,-33.2,M,,*7E' 12-22-27-242
b'$GNVTG,,T,,M,0.051,N,0.094,K,A*34' 12-22-27-268
b'$GNGGA,172206.05,4005.68190,N,08814.36184,W,1,05,1.81,226.1,M,-33.2,M,,*7A' 12-22-27-292
b'$GNVTG,,T,,M,0.050,N,0.093,K,A*32' 12-22-27-318
b'$GNGGA,172206.10,4005.68190,N,08814.36184,W,1,05,1.81,226.1,M,-33.2,M,,*7E' 12-22-27-342
b'$GNVTG,,T,,M,0.047,N,0.087,K,A*31' 12-22-27-368
b'$GNGGA,172206.15,4005.68190,N,08814.36185,W,1,05,1.81,226.1,M,-33.2,M,,*7A' 12-22-27-392
b'$GNVTG,,T,,M,0.034,N,0.063,K,A*3F' 12-22-27-418
b'$GNGGA,172206.20,4005.68190,N,08814.36185,W,1,05,1.81,226.1,M,-33.2,M,,*7C' 12-22-27-442
b'$GNVTG,,T,,M,0.042,N,0.078,K,A*34' 12-22-27-468
b'$GNGGA,172206.25,4005.68190,N,08814.36185,W,1,05,1.81,226.1,M,-33.2,M,,*79' 12-22-27-492
b'$GNVTG,,T,,M,0.049,N,0.090,K,A*39' 12-22-27-518
b'$GNGGA,172206.30,4005.68190,N,08814.36185,W,1,05,1.81,226.1,M,-33.2,M,,*7D' 12-22-27-542
b'$GNVTG,,T,,M,0.038,N,0.070,K,A*31' 12-22-27-568
b'$GNGGA,172206.35,4005.68190,N,08814.36185,W,1,05,1.81,226.1,M,-33.2,M,,*78' 12-22-27-592
b'$GNVTG,,T,,M,0.011,N,0.020,K,A*3F' 12-22-27-618
b'$GNGGA,172206.40,4005.68190,N,08814.36185,W,1,05,1.81,226.1,M,-33.2,M,,*7A' 12-22-27-642
b'$GNVTG,,T,,M,0.057,N,0.106,K,A*38' 12-22-27-668
b'$GNGGA,172206.45,4005.68190,N,08814.36185,W,1,05,1.81,226.1,M,-33.2,M,,*7F' 12-22-27-692
b'$GNVTG,,T,,M,0.008,N,0.015,K,A*31' 12-22-27-718
b'$GNGGA,172206.50,4005.68190,N,08814.36185,W,1,05,1.81,226.1,M,-33.2,M,,*7B' 12-22-27-741
b'$GNVTG,,T,,M,0.037,N,0.068,K,A*37' 12-22-27-768
b'$GNGGA,172206.55,4005.68190,N,08814.36185,W,1,05,1.81,226.1,M,-33.2,M,,*7E' 12-22-27-792
b'$GNVTG,,T,,M,0.042,N,0.078,K,A*34' 12-22-27-818
b'$GNGGA,172206.60,4005.68190,N,08814.36185,W,1,05,1.81,226.1,M,-33.2,M,,*78' 12-22-27-841
b'$GNVTG,,T,,M,0.026,N,0.049,K,A*34' 12-22-27-868
b'$GNGGA,172206.65,4005.68190,N,08814.36185,W,1,05,1.81,226.1,M,-33.2,M,,*7D' 12-22-27-892
b'$GNVTG,,T,,M,0.014,N,0.026,K,A*3C' 12-22-27-918
b'$GNGGA,172206.70,4005.68190,N,08814.36185,W,1,05,1.81,226.1,M,-33.2,M,,*79' 12-22-27-942
b'$GNVTG,,T,,M,0.044,N,0.081,K,A*34' 12-22-27-967
b'$GNGGA,172206.75,4005.68190,N,08814.36185,W,1,05,1.81,226.1,M,-33.2,M,,*7C' 12-22-27-991
b'$GNVTG,,T,,M,0.059,N,0.109,K,A*39' 12-22-28-017
b'$GNGGA,172206.80,4005.68190,N,08814.36185,W,1,05,1.81,226.1,M,-33.2,M,,*76' 12-22-28-041
b'$GNVTG,,T,,M,0.062,N,0.115,K,A*3C' 12-22-28-068
b'$GNGGA,172206.85,4005.68190,N,08814.36185,W,1,05,1.81,226.1,M,-33.2,M,,*73' 12-22-28-092
b'$GNVTG,,T,,M,0.052,N,0.096,K,A*35' 12-22-28-118
b'$GNGGA,172206.90,4005.68190,N,08814.36186,W,1,05,1.81,226.1,M,-33.2,M,,*74' 12-22-28-142
b'$GNVTG,,T,,M,0.052,N,0.097,K,A*34' 12-22-28-171
b'$GNGGA,172206.95,4005.68190,N,08814.36186,W,1,05,1.81,226.1,M,-33.2,M,,*71' 12-22-28-195
b'$GNVTG,,T,,M,0.051,N,0.094,K,A*34' 12-22-28-218
b'$GNGGA,172207.00,4005.68190,N,08814.36186,W,1,05,1.81,226.2,M,-33.2,M,,*7F' 12-22-28-241
b'$GNVTG,,T,,M,0.060,N,0.112,K,A*39' 12-22-28-268
b'$GNGGA,172207.05,4005.68191,N,08814.36186,W,1,05,1.81,226.2,M,-33.2,M,,*7B' 12-22-28-292
b'$GNVTG,,T,,M,0.053,N,0.098,K,A*3A' 12-22-28-318
b'$GNGGA,172207.10,4005.68191,N,08814.36186,W,1,05,1.81,226.2,M,-33.2,M,,*7F' 12-22-28-341
b'$GNVTG,,T,,M,0.044,N,0.082,K,A*37' 12-22-28-368
b'$GNGGA,172207.15,4005.68190,N,08814.36186,W,1,05,1.81,226.2,M,-33.2,M,,*7B' 12-22-28-392
b'$GNVTG,,T,,M,0.042,N,0.077,K,A*3B' 12-22-28-418
b'$GNGGA,172207.20,4005.68190,N,08814.36186,W,1,05,1.81,226.2,M,-33.2,M,,*7D' 12-22-28-442
b'$GNVTG,,T,,M,0.050,N,0.092,K,A*33' 12-22-28-468
b'$GNGGA,172207.25,4005.68190,N,08814.36186,W,1,05,1.81,226.2,M,-33.2,M,,*78' 12-22-28-492
b'$GNVTG,,T,,M,0.016,N,0.029,K,A*31' 12-22-28-518
b'$GNGGA,172207.30,4005.68190,N,08814.36186,W,1,05,1.81,226.2,M,-33.2,M,,*7C' 12-22-28-541
b'$GNVTG,,T,,M,0.023,N,0.043,K,A*3B' 12-22-28-568
b'$GNGGA,172207.35,4005.68190,N,08814.36186,W,1,05,1.81,226.2,M,-33.2,M,,*79' 12-22-28-592
b'$GNVTG,,T,,M,0.022,N,0.040,K,A*39' 12-22-28-618
b'$GNGGA,172207.40,4005.68190,N,08814.36186,W,1,05,1.81,226.2,M,-33.2,M,,*7B' 12-22-28-641
b'$GNVTG,,T,,M,0.027,N,0.050,K,A*3D' 12-22-28-668
b'$GNGGA,172207.45,4005.68190,N,08814.36186,W,1,05,1.81,226.2,M,-33.2,M,,*7E' 12-22-28-691
b'$GNGGA,172207.50,4005.68190,N,08814.36186,W,1,05,1.81,226.2,M,-33.2,M,,*7A' 12-22-28-719
b'$GNVTG,,T,,M,0.042,N,0.078,K,A*34' 12-22-28-768
b'$GNGGA,172207.55,4005.68191,N,08814.36186,W,1,05,1.81,226.2,M,-33.2,M,,*7E' 12-22-28-791
b'$GNVTG,,T,,M,0.038,N,0.070,K,A*31' 12-22-28-817
b'$GNGGA,172207.60,4005.68190,N,08814.36186,W,1,05,1.81,226.2,M,-33.2,M,,*79' 12-22-28-841
b'$GNVTG,,T,,M,0.048,N,0.088,K,A*31' 12-22-28-867
b'$GNGGA,172207.65,4005.68190,N,08814.36186,W,1,05,1.81,226.2,M,-33.2,M,,*7C' 12-22-28-891
b'$GNVTG,,T,,M,0.058,N,0.107,K,A*36' 12-22-28-917
b'$GNGGA,172207.70,4005.68190,N,08814.36186,W,1,05,1.81,226.2,M,-33.2,M,,*78' 12-22-28-941
b'$GNVTG,,T,,M,0.107,N,0.198,K,A*3B' 12-22-28-968
b'$GNGGA,172207.75,4005.68191,N,08814.36187,W,1,05,1.81,226.3,M,-33.2,M,,*7C' 12-22-28-991
b'$GNVTG,,T,,M,0.061,N,0.112,K,A*38' 12-22-29-018
b'$GNGGA,172207.80,4005.68191,N,08814.36187,W,1,05,1.81,226.3,M,-33.2,M,,*76' 12-22-29-042
b'$GNVTG,,T,,M,0.026,N,0.048,K,A*35' 12-22-29-067
b'$GNGGA,172207.85,4005.68191,N,08814.36187,W,1,05,1.81,226.3,M,-33.2,M,,*73' 12-22-29-091
b'$GNVTG,,T,,M,0.075,N,0.139,K,A*34' 12-22-29-118
b'$GNGGA,172207.90,4005.68191,N,08814.36186,W,1,05,1.81,226.3,M,-33.2,M,,*76' 12-22-29-141
b'$GNVTG,,T,,M,0.136,N,0.252,K,A*3C' 12-22-29-171
b'$GNGGA,172207.95,4005.68191,N,08814.36186,W,1,05,1.81,226.3,M,-33.2,M,,*73' 12-22-29-195
b'$GNVTG,,T,,M,0.034,N,0.064,K,A*38' 12-22-29-218
b'$GNGGA,172208.00,4005.68191,N,08814.36186,W,1,05,1.81,226.3,M,-33.2,M,,*70' 12-22-29-241
b'$GNVTG,,T,,M,0.039,N,0.072,K,A*32' 12-22-29-268
b'$GNGGA,172208.05,4005.68191,N,08814.36187,W,1,05,1.81,226.3,M,-33.2,M,,*74' 12-22-29-292
b'$GNVTG,,T,,M,0.025,N,0.046,K,A*38' 12-22-29-324
b'$GNGGA,172208.10,4005.68191,N,08814.36187,W,1,05,1.81,226.3,M,-33.2,M,,*70' 12-22-29-348
b'$GNVTG,,T,,M,0.032,N,0.059,K,A*30' 12-22-29-371
b'$GNGGA,172208.15,4005.68191,N,08814.36187,W,1,05,1.81,226.3,M,-33.2,M,,*75' 12-22-29-394
b'$GNVTG,,T,,M,0.022,N,0.041,K,A*38' 12-22-29-419
b'$GNGGA,172208.20,4005.68191,N,08814.36187,W,1,05,1.81,226.3,M,-33.2,M,,*73' 12-22-29-443
b'$GNVTG,,T,,M,0.041,N,0.076,K,A*39' 12-22-29-469
b'$GNGGA,172208.25,4005.68191,N,08814.36187,W,1,05,1.81,226.3,M,-33.2,M,,*76' 12-22-29-493
b'$GNVTG,,T,,M,0.023,N,0.042,K,A*3A' 12-22-29-519
b'$GNGGA,172208.30,4005.68191,N,08814.36187,W,1,05,1.81,226.3,M,-33.2,M,,*72' 12-22-29-544
b'$GNVTG,,T,,M,0.078,N,0.144,K,A*33' 12-22-29-569
b'$GNGGA,172208.35,4005.68191,N,08814.36187,W,1,05,1.81,226.3,M,-33.2,M,,*77' 12-22-29-593
b'$GNVTG,,T,,M,0.062,N,0.116,K,A*3F' 12-22-29-619
b'$GNGGA,172208.40,4005.68191,N,08814.36187,W,1,05,1.81,226.3,M,-33.2,M,,*75' 12-22-29-643
b'$GNVTG,,T,,M,0.073,N,0.135,K,A*3E' 12-22-29-669
b'$GNGGA,172208.45,4005.68191,N,08814.36187,W,1,05,1.81,226.3,M,-33.2,M,,*70' 12-22-29-692
b'$GNVTG,,T,,M,0.015,N,0.027,K,A*3C' 12-22-29-719
b'$GNGGA,172208.50,4005.68191,N,08814.36187,W,1,05,1.81,226.3,M,-33.2,M,,*74' 12-22-29-743
b'$GNVTG,,T,,M,0.053,N,0.098,K,A*3A' 12-22-29-768
b'$GNGGA,172208.55,4005.68192,N,08814.36187,W,1,05,1.81,226.4,M,-33.2,M,,*75' 12-22-29-792
b'$GNVTG,,T,,M,0.050,N,0.093,K,A*32' 12-22-29-818
b'$GNGGA,172208.60,4005.68192,N,08814.36188,W,1,05,1.81,226.4,M,-33.2,M,,*7C' 12-22-29-842
b'$GNVTG,,T,,M,0.037,N,0.068,K,A*37' 12-22-29-869
b'$GNGGA,172208.65,4005.68192,N,08814.36188,W,1,05,1.81,226.3,M,-33.2,M,,*7E' 12-22-29-893
b'$GNVTG,,T,,M,0.048,N,0.089,K,A*30' 12-22-29-920
b'$GNGGA,172208.70,4005.68192,N,08814.36188,W,1,05,1.81,226.4,M,-33.2,M,,*7D' 12-22-29-944
b'$GNVTG,,T,,M,0.089,N,0.165,K,A*3E' 12-22-29-969
b'$GNGGA,172208.75,4005.68192,N,08814.36188,W,1,05,1.81,226.4,M,-33.2,M,,*78' 12-22-29-993
b'$GNVTG,,T,,M,0.081,N,0.149,K,A*38' 12-22-30-020
b'$GNGGA,172208.80,4005.68193,N,08814.36188,W,1,05,1.81,226.4,M,-33.2,M,,*73' 12-22-30-043
b'$GNVTG,,T,,M,0.083,N,0.154,K,A*36' 12-22-30-070
b'$GNGGA,172208.85,4005.68193,N,08814.36188,W,1,05,1.81,226.4,M,-33.2,M,,*76' 12-22-30-093
b'$GNVTG,,T,,M,0.071,N,0.132,K,A*3B' 12-22-30-119
b'$GNGGA,172208.90,4005.68193,N,08814.36188,W,1,05,1.81,226.4,M,-33.2,M,,*72' 12-22-30-143
b'$GNVTG,,T,,M,0.058,N,0.107,K,A*36' 12-22-30-173
b'$GNGGA,172208.95,4005.68193,N,08814.36189,W,1,05,1.81,226.4,M,-33.2,M,,*76' 12-22-30-197
b'$GNVTG,,T,,M,0.044,N,0.082,K,A*37' 12-22-30-220
b'$GNGGA,172209.00,4005.68193,N,08814.36189,W,1,05,1.81,226.4,M,-33.2,M,,*7B' 12-22-30-243
b'$GNVTG,,T,,M,0.071,N,0.131,K,A*38' 12-22-30-269
b'$GNGGA,172209.05,4005.68194,N,08814.36189,W,1,05,1.81,226.4,M,-33.2,M,,*79' 12-22-30-293
b'$GNVTG,,T,,M,0.011,N,0.021,K,A*3E' 12-22-30-320
b'$GNGGA,172209.10,4005.68194,N,08814.36189,W,1,05,1.81,226.4,M,-33.2,M,,*7D' 12-22-30-343
b'$GNVTG,,T,,M,0.039,N,0.072,K,A*32' 12-22-30-369
b'$GNGGA,172209.15,4005.68194,N,08814.36189,W,1,05,1.81,226.4,M,-33.2,M,,*78' 12-22-30-393
b'$GNVTG,,T,,M,0.027,N,0.051,K,A*3C' 12-22-30-419
b'$GNGGA,172209.20,4005.68194,N,08814.36189,W,1,05,1.81,226.4,M,-33.2,M,,*7E' 12-22-30-443
b'$GNVTG,,T,,M,0.066,N,0.121,K,A*3F' 12-22-30-469
b'$GNGGA,172209.25,4005.68194,N,08814.36189,W,1,05,1.81,226.4,M,-33.2,M,,*7B' 12-22-30-493
b'$GNVTG,,T,,M,0.048,N,0.088,K,A*31' 12-22-30-519
b'$GNGGA,172209.30,4005.68194,N,08814.36190,W,1,05,1.81,226.4,M,-33.2,M,,*77' 12-22-30-543
b'$GNVTG,,T,,M,0.055,N,0.102,K,A*3E' 12-22-30-569
b'$GNGGA,172209.35,4005.68195,N,08814.36190,W,1,05,1.81,226.4,M,-33.2,M,,*73' 12-22-30-593
b'$GNVTG,,T,,M,0.033,N,0.062,K,A*39' 12-22-30-619
b'$GNGGA,172209.40,4005.68195,N,08814.36190,W,1,05,1.81,226.4,M,-33.2,M,,*71' 12-22-30-643
b'$GNVTG,,T,,M,0.023,N,0.043,K,A*3B' 12-22-30-669
b'$GNGGA,172209.45,4005.68195,N,08814.36190,W,1,05,1.81,226.4,M,-33.2,M,,*74' 12-22-30-693
b'$GNVTG,,T,,M,0.013,N,0.025,K,A*38' 12-22-30-718
b'$GNGGA,172209.50,4005.68195,N,08814.36190,W,1,05,1.81,226.4,M,-33.2,M,,*70' 12-22-30-742
b'$GNVTG,,T,,M,0.030,N,0.056,K,A*3D' 12-22-30-769
b'$GNGGA,172209.55,4005.68195,N,08814.36190,W,1,05,1.81,226.4,M,-33.2,M,,*75' 12-22-30-793
b'$GNVTG,,T,,M,0.048,N,0.089,K,A*30' 12-22-30-819
b'$GNGGA,172209.60,4005.68196,N,08814.36190,W,1,05,1.81,226.4,M,-33.2,M,,*70' 12-22-30-844
b'$GNVTG,,T,,M,0.021,N,0.040,K,A*3A' 12-22-30-869
b'$GNGGA,172209.65,4005.68196,N,08814.36190,W,1,05,1.81,226.4,M,-33.2,M,,*75' 12-22-30-893
b'$GNVTG,,T,,M,0.032,N,0.059,K,A*30' 12-22-30-919
b'$GNGGA,172209.70,4005.68196,N,08814.36191,W,1,05,1.81,226.4,M,-33.2,M,,*70' 12-22-30-943
b'$GNVTG,,T,,M,0.023,N,0.043,K,A*3B' 12-22-30-969
b'$GNGGA,172209.75,4005.68196,N,08814.36191,W,1,05,1.81,226.4,M,-33.2,M,,*75' 12-22-30-993
b'$GNVTG,,T,,M,0.019,N,0.035,K,A*33' 12-22-31-019
b'$GNGGA,172209.80,4005.68196,N,08814.36191,W,1,05,1.81,226.4,M,-33.2,M,,*7F' 12-22-31-043
b'$GNVTG,,T,,M,0.004,N,0.006,K,A*3F' 12-22-31-069
b'$GNGGA,172209.85,4005.68196,N,08814.36191,W,1,05,1.81,226.4,M,-33.2,M,,*7A' 12-22-31-093
b'$GNVTG,,T,,M,0.022,N,0.041,K,A*38' 12-22-31-120
b'$GNGGA,172209.90,4005.68196,N,08814.36191,W,1,05,1.81,226.4,M,-33.2,M,,*7E' 12-22-31-143
b'$GNVTG,,T,,M,0.018,N,0.033,K,A*34' 12-22-31-173
b'$GNGGA,172209.95,4005.68197,N,08814.36191,W,1,05,1.81,226.4,M,-33.2,M,,*7A' 12-22-31-196
b'$GNVTG,,T,,M,0.013,N,0.024,K,A*39' 12-22-31-220
b'$GNGGA,172210.00,4005.68197,N,08814.36191,W,1,05,1.81,226.4,M,-33.2,M,,*7E' 12-22-31-243
b'$GNVTG,,T,,M,0.035,N,0.066,K,A*3B' 12-22-31-270
b'$GNGGA,172210.05,4005.68197,N,08814.36192,W,1,05,1.81,226.4,M,-33.2,M,,*78' 12-22-31-294
b'$GNVTG,,T,,M,0.053,N,0.098,K,A*3A' 12-22-31-324
b'$GNGGA,172210.10,4005.68197,N,08814.36192,W,1,09,1.20,226.4,M,-33.2,M,,*7B' 12-22-31-348
b'$GNVTG,,T,,M,0.047,N,0.087,K,A*31' 12-22-31-370
b'$GNGGA,172210.15,4005.68197,N,08814.36192,W,1,09,1.20,226.5,M,-33.2,M,,*7F' 12-22-31-394
b'$GNVTG,,T,,M,0.059,N,0.108,K,A*38' 12-22-31-421
b'$GNGGA,172210.20,4005.68196,N,08814.36193,W,1,09,1.20,226.5,M,-33.2,M,,*79' 12-22-31-444
b'$GNVTG,,T,,M,0.012,N,0.023,K,A*3F' 12-22-31-470
b'$GNGGA,172210.25,4005.68196,N,08814.36194,W,1,09,1.20,226.6,M,-33.2,M,,*78' 12-22-31-494
b'$GNVTG,,T,,M,0.112,N,0.207,K,A*3A' 12-22-31-520
b'$GNGGA,172210.30,4005.68196,N,08814.36195,W,1,09,1.20,226.7,M,-33.2,M,,*7C' 12-22-31-546
b'$GNVTG,,T,,M,0.031,N,0.057,K,A*3D' 12-22-31-570
b'$GNGGA,172210.35,4005.68195,N,08814.36196,W,1,09,1.20,226.8,M,-33.2,M,,*76' 12-22-31-593
b'$GNVTG,,T,,M,0.070,N,0.130,K,A*38' 12-22-31-619
b'$GNGGA,172210.40,4005.68194,N,08814.36198,W,1,09,1.20,226.8,M,-33.2,M,,*7B' 12-22-31-643
b'$GNGGA,172210.45,4005.68194,N,08814.36199,W,1,09,1.20,226.9,M,-33.2,M,,*7E' 12-22-31-672
b'$GNVTG,,T,,M,0.024,N,0.045,K,A*3A' 12-22-31-720
b'$GNGGA,172210.50,4005.68193,N,08814.36200,W,1,09,1.20,227.0,M,-33.2,M,,*76' 12-22-31-744
b'$GNVTG,,T,,M,0.088,N,0.163,K,A*39' 12-22-31-770
b'$GNGGA,172210.55,4005.68193,N,08814.36200,W,1,09,1.20,227.1,M,-33.2,M,,*72' 12-22-31-794
b'$GNVTG,,T,,M,0.064,N,0.119,K,A*36' 12-22-31-820
b'$GNGGA,172210.60,4005.68192,N,08814.36201,W,1,09,1.20,227.1,M,-33.2,M,,*74' 12-22-31-844
b'$GNVTG,,T,,M,0.023,N,0.043,K,A*3B' 12-22-31-870
b'$GNGGA,172210.65,4005.68191,N,08814.36203,W,1,09,1.20,227.3,M,-33.2,M,,*72' 12-22-31-894
b'$GNVTG,,T,,M,0.086,N,0.159,K,A*3E' 12-22-31-920
b'$GNGGA,172210.70,4005.68191,N,08814.36204,W,1,09,1.20,227.4,M,-33.2,M,,*76' 12-22-31-944
b'$GNVTG,,T,,M,0.044,N,0.081,K,A*34' 12-22-31-970
b'$GNGGA,172210.75,4005.68190,N,08814.36206,W,1,09,1.20,227.5,M,-33.2,M,,*71' 12-22-31-994
b'$GNVTG,,T,,M,0.066,N,0.122,K,A*3C' 12-22-32-020
b'$GNGGA,172210.80,4005.68190,N,08814.36207,W,1,09,1.20,227.6,M,-33.2,M,,*79' 12-22-32-044
b'$GNVTG,,T,,M,0.014,N,0.027,K,A*3D' 12-22-32-070
b'$GNGGA,172210.85,4005.68189,N,08814.36208,W,1,09,1.20,227.6,M,-33.2,M,,*7B' 12-22-32-094
b'$GNVTG,,T,,M,0.041,N,0.076,K,A*39' 12-22-32-120
b'$GNGGA,172210.90,4005.68189,N,08814.36209,W,1,09,1.20,227.7,M,-33.2,M,,*7F' 12-22-32-144
b'$GNVTG,,T,,M,0.046,N,0.085,K,A*32' 12-22-32-174
b'$GNGGA,172210.95,4005.68188,N,08814.36211,W,1,09,1.20,227.8,M,-33.2,M,,*7D' 12-22-32-198
b'$GNVTG,,T,,M,0.041,N,0.076,K,A*39' 12-22-32-220
b'$GNGGA,172211.00,4005.68187,N,08814.36212,W,1,09,1.20,228.0,M,-33.2,M,,*7B' 12-22-32-244
b'$GNVTG,,T,,M,0.093,N,0.173,K,A*32' 12-22-32-271
b'$GNGGA,172211.05,4005.68187,N,08814.36214,W,1,09,1.20,228.1,M,-33.2,M,,*79' 12-22-32-294
b'$GNVTG,,T,,M,0.039,N,0.072,K,A*32' 12-22-32-321
b'$GNGGA,172211.10,4005.68186,N,08814.36216,W,1,09,1.20,228.2,M,-33.2,M,,*7D' 12-22-32-344
b'$GNVTG,,T,,M,0.069,N,0.128,K,A*39' 12-22-32-370
b'$GNGGA,172211.15,4005.68186,N,08814.36218,W,1,09,1.20,228.3,M,-33.2,M,,*77' 12-22-32-394
b'$GNVTG,,T,,M,0.063,N,0.118,K,A*30' 12-22-32-421
b'$GNGGA,172211.20,4005.68185,N,08814.36219,W,1,09,1.20,228.5,M,-33.2,M,,*75' 12-22-32-444
b'$GNVTG,,T,,M,0.017,N,0.032,K,A*3A' 12-22-32-470
b'$GNGGA,172211.25,4005.68185,N,08814.36221,W,1,09,1.20,228.6,M,-33.2,M,,*78' 12-22-32-494
b'$GNVTG,,T,,M,0.091,N,0.168,K,A*3A' 12-22-32-521
b'$GNGGA,172211.30,4005.68184,N,08814.36222,W,1,09,1.20,228.7,M,-33.2,M,,*7F' 12-22-32-545
b'$GNVTG,,T,,M,0.046,N,0.085,K,A*32' 12-22-32-570
b'$GNGGA,172211.35,4005.68183,N,08814.36224,W,1,09,1.20,228.8,M,-33.2,M,,*74' 12-22-32-594
b'$GNVTG,,T,,M,0.043,N,0.080,K,A*32' 12-22-32-621
b'$GNGGA,172211.40,4005.68183,N,08814.36225,W,1,09,1.20,228.9,M,-33.2,M,,*76' 12-22-32-645
b'$GNVTG,,T,,M,0.057,N,0.105,K,A*3B' 12-22-32-670
b'$GNGGA,172211.45,4005.68182,N,08814.36226,W,1,09,1.20,229.0,M,-33.2,M,,*79' 12-22-32-694
b'$GNVTG,,T,,M,0.054,N,0.100,K,A*3D' 12-22-32-721
b'$GNGGA,172211.50,4005.68182,N,08814.36228,W,1,09,1.20,229.1,M,-33.2,M,,*72' 12-22-32-744
b'$GNVTG,,T,,M,0.030,N,0.055,K,A*3E' 12-22-32-771
b'$GNGGA,172211.55,4005.68181,N,08814.36229,W,1,09,1.20,229.1,M,-33.2,M,,*75' 12-22-32-794
b'$GNVTG,,T,,M,0.052,N,0.096,K,A*35' 12-22-32-820
b'$GNGGA,172211.60,4005.68181,N,08814.36230,W,1,09,1.20,229.2,M,-33.2,M,,*78' 12-22-32-844
b'$GNVTG,,T,,M,0.083,N,0.154,K,A*36' 12-22-32-871
b'$GNGGA,172211.65,4005.68180,N,08814.36232,W,1,09,1.20,229.3,M,-33.2,M,,*7F' 12-22-32-896
b'$GNVTG,,T,,M,0.034,N,0.063,K,A*3F' 12-22-32-921
b'$GNGGA,172211.70,4005.68179,N,08814.36233,W,1,09,1.20,229.3,M,-33.2,M,,*7C' 12-22-32-946
b'$GNVTG,,T,,M,0.040,N,0.075,K,A*3B' 12-22-32-971
b'$GNGGA,172211.75,4005.68179,N,08814.36234,W,1,09,1.20,229.4,M,-33.2,M,,*79' 12-22-32-996
b'$GNVTG,,T,,M,0.027,N,0.050,K,A*3D' 12-22-33-020
b'$GNGGA,172211.80,4005.68178,N,08814.36236,W,1,09,1.20,229.5,M,-33.2,M,,*71' 12-22-33-045
b'$GNVTG,,T,,M,0.055,N,0.102,K,A*3E' 12-22-33-071
b'$GNGGA,172211.85,4005.68178,N,08814.36237,W,1,09,1.20,229.5,M,-33.2,M,,*75' 12-22-33-096
b'$GNVTG,,T,,M,0.030,N,0.056,K,A*3D' 12-22-33-121
b'$GNGGA,172211.90,4005.68177,N,08814.36238,W,1,09,1.20,229.6,M,-33.2,M,,*72' 12-22-33-143
b'$GNVTG,,T,,M,0.048,N,0.089,K,A*30' 12-22-33-175
b'$GNGGA,172211.95,4005.68176,N,08814.36239,W,1,09,1.20,229.7,M,-33.2,M,,*76' 12-22-33-199
b'$GNVTG,,T,,M,0.038,N,0.070,K,A*31' 12-22-33-221
b'$GNGGA,172212.00,4005.68176,N,08814.36240,W,1,09,1.20,229.7,M,-33.2,M,,*77' 12-22-33-244
b'$GNVTG,,T,,M,0.048,N,0.090,K,A*38' 12-22-33-271
b'$GNGGA,172212.05,4005.68175,N,08814.36242,W,1,09,1.20,229.8,M,-33.2,M,,*7C' 12-22-33-294
b'$GNVTG,,T,,M,0.030,N,0.055,K,A*3E' 12-22-33-321
b'$GNGGA,172212.10,4005.68175,N,08814.36243,W,1,09,1.20,229.9,M,-33.2,M,,*78' 12-22-33-345
b'$GNVTG,,T,,M,0.054,N,0.100,K,A*3D' 12-22-33-370
b'$GNGGA,172212.15,4005.68174,N,08814.36244,W,1,09,1.20,229.9,M,-33.2,M,,*7B' 12-22-33-393
b'$GNVTG,,T,,M,0.045,N,0.083,K,A*37' 12-22-33-420
b'$GNGGA,172212.20,4005.68174,N,08814.36245,W,1,09,1.20,230.0,M,-33.2,M,,*7D' 12-22-33-443
b'$GNVTG,,T,,M,0.035,N,0.065,K,A*38' 12-22-33-471
b'$GNGGA,172212.25,4005.68173,N,08814.36246,W,1,09,1.20,230.0,M,-33.2,M,,*7C' 12-22-33-494
b'$GNVTG,,T,,M,0.058,N,0.108,K,A*39' 12-22-33-521
b'$GNGGA,172212.30,4005.68173,N,08814.36247,W,1,09,1.20,230.1,M,-33.2,M,,*78' 12-22-33-544
b'$GNVTG,,T,,M,0.037,N,0.069,K,A*36' 12-22-33-571
b'$GNGGA,172212.35,4005.68173,N,08814.36248,W,1,09,1.20,230.2,M,-33.2,M,,*71' 12-22-33-593
b'$GNVTG,,T,,M,0.059,N,0.110,K,A*31' 12-22-33-621
b'$GNGGA,172212.40,4005.68172,N,08814.36249,W,1,09,1.20,230.2,M,-33.2,M,,*73' 12-22-33-644
b'$GNVTG,,T,,M,0.037,N,0.069,K,A*36' 12-22-33-671
b'$GNGGA,172212.45,4005.68172,N,08814.36250,W,1,09,1.20,230.3,M,-33.2,M,,*7F' 12-22-33-695
b'$GNVTG,,T,,M,0.037,N,0.069,K,A*36' 12-22-33-721
b'$GNGGA,172212.50,4005.68171,N,08814.36251,W,1,09,1.20,230.3,M,-33.2,M,,*79' 12-22-33-744
b'$GNVTG,,T,,M,0.041,N,0.077,K,A*38' 12-22-33-771
b'$GNGGA,172212.55,4005.68171,N,08814.36252,W,1,09,1.20,230.4,M,-33.2,M,,*78' 12-22-33-795
b'$GNVTG,,T,,M,0.039,N,0.072,K,A*32' 12-22-33-821
b'$GNGGA,172212.60,4005.68171,N,08814.36253,W,1,09,1.20,230.4,M,-33.2,M,,*7F' 12-22-33-844
b'$GNVTG,,T,,M,0.063,N,0.116,K,A*3E' 12-22-33-871
b'$GNGGA,172212.65,4005.68170,N,08814.36254,W,1,09,1.20,230.5,M,-33.2,M,,*7D' 12-22-33-893
b'$GNVTG,,T,,M,0.027,N,0.049,K,A*35' 12-22-33-921
b'$GNGGA,172212.70,4005.68170,N,08814.36255,W,1,09,1.20,230.5,M,-33.2,M,,*78' 12-22-33-943
b'$GNVTG,,T,,M,0.010,N,0.019,K,A*34' 12-22-33-971
b'$GNGGA,172212.75,4005.68170,N,08814.36256,W,1,09,1.20,230.6,M,-33.2,M,,*7D' 12-22-33-994
b'$GNVTG,,T,,M,0.037,N,0.069,K,A*36' 12-22-34-021
b'$GNGGA,172212.80,4005.68169,N,08814.36257,W,1,09,1.20,230.6,M,-33.2,M,,*7E' 12-22-34-043
b'$GNVTG,,T,,M,0.006,N,0.012,K,A*38' 12-22-34-071
b'$GNGGA,172212.85,4005.68169,N,08814.36258,W,1,09,1.20,230.7,M,-33.2,M,,*75' 12-22-34-094
b'$GNVTG,,T,,M,0.023,N,0.043,K,A*3B' 12-22-34-121
b'$GNGGA,172212.90,4005.68169,N,08814.36258,W,1,09,1.20,230.7,M,-33.2,M,,*71' 12-22-34-144
b'$GNVTG,,T,,M,0.035,N,0.065,K,A*38' 12-22-34-175
b'$GNGGA,172212.95,4005.68168,N,08814.36259,W,1,09,1.20,230.7,M,-33.2,M,,*74' 12-22-34-197
b'$GNVTG,,T,,M,0.017,N,0.031,K,A*39' 12-22-34-221
b'$GNGGA,172213.00,4005.68168,N,08814.36260,W,1,09,1.20,230.8,M,-33.2,M,,*7C' 12-22-34-244
b'$GNVTG,,T,,M,0.025,N,0.047,K,A*39' 12-22-34-271
b'$GNGGA,172213.05,4005.68168,N,08814.36261,W,1,09,1.20,230.8,M,-33.2,M,,*78' 12-22-34-293
b'$GNVTG,,T,,M,0.061,N,0.112,K,A*38' 12-22-34-320
b'$GNGGA,172213.10,4005.68167,N,08814.36262,W,1,09,1.20,230.9,M,-33.2,M,,*71' 12-22-34-344
b'$GNVTG,,T,,M,0.019,N,0.035,K,A*33' 12-22-34-371
b'$GNGGA,172213.15,4005.68167,N,08814.36263,W,1,09,1.20,230.9,M,-33.2,M,,*75' 12-22-34-395
b'$GNVTG,,T,,M,0.045,N,0.084,K,A*30' 12-22-34-421
b'$GNGGA,172213.20,4005.68166,N,08814.36263,W,1,09,1.20,231.0,M,-33.2,M,,*7A' 12-22-34-444
b'$GNVTG,,T,,M,0.027,N,0.049,K,A*35' 12-22-34-471
b'$GNGGA,172213.25,4005.68166,N,08814.36264,W,1,09,1.20,231.0,M,-33.2,M,,*78' 12-22-34-495
b'$GNVTG,,T,,M,0.003,N,0.006,K,A*38' 12-22-34-521
b'$GNGGA,172213.30,4005.68166,N,08814.36265,W,1,09,1.20,231.1,M,-33.2,M,,*7C' 12-22-34-544
b'$GNVTG,,T,,M,0.044,N,0.082,K,A*37' 12-22-34-571
b'$GNGGA,172213.35,4005.68165,N,08814.36266,W,1,09,1.20,231.1,M,-33.2,M,,*79' 12-22-34-594
b'$GNVTG,,T,,M,0.066,N,0.122,K,A*3C' 12-22-34-621
b'$GNGGA,172213.40,4005.68165,N,08814.36267,W,1,09,1.20,231.2,M,-33.2,M,,*79' 12-22-34-643
b'$GNVTG,,T,,M,0.032,N,0.059,K,A*30' 12-22-34-671
b'$GNGGA,172213.45,4005.68165,N,08814.36267,W,1,09,1.20,231.2,M,-33.2,M,,*7C' 12-22-34-694
b'$GNVTG,,T,,M,0.028,N,0.053,K,A*31' 12-22-34-721
b'$GNGGA,172213.50,4005.68164,N,08814.36268,W,1,09,1.20,231.3,M,-33.2,M,,*77' 12-22-34-744
b'$GNVTG,,T,,M,0.026,N,0.049,K,A*34' 12-22-34-771
b'$GNGGA,172213.55,4005.68164,N,08814.36269,W,1,09,1.20,231.3,M,-33.2,M,,*73' 12-22-34-794
b'$GNVTG,,T,,M,0.055,N,0.101,K,A*3D' 12-22-34-821
b'$GNGGA,172213.60,4005.68164,N,08814.36270,W,1,09,1.20,231.4,M,-33.2,M,,*7A' 12-22-34-844
b'$GNVTG,,T,,M,0.021,N,0.039,K,A*34' 12-22-34-871
b'$GNGGA,172213.65,4005.68163,N,08814.36270,W,1,09,1.20,231.4,M,-33.2,M,,*78' 12-22-34-894
b'$GNVTG,,T,,M,0.031,N,0.058,K,A*32' 12-22-34-921
b'$GNGGA,172213.70,4005.68163,N,08814.36271,W,1,09,1.20,231.5,M,-33.2,M,,*7C' 12-22-34-943
b'$GNVTG,,T,,M,0.042,N,0.078,K,A*34' 12-22-34-971
b'$GNGGA,172213.75,4005.68162,N,08814.36272,W,1,09,1.20,231.5,M,-33.2,M,,*7B' 12-22-34-994
