hello
CAN logging
Accel logging
Steering logging
Cooling loop logging
b'$GNVTG,,,,,,,,,N*2E' 09-25-06-292
b'$GNGGA,,,,,,0,00,99.99,,,,,,*56' 09-25-06-316
b'$GNVTG,,,,,,,,,N*2E' 09-25-06-341
b'$GNGGA,,,,,,0,00,99.99,,,,,,*56' 09-25-06-365
b'$GNVTG,,,,,,,,,N*2E' 09-25-06-389
b'$GNGGA,,,,,,0,00,99.99,,,,,,*56' 09-25-06-414
b'$GNVTG,,,,,,,,,N*2E' 09-25-06-437
b'$GNGGA,,,,,,0,00,99.99,,,,,,*56' 09-25-06-463
b'$GNVTG,,,,,,,,,N*2E' 09-25-06-485
b'$GNGGA,,,,,,0,00,99.99,,,,,,*56' 09-25-06-507
b'$GNVTG,,,,,,,,,N*2E' 09-25-06-529
b'$GNGGA,,,,,,0,00,99.99,,,,,,*56' 09-25-06-551
b'$GNVTG,,,,,,,,,N*2E' 09-25-06-573
b'$GNGGA,,,,,,0,00,99.99,,,,,,*56' 09-25-06-595
b'$GNVTG,,,,,,,,,N*2E' 09-25-06-617
b'$GNGGA,,,,,,0,00,99.99,,,,,,*56' 09-25-06-639
b'$GNVTG,,,,,,,,,N*2E' 09-25-06-660
b'$GNGGA,,,,,,0,00,99.99,,,,,,*56' 09-25-06-682
b'$GNVTG,,,,,,,,,N*2E' 09-25-06-704
b'$GNGGA,,,,,,0,00,99.99,,,,,,*56' 09-25-06-726
b'$GNVTG,,,,,,,,,N*2E' 09-25-06-749
b'$GNGGA,,,,,,0,00,99.99,,,,,,*56' 09-25-06-774
b'$GNVTG,,,,,,,,,N*2E' 09-25-06-796
b'$GNGGA,,,,,,0,00,99.99,,,,,,*56' 09-25-06-818
b'$GNVTG,,,,,,,,,N*2E' 09-25-06-840
b'$GNGGA,,,,,,0,00,99.99,,,,,,*56' 09-25-06-862
b'$GNVTG,,,,,,,,,N*2E' 09-25-06-883
b'$GNGGA,,,,,,0,00,99.99,,,,,,*56' 09-25-06-906
b'$GNVTG,,,,,,,,,N*2E' 09-25-06-927
b'$GNGGA,,,,,,0,00,99.99,,,,,,*56' 09-25-06-948
b'$GNVTG,,,,,,,,,N*2E' 09-25-06-970
b'$GNGGA,,,,,,0,00,99.99,,,,,,*56' 09-25-06-992
b'$GNVTG,,,,,,,,,N*2E' 09-25-07-013
b'$GNGGA,,,,,,0,00,99.99,,,,,,*56' 09-25-07-035
b'$GNVTG,,,,,,,,,N*2E' 09-25-07-056
b'$GNGGA,,,,,,0,00,99.99,,,,,,*56' 09-25-07-078
b'$GNVTG,,,,,,,,,N*2E' 09-25-07-100
b'$GNGGA,,,,,,0,00,99.99,,,,,,*56' 09-25-07-124
b'$GNVTG,,,,,,,,,N*2E' 09-25-07-148
b'$GNGGA,,,,,,0,00,99.99,,,,,,*56' 09-25-07-172
b'$GNVTG,,,,,,,,,N*2E' 09-25-07-197
b'$GNGGA,,,,,,0,00,99.99,,,,,,*56' 09-25-07-222
b'$GNVTG,,,,,,,,,N*2E' 09-25-07-245
b'$GNGGA,,,,,,0,00,99.99,,,,,,*56' 09-25-07-268
b'$GNVTG,,,,,,,,,N*2E' 09-25-07-292
b'$GNGGA,,,,,,0,00,99.99,,,,,,*56' 09-25-07-316
b'$GNVTG,,,,,,,,,N*2E' 09-25-07-338
b'$GNGGA,,,,,,0,00,99.99,,,,,,*56' 09-25-07-361
b'$GNVTG,,,,,,,,,N*2E' 09-25-07-384
b'$GNGGA,,,,,,0,00,99.99,,,,,,*56' 09-25-07-407
b'$GNVTG,,,,,,,,,N*2E' 09-25-07-430
b'$GNGGA,,,,,,0,00,99.99,,,,,,*56' 09-25-07-452
b'$GNVTG,,,,,,,,,N*2E' 09-25-07-472
b'$GNGGA,,,,,,0,00,99.99,,,,,,*56' 09-25-07-494
b'$GNVTG,,,,,,,,,N*2E' 09-25-07-515
b'$GNGGA,,,,,,0,00,99.99,,,,,,*56' 09-25-07-536
b'$GNVTG,,,,,,,,,N*2E' 09-25-07-557
b'$GNGGA,,,,,,0,00,99.99,,,,,,*56' 09-25-07-578
b'$GNVTG,,,,,,,,,N*2E' 09-25-07-599
b'$GNGGA,,,,,,0,00,99.99,,,,,,*56' 09-25-07-620
b'$GNVTG,,,,,,,,,N*2E' 09-25-07-641
b'$GNGGA,,,,,,0,00,99.99,,,,,,*56' 09-25-07-663
b'$GNVTG,,,,,,,,,N*2E' 09-25-07-683
b'$GNGGA,,,,,,0,00,99.99,,,,,,*56' 09-25-07-707
b'$GNVTG,,,,,,,,,N*2E' 09-25-07-732
b'$GNGGA,,,,,,0,00,99.99,,,,,,*56' 09-25-07-755
b'$GNVTG,,,,,,,,,N*2E' 09-25-07-778
b'$GNGGA,,,,,,0,00,99.99,,,,,,*56' 09-25-07-803
b'$GNVTG,,,,,,,,,N*2E' 09-25-07-826
b'$GNGGA,,,,,,0,00,99.99,,,,,,*56' 09-25-07-849
b'$GNVTG,,,,,,,,,N*2E' 09-25-07-872
b'$GNGGA,,,,,,0,00,99.99,,,,,,*56' 09-25-07-895
b'$GNVTG,,,,,,,,,N*2E' 09-25-07-918
b'$GNGGA,,,,,,0,00,99.99,,,,,,*56' 09-25-07-941
b'$GNVTG,,,,,,,,,N*2E' 09-25-07-963
b'$GNGGA,,,,,,0,00,99.99,,,,,,*56' 09-25-07-984
b'$GNVTG,,,,,,,,,N*2E' 09-25-08-005
b'$GNGGA,,,,,,0,00,99.99,,,,,,*56' 09-25-08-027
b'$GNVTG,,,,,,,,,N*2E' 09-25-08-048
b'$GNGGA,,,,,,0,00,99.99,,,,,,*56' 09-25-08-069
b'$GNVTG,,,,,,,,,N*2E' 09-25-08-090
b'$GNGGA,,,,,,0,00,99.99,,,,,,*56' 09-25-08-112
b'$GNVTG,,,,,,,,,N*2E' 09-25-08-133
b'$GNGGA,,,,,,0,00,99.99,,,,,,*56' 09-25-08-154
b'$GNVTG,,,,,,,,,N*2E' 09-25-08-175
b'$GNGGA,,,,,,0,00,99.99,,,,,,*56' 09-25-08-196
b'$GNVTG,,,,,,,,,N*2E' 09-25-08-219
b'$GNGGA,,,,,,0,00,99.99,,,,,,*56' 09-25-08-242
b'$GNVTG,,,,,,,,,N*2E' 09-25-08-264
b'$GNGGA,,,,,,0,00,99.99,,,,,,*56' 09-25-08-286
b'$GNVTG,,,,,,,,,N*2E' 09-25-08-307
b'$GNGGA,,,,,,0,00,99.99,,,,,,*56' 09-25-08-330
b'$GNVTG,,,,,,,,,N*2E' 09-25-08-352
b'$GNGGA,142441.51,,,,,0,00,99.99,,,,,,*7A' 09-25-08-377
b'$GNVTG,,,,,,,,,N*2E' 09-25-08-399
b'$GNGGA,142441.56,,,,,0,00,99.99,,,,,,*7D' 09-25-08-423
b'$GNVTG,,,,,,,,,N*2E' 09-25-08-446
b'$GNGGA,142441.61,,,,,0,00,99.99,,,,,,*79' 09-25-08-469
b'$GNVTG,,,,,,,,,N*2E' 09-25-08-492
b'$GNGGA,142441.66,,,,,0,00,99.99,,,,,,*7E' 09-25-08-515
b'$GNVTG,,,,,,,,,N*2E' 09-25-08-538
b'$GNGGA,142441.71,,,,,0,00,99.99,,,,,,*78' 09-25-08-560
b'$GNVTG,,,,,,,,,N*2E' 09-25-08-584
b'$GNGGA,142441.75,,,,,0,00,99.99,,,,,,*7C' 09-25-08-611
b'$GNVTG,,,,,,,,,N*2E' 09-25-08-634
b'$GNGGA,142441.80,,,,,0,00,99.99,,,,,,*76' 09-25-08-656
b'$GNVTG,,,,,,,,,N*2E' 09-25-08-680
b'$GNGGA,142441.85,,,,,0,00,99.99,,,,,,*73' 09-25-08-703
b'$GNVTG,,,,,,,,,N*2E' 09-25-08-727
b'$GNGGA,142441.90,,,,,0,00,99.99,,,,,,*77' 09-25-08-749
b'$GNVTG,,,,,,,,,N*2E' 09-25-08-771
b'$GNGGA,142441.95,,,,,0,00,99.99,,,,,,*72' 09-25-08-793
b'$GNVTG,,,,,,,,,N*2E' 09-25-08-814
b'$GNGGA,142442.00,,,,,0,00,99.99,,,,,,*7D' 09-25-08-837
b'$GNVTG,,,,,,,,,N*2E' 09-25-08-858
b'$GNGGA,142442.05,,,,,0,00,99.99,,,,,,*78' 09-25-08-880
b'$GNVTG,,,,,,,,,N*2E' 09-25-08-901
b'$GNGGA,142442.10,,,,,0,00,99.99,,,,,,*7C' 09-25-08-922
b'$GNVTG,,,,,,,,,N*2E' 09-25-08-943
b'$GNGGA,142442.15,,,,,0,00,99.99,,,,,,*79' 09-25-08-965
b'$GNVTG,,,,,,,,,N*2E' 09-25-08-986
b'$GNGGA,142442.20,,,,,0,00,99.99,,,,,,*7F' 09-25-09-009
b'$GNVTG,,,,,,,,,N*2E' 09-25-09-030
b'$GNGGA,142442.25,,,,,0,00,99.99,,,,,,*7A' 09-25-09-052
b'$GNVTG,,,,,,,,,N*2E' 09-25-09-073
b'$GNGGA,142442.30,,,,,0,00,99.99,,,,,,*7E' 09-25-09-096
b'$GNVTG,,,,,,,,,N*2E' 09-25-09-117
b'$GNGGA,142442.35,,,,,0,00,99.99,,,,,,*7B' 09-25-09-139
b'$GNVTG,,,,,,,,,N*2E' 09-25-09-161
b'$GNGGA,142442.40,,,,,0,00,99.99,,,,,,*79' 09-25-09-183
b'$GNVTG,,,,,,,,,N*2E' 09-25-09-205
b'$GNGGA,142442.45,,,,,0,00,99.99,,,,,,*7C' 09-25-09-227
b'$GNVTG,,,,,,,,,N*2E' 09-25-09-248
b'$GNGGA,142442.50,,,,,0,00,99.99,,,,,,*78' 09-25-09-269
b'$GNVTG,,,,,,,,,N*2E' 09-25-09-291
b'$GNGGA,142442.55,,,,,0,00,99.99,,,,,,*7D' 09-25-09-313
b'$GNVTG,,,,,,,,,N*2E' 09-25-09-334
b'$GNGGA,142442.60,,,,,0,00,99.99,,,,,,*7B' 09-25-09-356
b'$GNVTG,,,,,,,,,N*2E' 09-25-09-378
b'$GNGGA,142442.65,,,,,0,00,99.99,,,,,,*7E' 09-25-09-400
b'$GNVTG,,,,,,,,,N*2E' 09-25-09-422
b'$GNGGA,142442.70,,,,,0,00,99.99,,,,,,*7A' 09-25-09-445
b'$GNVTG,,,,,,,,,N*2E' 09-25-09-466
b'$GNGGA,142442.75,,,,,0,00,99.99,,,,,,*7F' 09-25-09-488
b'$GNVTG,,,,,,,,,N*2E' 09-25-09-510
b'$GNGGA,142442.80,,,,,0,00,99.99,,,,,,*75' 09-25-09-532
b'$GNVTG,,,,,,,,,N*2E' 09-25-09-553
b'$GNGGA,142442.85,,,,,0,00,99.99,,,,,,*70' 09-25-09-575
b'$GNVTG,,,,,,,,,N*2E' 09-25-09-597
b'$GNVTG,,,,,,,,,N*2E' 09-25-09-618
b'$GNGGA,142448.95,,,,,0,00,99.99,,,,,,*7B' 09-25-09-641
b'$GNVTG,,,,,,,,,N*2E' 09-25-09-662
b'$GNGGA,142449.00,,,,,0,00,99.99,,,,,,*76' 09-25-09-684
b'$GNVTG,,,,,,,,,N*2E' 09-25-09-706
b'$GNGGA,142449.05,,,,,0,00,99.99,,,,,,*73' 09-25-09-728
b'$GNVTG,,,,,,,,,N*2E' 09-25-09-750
b'$GNGGA,142449.10,,,,,0,00,99.99,,,,,,*77' 09-25-09-772
b'$GNVTG,,,,,,,,,N*2E' 09-25-09-793
b'$GNGGA,142449.15,,,,,0,00,99.99,,,,,,*72' 09-25-09-815
b'$GNVTG,,,,,,,,,N*2E' 09-25-09-837
b'$GNGGA,142449.20,,,,,0,00,99.99,,,,,,*74' 09-25-09-858
b'$GNVTG,,,,,,,,,N*2E' 09-25-09-880
b'$GNGGA,142449.25,,,,,0,00,99.99,,,,,,*71' 09-25-09-902
b'$GNVTG,,,,,,,,,N*2E' 09-25-09-923
b'$GNGGA,142449.30,,,,,0,00,99.99,,,,,,*75' 09-25-09-944
b'$GNVTG,,,,,,,,,N*2E' 09-25-09-964
b'$GNGGA,142449.35,,,,,0,00,99.99,,,,,,*70' 09-25-09-987
b'$GNVTG,,,,,,,,,N*2E' 09-25-10-008
b'$GNGGA,142449.40,,,,,0,00,99.99,,,,,,*72' 09-25-10-031
b'$GNVTG,,,,,,,,,N*2E' 09-25-10-053
b'$GNGGA,142449.45,,,,,0,00,99.99,,,,,,*77' 09-25-10-075
b'$GNVTG,,,,,,,,,N*2E' 09-25-10-098
b'$GNGGA,142449.50,,,,,0,00,99.99,,,,,,*73' 09-25-10-120
b'$GNVTG,,,,,,,,,N*2E' 09-25-10-147
b'$GNGGA,142449.55,,,,,0,00,99.99,,,,,,*76' 09-25-10-170
b'$GNVTG,,,,,,,,,N*2E' 09-25-10-198
b'$GNGGA,142449.60,,,,,0,00,99.99,,,,,,*70' 09-25-10-220
b'$GNVTG,,,,,,,,,N*2E' 09-25-10-247
b'$GNGGA,142449.65,,,,,0,00,99.99,,,,,,*75' 09-25-10-270
b'$GNVTG,,,,,,,,,N*2E' 09-25-10-297
b'$GNGGA,142449.70,,,,,0,00,99.99,,,,,,*71' 09-25-10-320
b'$GNVTG,,,,,,,,,N*2E' 09-25-10-347
b'$GNGGA,142449.75,,,,,0,00,99.99,,,,,,*74' 09-25-10-370
b'$GNVTG,,,,,,,,,N*2E' 09-25-10-398
b'$GNGGA,142449.80,,,,,0,00,99.99,,,,,,*7E' 09-25-10-420
b'$GNVTG,,,,,,,,,N*2E' 09-25-10-448
b'$GNGGA,142449.85,,,,,0,00,99.99,,,,,,*7B' 09-25-10-470
b'$GNVTG,,,,,,,,,N*2E' 09-25-10-498
b'$GNGGA,142449.90,,,,,0,00,99.99,,,,,,*7F' 09-25-10-520
b'$GNVTG,,,,,,,,,N*2E' 09-25-10-551
b'$GNGGA,142449.95,,,,,0,00,99.99,,,,,,*7A' 09-25-10-573
b'$GNVTG,,,,,,,,,N*2E' 09-25-10-597
b'$GNGGA,142450.00,,,,,0,00,99.99,,,,,,*7E' 09-25-10-619
b'$GNVTG,,,,,,,,,N*2E' 09-25-10-648
b'$GNGGA,142450.05,,,,,0,00,99.99,,,,,,*7B' 09-25-10-670
b'$GNVTG,,,,,,,,,N*2E' 09-25-10-698
b'$GNGGA,142450.10,,,,,0,00,99.99,,,,,,*7F' 09-25-10-720
b'$GNVTG,,,,,,,,,N*2E' 09-25-10-748
b'$GNGGA,142450.15,,,,,0,00,99.99,,,,,,*7A' 09-25-10-770
b'$GNVTG,,,,,,,,,N*2E' 09-25-10-798
b'$GNGGA,142450.20,,,,,0,00,99.99,,,,,,*7C' 09-25-10-820
b'$GNVTG,,,,,,,,,N*2E' 09-25-10-848
b'$GNGGA,142450.25,,,,,0,00,99.99,,,,,,*79' 09-25-10-870
b'$GNVTG,,,,,,,,,N*2E' 09-25-10-898
b'$GNGGA,142450.30,,,,,0,00,99.99,,,,,,*7D' 09-25-10-920
b'$GNVTG,,,,,,,,,N*2E' 09-25-10-948
b'$GNGGA,142450.35,,,,,0,00,99.99,,,,,,*78' 09-25-10-970
b'$GNVTG,,,,,,,,,N*2E' 09-25-10-998
b'$GNGGA,142450.40,,,,,0,00,99.99,,,,,,*7A' 09-25-11-020
b'$GNVTG,,,,,,,,,N*2E' 09-25-11-048
b'$GNGGA,142450.45,,,,,0,00,99.99,,,,,,*7F' 09-25-11-070
b'$GNVTG,,,,,,,,,N*2E' 09-25-11-098
b'$GNGGA,142450.50,,,,,0,00,99.99,,,,,,*7B' 09-25-11-120
b'$GNVTG,,,,,,,,,N*2E' 09-25-11-148
b'$GNGGA,142450.55,,,,,0,00,99.99,,,,,,*7E' 09-25-11-170
b'$GNVTG,,,,,,,,,N*2E' 09-25-11-198
b'$GNGGA,142450.60,,,,,0,00,99.99,,,,,,*78' 09-25-11-219
b'$GNVTG,,,,,,,,,N*2E' 09-25-11-249
b'$GNGGA,142450.65,,,,,0,00,99.99,,,,,,*7D' 09-25-11-271
b'$GNVTG,,,,,,,,,N*2E' 09-25-11-298
b'$GNGGA,142450.70,,,,,0,00,99.99,,,,,,*79' 09-25-11-320
b'$GNVTG,,,,,,,,,N*2E' 09-25-11-348
b'$GNGGA,142450.75,,,,,0,00,99.99,,,,,,*7C' 09-25-11-370
b'$GNVTG,,,,,,,,,N*2E' 09-25-11-398
b'$GNGGA,142450.80,,,,,0,00,99.99,,,,,,*76' 09-25-11-420
b'$GNVTG,,,,,,,,,N*2E' 09-25-11-448
b'$GNGGA,142450.85,,,,,0,00,99.99,,,,,,*73' 09-25-11-470
b'$GNVTG,,,,,,,,,N*2E' 09-25-11-497
b'$GNGGA,142450.90,,,,,0,00,99.99,,,,,,*77' 09-25-11-519
b'$GNVTG,,,,,,,,,N*2E' 09-25-11-551
b'$GNGGA,142450.95,,,,,0,00,99.99,,,,,,*72' 09-25-11-574
b'$GNVTG,,,,,,,,,N*2E' 09-25-11-598
b'$GNGGA,142451.00,,,,,0,00,99.99,,,,,,*7F' 09-25-11-620
b'$GNVTG,,,,,,,,,N*2E' 09-25-11-648
b'$GNGGA,142451.05,,,,,0,00,99.99,,,,,,*7A' 09-25-11-670
b'$GNVTG,,,,,,,,,N*2E' 09-25-11-698
b'$GNGGA,142451.10,,,,,0,00,99.99,,,,,,*7E' 09-25-11-719
b'$GNVTG,,,,,,,,,N*2E' 09-25-11-748
b'$GNGGA,142451.15,,,,,0,00,99.99,,,,,,*7B' 09-25-11-770
b'$GNVTG,,,,,,,,,N*2E' 09-25-11-799
b'$GNGGA,142451.20,,,,,0,00,99.99,,,,,,*7D' 09-25-11-821
b'$GNVTG,,,,,,,,,N*2E' 09-25-11-848
b'$GNGGA,142451.25,,,,,0,00,99.99,,,,,,*78' 09-25-11-870
b'$GNVTG,,,,,,,,,N*2E' 09-25-11-898
b'$GNGGA,142451.30,,,,,0,00,99.99,,,,,,*7C' 09-25-11-920
b'$GNVTG,,,,,,,,,N*2E' 09-25-11-948
b'$GNGGA,142451.35,,,,,0,00,99.99,,,,,,*79' 09-25-11-970
b'$GNVTG,,,,,,,,,N*2E' 09-25-11-998
b'$GNGGA,142451.40,,,,,0,00,99.99,,,,,,*7B' 09-25-12-020
b'$GNVTG,,,,,,,,,N*2E' 09-25-12-048
b'$GNGGA,142451.45,,,,,0,00,99.99,,,,,,*7E' 09-25-12-070
b'$GNVTG,,,,,,,,,N*2E' 09-25-12-098
b'$GNGGA,142451.50,,,,,0,00,99.99,,,,,,*7A' 09-25-12-120
b'$GNVTG,,,,,,,,,N*2E' 09-25-12-148
b'$GNGGA,142451.55,,,,,0,00,99.99,,,,,,*7F' 09-25-12-170
b'$GNVTG,,,,,,,,,N*2E' 09-25-12-198
b'$GNGGA,142451.60,,,,,0,00,99.99,,,,,,*79' 09-25-12-220
b'$GNVTG,,,,,,,,,N*2E' 09-25-12-247
b'$GNGGA,142451.65,,,,,0,00,99.99,,,,,,*7C' 09-25-12-270
b'$GNVTG,,,,,,,,,N*2E' 09-25-12-298
b'$GNGGA,142451.70,,,,,0,00,99.99,,,,,,*78' 09-25-12-320
b'$GNVTG,,,,,,,,,N*2E' 09-25-12-348
b'$GNGGA,142451.75,,,,,0,00,99.99,,,,,,*7D' 09-25-12-370
b'$GNVTG,,,,,,,,,N*2E' 09-25-12-398
b'$GNGGA,142451.80,,,,,0,00,99.99,,,,,,*77' 09-25-12-420
b'$GNVTG,,,,,,,,,N*2E' 09-25-12-448
b'$GNGGA,142451.85,,,,,0,00,99.99,,,,,,*72' 09-25-12-470
b'$GNVTG,,,,,,,,,N*2E' 09-25-12-498
b'$GNGGA,142451.90,,,,,0,00,99.99,,,,,,*76' 09-25-12-520
b'$GNVTG,,,,,,,,,N*2E' 09-25-12-551
b'$GNGGA,142451.95,,,,,0,00,99.99,,,,,,*73' 09-25-12-573
b'$GNVTG,,,,,,,,,N*2E' 09-25-12-599
b'$GNGGA,142452.00,,,,,0,00,99.99,,,,,,*7C' 09-25-12-621
b'$GNVTG,,,,,,,,,N*2E' 09-25-12-648
b'$GNGGA,142452.05,,,,,0,00,99.99,,,,,,*79' 09-25-12-670
b'$GNVTG,,,,,,,,,N*2E' 09-25-12-698
b'$GNGGA,142452.10,,,,,0,00,99.99,,,,,,*7D' 09-25-12-720
b'$GNVTG,,,,,,,,,N*2E' 09-25-12-748
b'$GNGGA,142452.15,,,,,0,00,99.99,,,,,,*78' 09-25-12-770
b'$GNVTG,,,,,,,,,N*2E' 09-25-12-799
b'$GNGGA,142452.20,,,,,0,00,99.99,,,,,,*7E' 09-25-12-821
b'$GNVTG,,,,,,,,,N*2E' 09-25-12-848
b'$GNGGA,142452.25,,,,,0,00,99.99,,,,,,*7B' 09-25-12-870
b'$GNVTG,,,,,,,,,N*2E' 09-25-12-899
b'$GNGGA,142452.30,,,,,0,00,99.99,,,,,,*7F' 09-25-12-921
b'$GNVTG,,,,,,,,,N*2E' 09-25-12-948
b'$GNGGA,142452.35,,,,,0,00,99.99,,,,,,*7A' 09-25-12-970
b'$GNVTG,,,,,,,,,N*2E' 09-25-12-999
b'$GNGGA,142452.40,,,,,0,00,99.99,,,,,,*78' 09-25-13-021
b'$GNVTG,,,,,,,,,N*2E' 09-25-13-048
b'$GNGGA,142452.45,,,,,0,00,99.99,,,,,,*7D' 09-25-13-070
b'$GNVTG,,,,,,,,,N*2E' 09-25-13-098
b'$GNGGA,142452.50,,,,,0,00,99.99,,,,,,*79' 09-25-13-119
b'$GNVTG,,,,,,,,,N*2E' 09-25-13-148
b'$GNGGA,142452.55,,,,,0,00,99.99,,,,,,*7C' 09-25-13-170
b'$GNVTG,,,,,,,,,N*2E' 09-25-13-199
b'$GNGGA,142452.60,,,,,0,00,99.99,,,,,,*7A' 09-25-13-221
b'$GNVTG,,,,,,,,,N*2E' 09-25-13-248
b'$GNGGA,142452.65,,,,,0,00,99.99,,,,,,*7F' 09-25-13-270
b'$GNVTG,,,,,,,,,N*2E' 09-25-13-298
b'$GNGGA,142452.70,,,,,0,00,99.99,,,,,,*7B' 09-25-13-320
b'$GNVTG,,,,,,,,,N*2E' 09-25-13-348
b'$GNGGA,142452.75,,,,,0,00,99.99,,,,,,*7E' 09-25-13-370
b'$GNVTG,,,,,,,,,N*2E' 09-25-13-399
b'$GNGGA,142452.80,,,,,0,00,99.99,,,,,,*74' 09-25-13-421
b'$GNVTG,,,,,,,,,N*2E' 09-25-13-448
b'$GNGGA,142452.85,,,,,0,00,99.99,,,,,,*71' 09-25-13-470
b'$GNVTG,,,,,,,,,N*2E' 09-25-13-499
b'$GNGGA,142452.90,,,,,0,00,99.99,,,,,,*75' 09-25-13-521
b'$GNVTG,,,,,,,,,N*2E' 09-25-13-552
b'$GNGGA,142452.95,,,,,0,00,99.99,,,,,,*70' 09-25-13-574
b'$GNVTG,,,,,,,,,N*2E' 09-25-13-599
b'$GNGGA,142453.00,,,,,0,00,99.99,,,,,,*7D' 09-25-13-621
b'$GNVTG,,,,,,,,,N*2E' 09-25-13-648
b'$GNGGA,142453.05,,,,,0,00,99.99,,,,,,*78' 09-25-13-669
b'$GNVTG,,,,,,,,,N*2E' 09-25-13-699
b'$GNGGA,142453.10,,,,,0,00,99.99,,,,,,*7C' 09-25-13-721
b'$GNVTG,,,,,,,,,N*2E' 09-25-13-748
b'$GNGGA,142453.15,,,,,0,00,99.99,,,,,,*79' 09-25-13-770
b'$GNVTG,,,,,,,,,N*2E' 09-25-13-798
b'$GNGGA,142453.20,,,,,0,00,99.99,,,,,,*7F' 09-25-13-820
b'$GNVTG,,,,,,,,,N*2E' 09-25-13-848
b'$GNGGA,142453.25,,,,,0,00,99.99,,,,,,*7A' 09-25-13-871
b'$GNVTG,,,,,,,,,N*2E' 09-25-13-898
b'$GNGGA,142453.30,,,,,0,00,99.99,,,,,,*7E' 09-25-13-920
b'$GNVTG,,,,,,,,,N*2E' 09-25-13-948
b'$GNGGA,142453.35,,,,,0,00,99.99,,,,,,*7B' 09-25-13-970
b'$GNVTG,,,,,,,,,N*2E' 09-25-13-999
b'$GNGGA,142453.40,,,,,0,00,99.99,,,,,,*79' 09-25-14-021
b'$GNVTG,,,,,,,,,N*2E' 09-25-14-048
b'$GNGGA,142453.45,,,,,0,00,99.99,,,,,,*7C' 09-25-14-070
b'$GNVTG,,,,,,,,,N*2E' 09-25-14-098
b'$GNGGA,142453.50,,,,,0,00,99.99,,,,,,*78' 09-25-14-121
b'$GNVTG,,,,,,,,,N*2E' 09-25-14-148
b'$GNGGA,142453.55,,,,,0,00,99.99,,,,,,*7D' 09-25-14-169
b'$GNVTG,,,,,,,,,N*2E' 09-25-14-198
b'$GNGGA,142453.60,,,,,0,00,99.99,,,,,,*7B' 09-25-14-220
b'$GNVTG,,,,,,,,,N*2E' 09-25-14-248
b'$GNGGA,142453.65,,,,,0,00,99.99,,,,,,*7E' 09-25-14-270
b'$GNVTG,,,,,,,,,N*2E' 09-25-14-299
b'$GNGGA,142453.70,,,,,0,00,99.99,,,,,,*7A' 09-25-14-321
b'$GNVTG,,,,,,,,,N*2E' 09-25-14-348
b'$GNGGA,142453.75,,,,,0,00,99.99,,,,,,*7F' 09-25-14-370
b'$GNVTG,,,,,,,,,N*2E' 09-25-14-399
b'$GNGGA,142453.80,,,,,0,00,99.99,,,,,,*75' 09-25-14-421
b'$GNVTG,,,,,,,,,N*2E' 09-25-14-448
b'$GNGGA,142453.85,,,,,0,00,99.99,,,,,,*70' 09-25-14-470
b'$GNVTG,,,,,,,,,N*2E' 09-25-14-498
b'$GNGGA,142453.90,,,,,0,00,99.99,,,,,,*74' 09-25-14-520
b'$GNVTG,,,,,,,,,N*2E' 09-25-14-552
b'$GNGGA,142453.95,,,,,0,00,99.99,,,,,,*71' 09-25-14-574
b'$GNVTG,,,,,,,,,N*2E' 09-25-14-599
b'$GNGGA,142454.00,,,,,0,00,99.99,,,,,,*7A' 09-25-14-621
b'$GNVTG,,,,,,,,,N*2E' 09-25-14-648
b'$GNGGA,142454.05,,,,,0,00,99.99,,,,,,*7F' 09-25-14-669
b'$GNVTG,,,,,,,,,N*2E' 09-25-14-698
b'$GNGGA,142454.10,,,,,0,00,99.99,,,,,,*7B' 09-25-14-720
b'$GNVTG,,,,,,,,,N*2E' 09-25-14-748
b'$GNGGA,142454.15,,,,,0,00,99.99,,,,,,*7E' 09-25-14-770
b'$GNVTG,,,,,,,,,N*2E' 09-25-14-798
b'$GNGGA,142454.20,,,,,0,00,99.99,,,,,,*78' 09-25-14-820
b'$GNVTG,,,,,,,,,N*2E' 09-25-14-848
b'$GNGGA,142454.25,,,,,0,00,99.99,,,,,,*7D' 09-25-14-870
b'$GNVTG,,,,,,,,,N*2E' 09-25-14-898
b'$GNGGA,142454.30,,,,,0,00,99.99,,,,,,*79' 09-25-14-920
b'$GNVTG,,,,,,,,,N*2E' 09-25-14-948
b'$GNGGA,142454.35,,,,,0,00,99.99,,,,,,*7C' 09-25-14-970
b'$GNVTG,,,,,,,,,N*2E' 09-25-14-998
b'$GNGGA,142454.40,,,,,0,00,99.99,,,,,,*7E' 09-25-15-020
b'$GNVTG,,,,,,,,,N*2E' 09-25-15-048
b'$GNGGA,142454.45,,,,,0,00,99.99,,,,,,*7B' 09-25-15-070
b'$GNVTG,,,,,,,,,N*2E' 09-25-15-098
b'$GNGGA,142454.50,,,,,0,00,99.99,,,,,,*7F' 09-25-15-120
b'$GNVTG,,,,,,,,,N*2E' 09-25-15-148
b'$GNGGA,142454.55,,,,,0,00,99.99,,,,,,*7A' 09-25-15-170
b'$GNVTG,,,,,,,,,N*2E' 09-25-15-198
b'$GNGGA,142454.60,,,,,0,00,99.99,,,,,,*7C' 09-25-15-220
b'$GNVTG,,,,,,,,,N*2E' 09-25-15-248
b'$GNGGA,142454.65,,,,,0,00,99.99,,,,,,*79' 09-25-15-270
b'$GNVTG,,,,,,,,,N*2E' 09-25-15-298
b'$GNGGA,142454.70,,,,,0,00,99.99,,,,,,*7D' 09-25-15-320
b'$GNVTG,,,,,,,,,N*2E' 09-25-15-348
b'$GNGGA,142454.75,,,,,0,00,99.99,,,,,,*78' 09-25-15-370
b'$GNVTG,,,,,,,,,N*2E' 09-25-15-398
b'$GNGGA,142454.80,,,,,0,00,99.99,,,,,,*72' 09-25-15-420
b'$GNVTG,,,,,,,,,N*2E' 09-25-15-448
b'$GNGGA,142454.85,,,,,0,00,99.99,,,,,,*77' 09-25-15-470
b'$GNVTG,,,,,,,,,N*2E' 09-25-15-498
b'$GNGGA,142454.90,,,,,0,00,99.99,,,,,,*73' 09-25-15-521
b'$GNVTG,,,,,,,,,N*2E' 09-25-15-551
b'$GNGGA,142454.95,,,,,0,00,99.99,,,,,,*76' 09-25-15-575
b'$GNVTG,,,,,,,,,N*2E' 09-25-15-599
b'$GNGGA,142455.00,,,,,0,00,99.99,,,,,,*7B' 09-25-15-621
b'$GNVTG,,,,,,,,,N*2E' 09-25-15-648
b'$GNGGA,142455.05,,,,,0,00,99.99,,,,,,*7E' 09-25-15-670
b'$GNVTG,,,,,,,,,N*2E' 09-25-15-698
b'$GNGGA,142455.10,,,,,0,00,99.99,,,,,,*7A' 09-25-15-720
b'$GNVTG,,,,,,,,,N*2E' 09-25-15-748
b'$GNGGA,142455.15,,,,,0,00,99.99,,,,,,*7F' 09-25-15-770
b'$GNVTG,,,,,,,,,N*2E' 09-25-15-799
b'$GNGGA,142455.20,,,,,0,00,99.99,,,,,,*79' 09-25-15-821
b'$GNVTG,,,,,,,,,N*2E' 09-25-15-849
b'$GNGGA,142455.25,,,,,0,00,99.99,,,,,,*7C' 09-25-15-890
b'$GNVTG,,,,,,,,,N*2E' 09-25-15-930
b'$GNGGA,142455.30,,,,,0,00,99.99,,,,,,*78' 09-25-15-958
b'$GNVTG,,,,,,,,,N*2E' 09-25-15-979
b'$GNGGA,142455.35,,,,,0,00,99.99,,,,,,*7D' 09-25-16-001
b'$GNVTG,,,,,,,,,N*2E' 09-25-16-022
b'$GNGGA,142455.40,,,,,0,00,99.99,,,,,,*7F' 09-25-16-044
b'$GNVTG,,,,,,,,,N*2E' 09-25-16-065
b'$GNGGA,142455.45,,,,,0,00,99.99,,,,,,*7A' 09-25-16-087
b'$GNVTG,,,,,,,,,N*2E' 09-25-16-109
b'$GNGGA,142455.50,,,,,0,00,99.99,,,,,,*7E' 09-25-16-131
b'$GNVTG,,,,,,,,,N*2E' 09-25-16-152
b'$GNGGA,142455.55,,,,,0,00,99.99,,,,,,*7B' 09-25-16-175
b'$GNVTG,,,,,,,,,N*2E' 09-25-16-198
b'$GNGGA,142455.60,,,,,0,00,99.99,,,,,,*7D' 09-25-16-220
b'$GNVTG,,,,,,,,,N*2E' 09-25-16-248
b'$GNGGA,142455.65,,,,,0,00,99.99,,,,,,*78' 09-25-16-270
b'$GNVTG,,,,,,,,,N*2E' 09-25-16-298
b'$GNGGA,142455.70,,,,,0,00,99.99,,,,,,*7C' 09-25-16-320
b'$GNVTG,,,,,,,,,N*2E' 09-25-16-347
b'$GNGGA,142455.75,,,,,0,00,99.99,,,,,,*79' 09-25-16-370
b'$GNVTG,,,,,,,,,N*2E' 09-25-16-398
b'$GNGGA,142455.80,,,,,0,00,99.99,,,,,,*73' 09-25-16-420
b'$GNVTG,,,,,,,,,N*2E' 09-25-16-448
b'$GNGGA,142455.85,,,,,0,00,99.99,,,,,,*76' 09-25-16-470
b'$GNVTG,,,,,,,,,N*2E' 09-25-16-498
b'$GNGGA,142455.90,,,,,0,00,99.99,,,,,,*72' 09-25-16-520
b'$GNVTG,,,,,,,,,N*2E' 09-25-16-551
b'$GNGGA,142455.95,,,,,0,00,99.99,,,,,,*77' 09-25-16-573
b'$GNVTG,,,,,,,,,N*2E' 09-25-16-598
b'$GNGGA,142456.00,,,,,0,00,99.99,,,,,,*78' 09-25-16-620
b'$GNVTG,,,,,,,,,N*2E' 09-25-16-649
b'$GNGGA,142456.05,,,,,0,00,99.99,,,,,,*7D' 09-25-16-687
b'$GNVTG,,,,,,,,,N*2E' 09-25-16-724
b'$GNGGA,142456.10,,,,,0,00,99.99,,,,,,*79' 09-25-16-752
b'$GNVTG,,,,,,,,,N*2E' 09-25-16-773
b'$GNGGA,142456.15,,,,,0,00,99.99,,,,,,*7C' 09-25-16-795
b'$GNVTG,,,,,,,,,N*2E' 09-25-16-816
b'$GNGGA,142456.20,,,,,0,00,99.99,,,,,,*7A' 09-25-16-837
b'$GNVTG,,,,,,,,,N*2E' 09-25-16-859
b'$GNGGA,142456.25,,,,,0,00,99.99,,,,,,*7F' 09-25-16-881
b'$GNVTG,,,,,,,,,N*2E' 09-25-16-902
b'$GNGGA,142456.30,,,,,0,00,99.99,,,,,,*7B' 09-25-16-925
b'$GNVTG,,,,,,,,,N*2E' 09-25-16-948
b'$GNGGA,142456.35,,,,,0,00,99.99,,,,,,*7E' 09-25-16-970
b'$GNVTG,,,,,,,,,N*2E' 09-25-16-998
b'$GNGGA,142456.40,,,,,0,00,99.99,,,,,,*7C' 09-25-17-020
b'$GNVTG,,,,,,,,,N*2E' 09-25-17-048
b'$GNGGA,142456.45,,,,,0,00,99.99,,,,,,*79' 09-25-17-070
b'$GNVTG,,,,,,,,,N*2E' 09-25-17-098
b'$GNGGA,142456.50,,,,,0,00,99.99,,,,,,*7D' 09-25-17-120
b'$GNVTG,,,,,,,,,N*2E' 09-25-17-148
b'$GNGGA,142456.55,,,,,0,00,99.99,,,,,,*78' 09-25-17-170
b'$GNVTG,,,,,,,,,N*2E' 09-25-17-198
b'$GNGGA,142456.60,,,,,0,00,99.99,,,,,,*7E' 09-25-17-220
b'$GNVTG,,,,,,,,,N*2E' 09-25-17-248
b'$GNGGA,142456.65,,,,,0,00,99.99,,,,,,*7B' 09-25-17-270
b'$GNVTG,,,,,,,,,N*2E' 09-25-17-299
b'$GNGGA,142456.70,,,,,0,00,99.99,,,,,,*7F' 09-25-17-321
b'$GNVTG,,,,,,,,,N*2E' 09-25-17-348
b'$GNGGA,142456.75,,,,,0,00,99.99,,,,,,*7A' 09-25-17-370
b'$GNVTG,,,,,,,,,N*2E' 09-25-17-398
b'$GNGGA,142456.80,,,,,0,00,99.99,,,,,,*70' 09-25-17-420
b'$GNVTG,,,,,,,,,N*2E' 09-25-17-448
b'$GNGGA,142456.85,,,,,0,00,99.99,,,,,,*75' 09-25-17-470
b'$GNVTG,,,,,,,,,N*2E' 09-25-17-498
b'$GNGGA,142456.90,,,,,0,00,99.99,,,,,,*71' 09-25-17-520
b'$GNVTG,,,,,,,,,N*2E' 09-25-17-552
b'$GNGGA,142456.95,,,,,0,00,99.99,,,,,,*74' 09-25-17-574
b'$GNVTG,,,,,,,,,N*2E' 09-25-17-599
b'$GNGGA,142457.00,,,,,0,00,99.99,,,,,,*79' 09-25-17-621
b'$GNVTG,,,,,,,,,N*2E' 09-25-17-648
b'$GNGGA,142457.05,,,,,0,00,99.99,,,,,,*7C' 09-25-17-670
b'$GNVTG,,,,,,,,,N*2E' 09-25-17-698
b'$GNGGA,142457.10,,,,,0,00,99.99,,,,,,*78' 09-25-17-720
b'$GNVTG,,,,,,,,,N*2E' 09-25-17-748
b'$GNGGA,142457.15,,,,,0,00,99.99,,,,,,*7D' 09-25-17-770
b'$GNVTG,,,,,,,,,N*2E' 09-25-17-798
b'$GNGGA,142457.20,,,,,0,00,99.99,,,,,,*7B' 09-25-17-820
b'$GNVTG,,,,,,,,,N*2E' 09-25-17-849
b'$GNGGA,142457.25,,,,,0,00,99.99,,,,,,*7E' 09-25-17-872
b'$GNVTG,,,,,,,,,N*2E' 09-25-17-899
b'$GNGGA,142457.30,,,,,0,00,99.99,,,,,,*7A' 09-25-17-921
b'$GNVTG,,,,,,,,,N*2E' 09-25-17-948
b'$GNGGA,142457.35,,,,,0,00,99.99,,,,,,*7F' 09-25-17-970
b'$GNVTG,,,,,,,,,N*2E' 09-25-17-998
b'$GNGGA,142457.40,,,,,0,00,99.99,,,,,,*7D' 09-25-18-020
b'$GNVTG,,,,,,,,,N*2E' 09-25-18-049
b'$GNGGA,142457.45,,,,,0,00,99.99,,,,,,*78' 09-25-18-071
b'$GNVTG,,,,,,,,,N*2E' 09-25-18-098
b'$GNGGA,142457.50,,,,,0,00,99.99,,,,,,*7C' 09-25-18-120
b'$GNVTG,,,,,,,,,N*2E' 09-25-18-148
b'$GNGGA,142457.55,,,,,0,00,99.99,,,,,,*79' 09-25-18-170
b'$GNVTG,,,,,,,,,N*2E' 09-25-18-198
b'$GNGGA,142457.60,,,,,0,00,99.99,,,,,,*7F' 09-25-18-220
b'$GNVTG,,,,,,,,,N*2E' 09-25-18-248
b'$GNGGA,142457.65,,,,,0,00,99.99,,,,,,*7A' 09-25-18-270
b'$GNVTG,,,,,,,,,N*2E' 09-25-18-298
b'$GNGGA,142457.70,,,,,0,00,99.99,,,,,,*7E' 09-25-18-320
b'$GNVTG,,,,,,,,,N*2E' 09-25-18-348
b'$GNGGA,142457.75,,,,,0,00,99.99,,,,,,*7B' 09-25-18-371
b'$GNVTG,,,,,,,,,N*2E' 09-25-18-398
b'$GNGGA,142457.80,,,,,0,00,99.99,,,,,,*71' 09-25-18-420
b'$GNVTG,,,,,,,,,N*2E' 09-25-18-448
b'$GNGGA,142457.85,,,,,0,00,99.99,,,,,,*74' 09-25-18-470
b'$GNVTG,,,,,,,,,N*2E' 09-25-18-498
b'$GNGGA,142457.90,,,,,0,00,99.99,,,,,,*70' 09-25-18-520
b'$GNVTG,,,,,,,,,N*2E' 09-25-18-552
b'$GNGGA,142457.95,,,,,0,00,99.99,,,,,,*75' 09-25-18-574
b'$GNVTG,,,,,,,,,N*2E' 09-25-18-598
b'$GNGGA,142458.00,,,,,0,00,99.99,,,,,,*76' 09-25-18-620
b'$GNVTG,,,,,,,,,N*2E' 09-25-18-648
b'$GNGGA,142458.05,,,,,0,00,99.99,,,,,,*73' 09-25-18-670
b'$GNVTG,,,,,,,,,N*2E' 09-25-18-698
b'$GNGGA,142458.10,,,,,0,00,99.99,,,,,,*77' 09-25-18-720
b'$GNVTG,,,,,,,,,N*2E' 09-25-18-748
b'$GNGGA,142458.15,,,,,0,00,99.99,,,,,,*72' 09-25-18-770
b'$GNVTG,,,,,,,,,N*2E' 09-25-18-798
b'$GNGGA,142458.20,,,,,0,00,99.99,,,,,,*74' 09-25-18-820
b'$GNVTG,,,,,,,,,N*2E' 09-25-18-848
b'$GNGGA,142458.25,,,,,0,00,99.99,,,,,,*71' 09-25-18-870
b'$GNVTG,,,,,,,,,N*2E' 09-25-18-899
b'$GNGGA,142458.30,,,,,0,00,99.99,,,,,,*75' 09-25-18-921
b'$GNVTG,,,,,,,,,N*2E' 09-25-18-948
b'$GNGGA,142458.35,,,,,0,00,99.99,,,,,,*70' 09-25-18-970
b'$GNVTG,,,,,,,,,N*2E' 09-25-18-999
b'$GNGGA,142458.40,,,,,0,00,99.99,,,,,,*72' 09-25-19-021
b'$GNVTG,,,,,,,,,N*2E' 09-25-19-048
b'$GNGGA,142458.45,,,,,0,00,99.99,,,,,,*77' 09-25-19-070
b'$GNGGA,142458.50,,,,,0,00,99.99,,,,,,*73' 09-25-19-100
b'$GNVTG,,,,,,,,,N*2E' 09-25-19-148
b'$GNGGA,142458.55,,,,,0,00,99.99,,,,,,*76' 09-25-19-170
b'$GNVTG,,,,,,,,,N*2E' 09-25-19-199
b'$GNGGA,142458.60,,,,,0,00,99.99,,,,,,*70' 09-25-19-221
b'$GNVTG,,,,,,,,,N*2E' 09-25-19-248
b'$GNGGA,142458.65,,,,,0,00,99.99,,,,,,*75' 09-25-19-270
b'$GNVTG,,,,,,,,,N*2E' 09-25-19-299
b'$GNGGA,142458.70,,,,,0,00,99.99,,,,,,*71' 09-25-19-321
b'$GNVTG,,,,,,,,,N*2E' 09-25-19-348
b'$GNGGA,142458.75,,,,,0,00,99.99,,,,,,*74' 09-25-19-370
b'$GNVTG,,,,,,,,,N*2E' 09-25-19-398
b'$GNGGA,142458.80,,,,,0,00,99.99,,,,,,*7E' 09-25-19-420
b'$GNVTG,,,,,,,,,N*2E' 09-25-19-448
b'$GNGGA,142458.85,,,,,0,00,99.99,,,,,,*7B' 09-25-19-470
b'$GNVTG,,,,,,,,,N*2E' 09-25-19-498
b'$GNGGA,142458.90,,,,,0,00,99.99,,,,,,*7F' 09-25-19-520
b'$GNVTG,,,,,,,,,N*2E' 09-25-19-551
b'$GNGGA,142458.95,,,,,0,00,99.99,,,,,,*7A' 09-25-19-573
b'$GNVTG,,,,,,,,,N*2E' 09-25-19-599
b'$GNGGA,142459.00,,,,,0,00,99.99,,,,,,*77' 09-25-19-621
b'$GNVTG,,,,,,,,,N*2E' 09-25-19-648
b'$GNGGA,142459.05,,,,,0,00,99.99,,,,,,*72' 09-25-19-670
b'$GNVTG,,,,,,,,,N*2E' 09-25-19-699
b'$GNGGA,142459.10,,,,,0,00,99.99,,,,,,*76' 09-25-19-721
b'$GNVTG,,,,,,,,,N*2E' 09-25-19-748
b'$GNGGA,142459.15,,,,,0,00,99.99,,,,,,*73' 09-25-19-770
b'$GNVTG,,,,,,,,,N*2E' 09-25-19-799
b'$GNGGA,142459.20,,,,,0,00,99.99,,,,,,*75' 09-25-19-821
b'$GNVTG,,,,,,,,,N*2E' 09-25-19-848
b'$GNGGA,142459.25,,,,,0,00,99.99,,,,,,*70' 09-25-19-870
b'$GNVTG,,,,,,,,,N*2E' 09-25-19-899
b'$GNGGA,142459.30,,,,,0,00,99.99,,,,,,*74' 09-25-19-921
b'$GNVTG,,,,,,,,,N*2E' 09-25-19-948
b'$GNGGA,142459.35,,,,,0,00,99.99,,,,,,*71' 09-25-19-970
b'$GNVTG,,,,,,,,,N*2E' 09-25-19-999
b'$GNGGA,142459.40,,,,,0,00,99.99,,,,,,*73' 09-25-20-021
b'$GNVTG,,,,,,,,,N*2E' 09-25-20-048
b'$GNGGA,142459.45,,,,,0,00,99.99,,,,,,*76' 09-25-20-070
b'$GNVTG,,,,,,,,,N*2E' 09-25-20-099
b'$GNGGA,142459.50,,,,,0,00,99.99,,,,,,*72' 09-25-20-121
b'$GNVTG,,,,,,,,,N*2E' 09-25-20-148
b'$GNGGA,142459.55,,,,,0,00,99.99,,,,,,*77' 09-25-20-170
b'$GNVTG,,,,,,,,,N*2E' 09-25-20-198
b'$GNGGA,142459.60,,,,,0,00,99.99,,,,,,*71' 09-25-20-220
b'$GNVTG,,,,,,,,,N*2E' 09-25-20-248
b'$GNGGA,142459.65,,,,,0,00,99.99,,,,,,*74' 09-25-20-270
b'$GNVTG,,,,,,,,,N*2E' 09-25-20-299
b'$GNGGA,142459.70,,,,,0,00,99.99,,,,,,*70' 09-25-20-321
b'$GNVTG,,,,,,,,,N*2E' 09-25-20-348
b'$GNGGA,142459.75,,,,,0,00,99.99,,,,,,*75' 09-25-20-370
b'$GNVTG,,,,,,,,,N*2E' 09-25-20-399
b'$GNGGA,142459.80,,,,,0,00,99.99,,,,,,*7F' 09-25-20-421
b'$GNVTG,,,,,,,,,N*2E' 09-25-20-448
b'$GNGGA,142459.85,,,,,0,00,99.99,,,,,,*7A' 09-25-20-470
b'$GNVTG,,,,,,,,,N*2E' 09-25-20-498
b'$GNGGA,142459.90,,,,,0,00,99.99,,,,,,*7E' 09-25-20-520
b'$GNVTG,,,,,,,,,N*2E' 09-25-20-552
b'$GNGGA,142459.95,,,,,0,00,99.99,,,,,,*7B' 09-25-20-574
b'$GNVTG,,,,,,,,,N*2E' 09-25-20-599
b'$GNGGA,142500.00,,,,,0,00,99.99,,,,,,*7A' 09-25-20-621
b'$GNVTG,,,,,,,,,N*2E' 09-25-20-648
b'$GNGGA,142500.05,,,,,0,00,99.99,,,,,,*7F' 09-25-20-670
b'$GNVTG,,T,,M,0.085,N,0.157,K,A*33' 09-25-20-732
b'$GNGGA,142500.10,4005.68335,N,08814.36874,W,1,07,1.38,230.0,M,-33.2,M,,*71' 09-25-20-756
b'$GNVTG,,T,,M,0.085,N,0.157,K,A*33' 09-25-20-777
b'$GNGGA,142500.15,4005.68334,N,08814.36874,W,1,07,1.38,230.0,M,-33.2,M,,*75' 09-25-20-801
b'$GNVTG,,T,,M,0.175,N,0.325,K,A*3A' 09-25-20-823
b'$GNGGA,142500.20,4005.68334,N,08814.36874,W,1,07,1.38,230.0,M,-33.2,M,,*73' 09-25-20-846
b'$GNVTG,,T,,M,0.143,N,0.265,K,A*3A' 09-25-20-868
b'$GNGGA,142500.25,4005.68334,N,08814.36874,W,1,07,1.38,230.0,M,-33.2,M,,*76' 09-25-20-891
b'$GNVTG,,T,,M,0.067,N,0.124,K,A*3B' 09-25-20-913
b'$GNGGA,142500.30,4005.68334,N,08814.36873,W,1,07,1.38,230.0,M,-33.2,M,,*75' 09-25-20-936
b'$GNVTG,,T,,M,0.036,N,0.068,K,A*36' 09-25-20-958
b'$GNGGA,142500.35,4005.68334,N,08814.36873,W,1,07,1.38,230.0,M,-33.2,M,,*70' 09-25-20-982
b'$GNVTG,,T,,M,0.058,N,0.108,K,A*39' 09-25-21-009
b'$GNGGA,142500.40,4005.68334,N,08814.36873,W,1,07,1.38,230.0,M,-33.2,M,,*72' 09-25-21-033
b'$GNVTG,,T,,M,0.120,N,0.222,K,A*3C' 09-25-21-059
b'$GNGGA,142500.45,4005.68334,N,08814.36874,W,1,07,1.38,230.0,M,-33.2,M,,*70' 09-25-21-083
b'$GNVTG,324.20,T,,M,0.445,N,0.824,K,A*2F' 09-25-21-110
b'$GNGGA,142500.50,4005.68334,N,08814.36874,W,1,07,1.38,230.0,M,-33.2,M,,*74' 09-25-21-133
b'$GNVTG,,T,,M,0.122,N,0.225,K,A*39' 09-25-21-160
b'$GNGGA,142500.55,4005.68334,N,08814.36874,W,1,07,1.38,230.0,M,-33.2,M,,*71' 09-25-21-183
b'$GNVTG,,T,,M,0.095,N,0.175,K,A*32' 09-25-21-210
b'$GNGGA,142500.60,4005.68334,N,08814.36874,W,1,07,1.38,230.0,M,-33.2,M,,*77' 09-25-21-233
b'$GNVTG,,T,,M,0.066,N,0.123,K,A*3D' 09-25-21-260
b'$GNGGA,142500.65,4005.68334,N,08814.36874,W,1,07,1.38,230.0,M,-33.2,M,,*72' 09-25-21-283
b'$GNVTG,,T,,M,0.031,N,0.057,K,A*3D' 09-25-21-309
b'$GNGGA,142500.70,4005.68334,N,08814.36874,W,1,07,1.38,230.0,M,-33.2,M,,*76' 09-25-21-333
b'$GNVTG,,T,,M,0.125,N,0.231,K,A*3B' 09-25-21-359
b'$GNGGA,142500.75,4005.68334,N,08814.36874,W,1,07,1.38,230.0,M,-33.2,M,,*73' 09-25-21-382
b'$GNVTG,,T,,M,0.016,N,0.029,K,A*31' 09-25-21-408
b'$GNGGA,142500.80,4005.68334,N,08814.36874,W,1,07,1.38,230.0,M,-33.2,M,,*79' 09-25-21-432
b'$GNVTG,,T,,M,0.065,N,0.120,K,A*3D' 09-25-21-459
b'$GNGGA,142500.85,4005.68334,N,08814.36874,W,1,07,1.38,230.0,M,-33.2,M,,*7C' 09-25-21-483
b'$GNVTG,,T,,M,0.032,N,0.059,K,A*30' 09-25-21-509
b'$GNGGA,142500.90,4005.68334,N,08814.36874,W,1,07,1.38,230.0,M,-33.2,M,,*78' 09-25-21-533
b'$GNVTG,,T,,M,0.030,N,0.056,K,A*3D' 09-25-21-562
b'$GNGGA,142500.95,4005.68334,N,08814.36874,W,1,07,1.38,230.0,M,-33.2,M,,*7D' 09-25-21-586
b'$GNVTG,,T,,M,0.064,N,0.119,K,A*36' 09-25-21-610
b'$GNGGA,142501.00,4005.68334,N,08814.36875,W,1,07,1.38,230.0,M,-33.2,M,,*71' 09-25-21-633
b'$GNVTG,,T,,M,0.022,N,0.040,K,A*39' 09-25-21-659
b'$GNGGA,142501.05,4005.68334,N,08814.36874,W,1,07,1.38,230.0,M,-33.2,M,,*75' 09-25-21-683
b'$GNVTG,,T,,M,0.027,N,0.049,K,A*35' 09-25-21-710
b'$GNGGA,142501.10,4005.68334,N,08814.36875,W,1,07,1.38,230.0,M,-33.2,M,,*70' 09-25-21-733
b'$GNVTG,,T,,M,0.014,N,0.026,K,A*3C' 09-25-21-760
b'$GNGGA,142501.15,4005.68334,N,08814.36875,W,1,07,1.38,230.0,M,-33.2,M,,*75' 09-25-21-783
b'$GNVTG,,T,,M,0.059,N,0.109,K,A*39' 09-25-21-810
b'$GNGGA,142501.20,4005.68333,N,08814.36875,W,1,07,1.38,230.0,M,-33.2,M,,*74' 09-25-21-833
b'$GNVTG,,T,,M,0.014,N,0.025,K,A*3F' 09-25-21-860
b'$GNGGA,142501.25,4005.68334,N,08814.36875,W,1,07,1.38,230.0,M,-33.2,M,,*76' 09-25-21-884
b'$GNVTG,,T,,M,0.021,N,0.039,K,A*34' 09-25-21-910
b'$GNGGA,142501.30,4005.68334,N,08814.36875,W,1,07,1.38,230.0,M,-33.2,M,,*72' 09-25-21-933
b'$GNVTG,,T,,M,0.015,N,0.028,K,A*33' 09-25-21-960
b'$GNGGA,142501.35,4005.68334,N,08814.36875,W,1,07,1.38,230.0,M,-33.2,M,,*77' 09-25-21-983
b'$GNVTG,,T,,M,0.055,N,0.102,K,A*3E' 09-25-22-010
b'$GNGGA,142501.40,4005.68334,N,08814.36875,W,1,07,1.38,230.0,M,-33.2,M,,*75' 09-25-22-033
b'$GNVTG,,T,,M,0.055,N,0.102,K,A*3E' 09-25-22-060
b'$GNGGA,142501.45,4005.68334,N,08814.36875,W,1,07,1.38,230.0,M,-33.2,M,,*70' 09-25-22-083
b'$GNVTG,,T,,M,0.048,N,0.089,K,A*30' 09-25-22-109
b'$GNGGA,142501.50,4005.68334,N,08814.36875,W,1,07,1.38,230.0,M,-33.2,M,,*74' 09-25-22-133
b'$GNVTG,,T,,M,0.051,N,0.094,K,A*34' 09-25-22-159
b'$GNGGA,142501.55,4005.68334,N,08814.36875,W,1,07,1.38,230.0,M,-33.2,M,,*71' 09-25-22-183
b'$GNVTG,,T,,M,0.073,N,0.135,K,A*3E' 09-25-22-210
b'$GNGGA,142501.60,4005.68334,N,08814.36875,W,1,07,1.38,230.0,M,-33.2,M,,*77' 09-25-22-233
b'$GNVTG,,T,,M,0.029,N,0.053,K,A*30' 09-25-22-259
b'$GNGGA,142501.65,4005.68334,N,08814.36875,W,1,07,1.38,230.0,M,-33.2,M,,*72' 09-25-22-282
b'$GNVTG,,T,,M,0.042,N,0.078,K,A*34' 09-25-22-308
b'$GNGGA,142501.70,4005.68334,N,08814.36875,W,1,07,1.38,230.0,M,-33.2,M,,*76' 09-25-22-331
b'$GNVTG,,T,,M,0.040,N,0.075,K,A*3B' 09-25-22-359
b'$GNGGA,142501.75,4005.68334,N,08814.36875,W,1,07,1.38,230.0,M,-33.2,M,,*73' 09-25-22-383
b'$GNVTG,,T,,M,0.081,N,0.149,K,A*38' 09-25-22-409
b'$GNGGA,142501.80,4005.68334,N,08814.36875,W,1,07,1.38,230.0,M,-33.2,M,,*79' 09-25-22-433
b'$GNVTG,,T,,M,0.072,N,0.133,K,A*39' 09-25-22-459
b'$GNGGA,142501.85,4005.68334,N,08814.36874,W,1,07,1.38,230.0,M,-33.2,M,,*7D' 09-25-22-482
b'$GNVTG,,T,,M,0.022,N,0.041,K,A*38' 09-25-22-509
b'$GNGGA,142501.90,4005.68334,N,08814.36875,W,1,07,1.38,230.0,M,-33.2,M,,*78' 09-25-22-532
b'$GNVTG,,T,,M,0.032,N,0.060,K,A*3A' 09-25-22-562
b'$GNGGA,142501.95,4005.68334,N,08814.36875,W,1,07,1.38,230.0,M,-33.2,M,,*7D' 09-25-22-586
b'$GNVTG,,T,,M,0.036,N,0.066,K,A*38' 09-25-22-609
b'$GNGGA,142502.00,4005.68334,N,08814.36875,W,1,07,1.38,230.0,M,-33.2,M,,*72' 09-25-22-632
b'$GNVTG,,T,,M,0.041,N,0.075,K,A*3A' 09-25-22-659
b'$GNGGA,142502.05,4005.68334,N,08814.36874,W,1,07,1.38,230.0,M,-33.2,M,,*76' 09-25-22-683
b'$GNVTG,,T,,M,0.014,N,0.026,K,A*3C' 09-25-22-710
b'$GNGGA,142502.10,4005.68334,N,08814.36874,W,1,07,1.38,230.0,M,-33.2,M,,*72' 09-25-22-734
b'$GNVTG,,T,,M,0.049,N,0.090,K,A*39' 09-25-22-759
b'$GNGGA,142502.15,4005.68334,N,08814.36874,W,1,07,1.38,230.0,M,-33.2,M,,*77' 09-25-22-782
b'$GNVTG,,T,,M,0.019,N,0.036,K,A*30' 09-25-22-810
b'$GNGGA,142502.20,4005.68334,N,08814.36874,W,1,07,1.38,230.0,M,-33.2,M,,*71' 09-25-22-833
b'$GNVTG,,T,,M,0.033,N,0.061,K,A*3A' 09-25-22-859
b'$GNGGA,142502.25,4005.68334,N,08814.36874,W,1,07,1.38,230.0,M,-33.2,M,,*74' 09-25-22-882
b'$GNVTG,,T,,M,0.057,N,0.105,K,A*3B' 09-25-22-909
b'$GNGGA,142502.30,4005.68334,N,08814.36874,W,1,07,1.38,230.0,M,-33.2,M,,*70' 09-25-22-933
b'$GNVTG,,T,,M,0.059,N,0.109,K,A*39' 09-25-22-960
b'$GNGGA,142502.35,4005.68334,N,08814.36874,W,1,07,1.38,230.0,M,-33.2,M,,*75' 09-25-22-983
b'$GNVTG,,T,,M,0.051,N,0.094,K,A*34' 09-25-23-009
b'$GNGGA,142502.40,4005.68334,N,08814.36874,W,1,07,1.38,230.0,M,-33.2,M,,*77' 09-25-23-033
b'$GNVTG,,T,,M,0.044,N,0.081,K,A*34' 09-25-23-059
b'$GNGGA,142502.45,4005.68334,N,08814.36874,W,1,07,1.38,230.0,M,-33.2,M,,*72' 09-25-23-083
b'$GNVTG,,T,,M,0.017,N,0.032,K,A*3A' 09-25-23-110
b'$GNGGA,142502.50,4005.68335,N,08814.36874,W,1,07,1.38,230.0,M,-33.2,M,,*77' 09-25-23-133
b'$GNVTG,,T,,M,0.037,N,0.068,K,A*37' 09-25-23-158
b'$GNGGA,142502.55,4005.68335,N,08814.36874,W,1,07,1.38,230.0,M,-33.2,M,,*72' 09-25-23-182
b'$GNVTG,,T,,M,0.063,N,0.118,K,A*30' 09-25-23-209
b'$GNGGA,142502.60,4005.68335,N,08814.36874,W,1,07,1.38,230.0,M,-33.2,M,,*74' 09-25-23-232
b'$GNVTG,,T,,M,0.036,N,0.066,K,A*38' 09-25-23-259
b'$GNGGA,142502.65,4005.68335,N,08814.36874,W,1,07,1.38,230.0,M,-33.2,M,,*71' 09-25-23-283
b'$GNVTG,,T,,M,0.038,N,0.069,K,A*39' 09-25-23-309
b'$GNGGA,142502.70,4005.68335,N,08814.36874,W,1,07,1.38,230.0,M,-33.2,M,,*75' 09-25-23-333
b'$GNVTG,,T,,M,0.069,N,0.127,K,A*36' 09-25-23-359
b'$GNGGA,142502.75,4005.68335,N,08814.36874,W,1,07,1.38,230.0,M,-33.2,M,,*70' 09-25-23-383
b'$GNVTG,,T,,M,0.054,N,0.100,K,A*3D' 09-25-23-409
b'$GNGGA,142502.80,4005.68335,N,08814.36874,W,1,07,1.38,230.0,M,-33.2,M,,*7A' 09-25-23-433
b'$GNVTG,,T,,M,0.013,N,0.023,K,A*3E' 09-25-23-459
b'$GNGGA,142502.85,4005.68335,N,08814.36874,W,1,07,1.38,230.0,M,-33.2,M,,*7F' 09-25-23-483
b'$GNVTG,,T,,M,0.040,N,0.075,K,A*3B' 09-25-23-509
b'$GNGGA,142502.90,4005.68336,N,08814.36874,W,1,07,1.38,230.0,M,-33.2,M,,*78' 09-25-23-532
b'$GNVTG,,T,,M,0.035,N,0.065,K,A*38' 09-25-23-563
b'$GNGGA,142502.95,4005.68336,N,08814.36874,W,1,07,1.38,230.0,M,-33.2,M,,*7D' 09-25-23-586
b'$GNVTG,,T,,M,0.107,N,0.198,K,A*3B' 09-25-23-609
b'$GNGGA,142503.00,4005.68335,N,08814.36873,W,1,07,1.38,230.0,M,-33.2,M,,*74' 09-25-23-633
b'$GNVTG,,T,,M,0.019,N,0.035,K,A*33' 09-25-23-659
b'$GNGGA,142503.05,4005.68336,N,08814.36874,W,1,07,1.38,230.0,M,-33.2,M,,*75' 09-25-23-683
b'$GNVTG,,T,,M,0.070,N,0.129,K,A*30' 09-25-23-710
b'$GNGGA,142503.10,4005.68336,N,08814.36874,W,1,07,1.38,230.0,M,-33.2,M,,*71' 09-25-23-733
b'$GNVTG,,T,,M,0.017,N,0.031,K,A*39' 09-25-23-760
b'$GNGGA,142503.15,4005.68336,N,08814.36873,W,1,07,1.38,230.0,M,-33.2,M,,*73' 09-25-23-783
b'$GNVTG,,T,,M,0.045,N,0.083,K,A*37' 09-25-23-809
b'$GNGGA,142503.20,4005.68336,N,08814.36873,W,1,07,1.38,230.0,M,-33.2,M,,*75' 09-25-23-833
b'$GNVTG,,T,,M,0.023,N,0.043,K,A*3B' 09-25-23-860
b'$GNGGA,142503.25,4005.68336,N,08814.36873,W,1,07,1.38,230.0,M,-33.2,M,,*70' 09-25-23-883
b'$GNVTG,,T,,M,0.020,N,0.037,K,A*3B' 09-25-23-909
b'$GNGGA,142503.30,4005.68336,N,08814.36873,W,1,07,1.38,230.0,M,-33.2,M,,*74' 09-25-23-932
b'$GNVTG,,T,,M,0.023,N,0.043,K,A*3B' 09-25-23-959
b'$GNGGA,142503.35,4005.68336,N,08814.36873,W,1,07,1.38,230.0,M,-33.2,M,,*71' 09-25-23-982
b'$GNVTG,,T,,M,0.013,N,0.025,K,A*38' 09-25-24-010
b'$GNGGA,142503.40,4005.68336,N,08814.36873,W,1,07,1.38,230.0,M,-33.2,M,,*73' 09-25-24-032
b'$GNVTG,,T,,M,0.055,N,0.101,K,A*3D' 09-25-24-058
b'$GNGGA,142503.45,4005.68336,N,08814.36873,W,1,07,1.38,230.0,M,-33.2,M,,*76' 09-25-24-081
b'$GNVTG,,T,,M,0.046,N,0.086,K,A*31' 09-25-24-108
b'$GNGGA,142503.50,4005.68336,N,08814.36873,W,1,07,1.38,230.0,M,-33.2,M,,*72' 09-25-24-131
b'$GNVTG,,T,,M,0.015,N,0.027,K,A*3C' 09-25-24-160
b'$GNGGA,142503.55,4005.68336,N,08814.36873,W,1,07,1.38,230.0,M,-33.2,M,,*77' 09-25-24-182
b'$GNVTG,,T,,M,0.087,N,0.162,K,A*37' 09-25-24-209
b'$GNGGA,142503.60,4005.68336,N,08814.36872,W,1,07,1.38,230.0,M,-33.2,M,,*70' 09-25-24-232
b'$GNVTG,,T,,M,0.064,N,0.118,K,A*37' 09-25-24-259
b'$GNGGA,142503.65,4005.68336,N,08814.36872,W,1,07,1.38,230.0,M,-33.2,M,,*75' 09-25-24-282
b'$GNVTG,,T,,M,0.067,N,0.125,K,A*3A' 09-25-24-310
b'$GNGGA,142503.70,4005.68336,N,08814.36872,W,1,07,1.38,230.0,M,-33.2,M,,*71' 09-25-24-332
b'$GNVTG,,T,,M,0.091,N,0.169,K,A*3B' 09-25-24-359
b'$GNGGA,142503.75,4005.68336,N,08814.36872,W,1,07,1.38,230.0,M,-33.2,M,,*74' 09-25-24-382
b'$GNVTG,,T,,M,0.019,N,0.036,K,A*30' 09-25-24-409
b'$GNGGA,142503.80,4005.68336,N,08814.36872,W,1,07,1.38,230.0,M,-33.2,M,,*7E' 09-25-24-432
b'$GNVTG,,T,,M,0.041,N,0.076,K,A*39' 09-25-24-460
b'$GNGGA,142503.85,4005.68336,N,08814.36872,W,1,07,1.38,230.0,M,-33.2,M,,*7B' 09-25-24-482
b'$GNVTG,,T,,M,0.046,N,0.085,K,A*32' 09-25-24-509
b'$GNGGA,142503.90,4005.68336,N,08814.36872,W,1,07,1.38,230.0,M,-33.2,M,,*7F' 09-25-24-532
b'$GNVTG,,T,,M,0.056,N,0.104,K,A*3B' 09-25-24-563
b'$GNGGA,142503.95,4005.68337,N,08814.36872,W,1,07,1.38,230.0,M,-33.2,M,,*7B' 09-25-24-585
b'$GNVTG,,T,,M,0.031,N,0.057,K,A*3D' 09-25-24-610
b'$GNGGA,142504.00,4005.68337,N,08814.36872,W,1,07,1.38,230.0,M,-33.2,M,,*70' 09-25-24-632
b'$GNVTG,,T,,M,0.037,N,0.068,K,A*37' 09-25-24-659
b'$GNGGA,142504.05,4005.68337,N,08814.36872,W,1,07,1.38,230.0,M,-33.2,M,,*75' 09-25-24-682
b'$GNVTG,,T,,M,0.044,N,0.081,K,A*34' 09-25-24-709
b'$GNGGA,142504.10,4005.68337,N,08814.36872,W,1,07,1.38,230.0,M,-33.2,M,,*71' 09-25-24-732
b'$GNVTG,,T,,M,0.049,N,0.091,K,A*38' 09-25-24-759
b'$GNGGA,142504.15,4005.68337,N,08814.36872,W,1,07,1.38,230.0,M,-33.2,M,,*74' 09-25-24-783
b'$GNVTG,,T,,M,0.047,N,0.087,K,A*31' 09-25-24-809
b'$GNGGA,142504.20,4005.68337,N,08814.36871,W,1,07,1.38,230.0,M,-33.2,M,,*71' 09-25-24-833
b'$GNVTG,,T,,M,0.015,N,0.028,K,A*33' 09-25-24-859
b'$GNGGA,142504.25,4005.68337,N,08814.36871,W,1,07,1.38,230.0,M,-33.2,M,,*74' 09-25-24-883
b'$GNVTG,,T,,M,0.020,N,0.038,K,A*34' 09-25-24-909
b'$GNGGA,142504.30,4005.68337,N,08814.36871,W,1,07,1.38,230.0,M,-33.2,M,,*70' 09-25-24-933
b'$GNVTG,,T,,M,0.030,N,0.055,K,A*3E' 09-25-24-958
b'$GNGGA,142504.35,4005.68337,N,08814.36871,W,1,07,1.38,230.0,M,-33.2,M,,*75' 09-25-24-982
b'$GNVTG,,T,,M,0.063,N,0.116,K,A*3E' 09-25-25-008
b'$GNGGA,142504.40,4005.68337,N,08814.36871,W,1,07,1.38,230.0,M,-33.2,M,,*77' 09-25-25-032
b'$GNVTG,,T,,M,0.061,N,0.114,K,A*3E' 09-25-25-059
b'$GNGGA,142504.45,4005.68337,N,08814.36871,W,1,07,1.38,230.0,M,-33.2,M,,*72' 09-25-25-083
b'$GNVTG,,T,,M,0.011,N,0.021,K,A*3E' 09-25-25-109
b'$GNGGA,142504.50,4005.68337,N,08814.36871,W,1,07,1.38,230.0,M,-33.2,M,,*76' 09-25-25-133
b'$GNVTG,,T,,M,0.033,N,0.062,K,A*39' 09-25-25-159
b'$GNGGA,142504.55,4005.68337,N,08814.36871,W,1,07,1.38,230.0,M,-33.2,M,,*73' 09-25-25-183
b'$GNVTG,,T,,M,0.036,N,0.067,K,A*39' 09-25-25-210
b'$GNGGA,142504.60,4005.68338,N,08814.36871,W,1,07,1.38,230.0,M,-33.2,M,,*7A' 09-25-25-233
b'$GNVTG,,T,,M,0.057,N,0.106,K,A*38' 09-25-25-259
b'$GNGGA,142504.65,4005.68337,N,08814.36871,W,1,07,1.38,230.0,M,-33.2,M,,*70' 09-25-25-283
b'$GNVTG,,T,,M,0.035,N,0.066,K,A*3B' 09-25-25-309
b'$GNGGA,142504.70,4005.68337,N,08814.36871,W,1,07,1.38,230.0,M,-33.2,M,,*74' 09-25-25-332
b'$GNVTG,,T,,M,0.035,N,0.066,K,A*3B' 09-25-25-359
b'$GNGGA,142504.75,4005.68337,N,08814.36871,W,1,07,1.38,230.0,M,-33.2,M,,*71' 09-25-25-383
b'$GNVTG,,T,,M,0.013,N,0.024,K,A*39' 09-25-25-409
b'$GNGGA,142504.80,4005.68337,N,08814.36871,W,1,07,1.38,230.0,M,-33.2,M,,*7B' 09-25-25-432
b'$GNVTG,,T,,M,0.006,N,0.012,K,A*38' 09-25-25-459
b'$GNGGA,142504.85,4005.68337,N,08814.36871,W,1,07,1.38,230.0,M,-33.2,M,,*7E' 09-25-25-482
b'$GNVTG,,T,,M,0.003,N,0.005,K,A*3B' 09-25-25-509
b'$GNGGA,142504.90,4005.68337,N,08814.36871,W,1,07,1.38,230.0,M,-33.2,M,,*7A' 09-25-25-532
b'$GNVTG,,T,,M,0.061,N,0.113,K,A*39' 09-25-25-562
b'$GNGGA,142504.95,4005.68338,N,08814.36871,W,1,07,1.38,230.0,M,-33.2,M,,*70' 09-25-25-586
b'$GNVTG,,T,,M,0.068,N,0.126,K,A*36' 09-25-25-608
b'$GNGGA,142505.00,4005.68337,N,08814.36870,W,1,07,1.38,230.0,M,-33.2,M,,*73' 09-25-25-632
b'$GNVTG,,T,,M,0.055,N,0.102,K,A*3E' 09-25-25-659
b'$GNGGA,142505.05,4005.68337,N,08814.36870,W,1,07,1.38,230.0,M,-33.2,M,,*76' 09-25-25-682
b'$GNVTG,,T,,M,0.051,N,0.095,K,A*35' 09-25-25-709
b'$GNGGA,142505.10,4005.68337,N,08814.36870,W,1,07,1.38,230.0,M,-33.2,M,,*72' 09-25-25-732
b'$GNVTG,,T,,M,0.029,N,0.053,K,A*30' 09-25-25-759
b'$GNGGA,142505.15,4005.68337,N,08814.36870,W,1,07,1.38,230.0,M,-33.2,M,,*77' 09-25-25-782
b'$GNVTG,,T,,M,0.046,N,0.086,K,A*31' 09-25-25-809
b'$GNGGA,142505.20,4005.68337,N,08814.36870,W,1,07,1.38,230.0,M,-33.2,M,,*71' 09-25-25-832
b'$GNVTG,,T,,M,0.044,N,0.081,K,A*34' 09-25-25-858
b'$GNGGA,142505.25,4005.68337,N,08814.36870,W,1,07,1.38,230.0,M,-33.2,M,,*74' 09-25-25-881
b'$GNVTG,,T,,M,0.011,N,0.021,K,A*3E' 09-25-25-908
b'$GNGGA,142505.30,4005.68337,N,08814.36870,W,1,07,1.38,230.0,M,-33.2,M,,*70' 09-25-25-931
b'$GNVTG,,T,,M,0.029,N,0.054,K,A*37' 09-25-25-959
b'$GNGGA,142505.35,4005.68337,N,08814.36870,W,1,07,1.38,230.0,M,-33.2,M,,*75' 09-25-25-982
b'$GNVTG,,T,,M,0.049,N,0.090,K,A*39' 09-25-26-008
b'$GNGGA,142505.40,4005.68337,N,08814.36870,W,1,07,1.38,230.0,M,-33.2,M,,*77' 09-25-26-032
b'$GNVTG,,T,,M,0.024,N,0.044,K,A*3B' 09-25-26-058
b'$GNGGA,142505.45,4005.68337,N,08814.36869,W,1,07,1.38,230.0,M,-33.2,M,,*7A' 09-25-26-082
b'$GNVTG,,T,,M,0.030,N,0.056,K,A*3D' 09-25-26-109
b'$GNGGA,142505.50,4005.68337,N,08814.36869,W,1,07,1.38,230.0,M,-33.2,M,,*7E' 09-25-26-132
b'$GNVTG,,T,,M,0.058,N,0.107,K,A*36' 09-25-26-159
b'$GNGGA,142505.55,4005.68337,N,08814.36869,W,1,07,1.38,230.0,M,-33.2,M,,*7B' 09-25-26-182
b'$GNVTG,,T,,M,0.031,N,0.057,K,A*3D' 09-25-26-209
b'$GNGGA,142505.60,4005.68337,N,08814.36869,W,1,07,1.38,230.0,M,-33.2,M,,*7D' 09-25-26-232
b'$GNVTG,,T,,M,0.050,N,0.093,K,A*32' 09-25-26-259
b'$GNGGA,142505.65,4005.68337,N,08814.36869,W,1,07,1.38,230.0,M,-33.2,M,,*78' 09-25-26-282
b'$GNVTG,,T,,M,0.018,N,0.034,K,A*33' 09-25-26-308
b'$GNGGA,142505.70,4005.68337,N,08814.36869,W,1,07,1.38,230.0,M,-33.2,M,,*7C' 09-25-26-332
b'$GNVTG,,T,,M,0.097,N,0.180,K,A*3A' 09-25-26-358
b'$GNGGA,142505.75,4005.68337,N,08814.36869,W,1,07,1.38,230.0,M,-33.2,M,,*79' 09-25-26-382
b'$GNVTG,,T,,M,0.048,N,0.088,K,A*31' 09-25-26-409
b'$GNGGA,142505.80,4005.68337,N,08814.36869,W,1,07,1.38,230.0,M,-33.2,M,,*73' 09-25-26-432
b'$GNVTG,,T,,M,0.028,N,0.051,K,A*33' 09-25-26-459
b'$GNGGA,142505.85,4005.68337,N,08814.36869,W,1,07,1.38,230.0,M,-33.2,M,,*76' 09-25-26-482
b'$GNVTG,,T,,M,0.013,N,0.023,K,A*3E' 09-25-26-508
b'$GNGGA,142505.90,4005.68337,N,08814.36869,W,1,07,1.38,230.0,M,-33.2,M,,*72' 09-25-26-532
b'$GNVTG,,T,,M,0.014,N,0.025,K,A*3F' 09-25-26-562
b'$GNGGA,142505.95,4005.68337,N,08814.36869,W,1,07,1.38,230.0,M,-33.2,M,,*77' 09-25-26-586
b'$GNVTG,,T,,M,0.022,N,0.041,K,A*38' 09-25-26-609
b'$GNGGA,142506.00,4005.68337,N,08814.36868,W,1,07,1.38,230.0,M,-33.2,M,,*79' 09-25-26-632
b'$GNVTG,,T,,M,0.036,N,0.066,K,A*38' 09-25-26-659
b'$GNGGA,142506.05,4005.68337,N,08814.36868,W,1,07,1.38,230.0,M,-33.2,M,,*7C' 09-25-26-682
b'$GNVTG,,T,,M,0.075,N,0.139,K,A*34' 09-25-26-709
b'$GNGGA,142506.10,4005.68337,N,08814.36869,W,1,07,1.38,230.0,M,-33.2,M,,*79' 09-25-26-733
b'$GNVTG,,T,,M,0.041,N,0.076,K,A*39' 09-25-26-758
b'$GNGGA,142506.15,4005.68337,N,08814.36868,W,1,07,1.38,230.0,M,-33.2,M,,*7D' 09-25-26-781
b'$GNVTG,,T,,M,0.007,N,0.013,K,A*38' 09-25-26-808
b'$GNGGA,142506.20,4005.68337,N,08814.36868,W,1,07,1.38,230.0,M,-33.2,M,,*7B' 09-25-26-831
b'$GNVTG,,T,,M,0.063,N,0.117,K,A*3F' 09-25-26-859
b'$GNGGA,142506.25,4005.68337,N,08814.36868,W,1,07,1.38,230.0,M,-33.2,M,,*7E' 09-25-26-883
b'$GNVTG,,T,,M,0.076,N,0.141,K,A*38' 09-25-26-909
b'$GNGGA,142506.30,4005.68337,N,08814.36868,W,1,07,1.38,230.0,M,-33.2,M,,*7A' 09-25-26-932
b'$GNVTG,,T,,M,0.063,N,0.117,K,A*3F' 09-25-26-959
b'$GNGGA,142506.35,4005.68337,N,08814.36868,W,1,07,1.38,230.0,M,-33.2,M,,*7F' 09-25-26-982
b'$GNVTG,,T,,M,0.046,N,0.086,K,A*31' 09-25-27-009
b'$GNGGA,142506.40,4005.68338,N,08814.36868,W,1,07,1.38,230.0,M,-33.2,M,,*72' 09-25-27-032
b'$GNVTG,,T,,M,0.120,N,0.222,K,A*3C' 09-25-27-059
b'$GNGGA,142506.45,4005.68338,N,08814.36868,W,1,07,1.38,230.0,M,-33.2,M,,*77' 09-25-27-082
b'$GNVTG,,T,,M,0.052,N,0.096,K,A*35' 09-25-27-109
b'$GNGGA,142506.50,4005.68338,N,08814.36868,W,1,07,1.38,230.0,M,-33.2,M,,*73' 09-25-27-132
b'$GNVTG,,T,,M,0.121,N,0.224,K,A*3B' 09-25-27-159
b'$GNGGA,142506.55,4005.68337,N,08814.36868,W,1,07,1.38,230.0,M,-33.2,M,,*79' 09-25-27-182
b'$GNVTG,,T,,M,0.126,N,0.233,K,A*3A' 09-25-27-209
b'$GNGGA,142506.60,4005.68337,N,08814.36867,W,1,07,1.38,230.0,M,-33.2,M,,*70' 09-25-27-232
b'$GNVTG,,T,,M,0.030,N,0.055,K,A*3E' 09-25-27-259
b'$GNGGA,142506.65,4005.68338,N,08814.36868,W,1,07,1.38,230.0,M,-33.2,M,,*75' 09-25-27-282
b'$GNVTG,,T,,M,0.073,N,0.136,K,A*3D' 09-25-27-309
b'$GNGGA,142506.70,4005.68338,N,08814.36868,W,1,07,1.38,230.0,M,-33.2,M,,*71' 09-25-27-332
b'$GNVTG,,T,,M,0.033,N,0.061,K,A*3A' 09-25-27-359
b'$GNGGA,142506.75,4005.68338,N,08814.36868,W,1,07,1.38,230.0,M,-33.2,M,,*74' 09-25-27-382
b'$GNVTG,,T,,M,0.085,N,0.158,K,A*3C' 09-25-27-409
b'$GNGGA,142506.80,4005.68338,N,08814.36867,W,1,07,1.38,230.0,M,-33.2,M,,*71' 09-25-27-432
b'$GNVTG,,T,,M,0.085,N,0.157,K,A*33' 09-25-27-459
b'$GNGGA,142506.85,4005.68338,N,08814.36867,W,1,07,1.38,230.0,M,-33.2,M,,*74' 09-25-27-482
b'$GNVTG,,T,,M,0.054,N,0.101,K,A*3C' 09-25-27-509
b'$GNGGA,142506.90,4005.68338,N,08814.36867,W,1,07,1.38,230.0,M,-33.2,M,,*70' 09-25-27-532
b'$GNVTG,,T,,M,0.101,N,0.187,K,A*33' 09-25-27-562
b'$GNGGA,142506.95,4005.68338,N,08814.36867,W,1,07,1.38,230.0,M,-33.2,M,,*75' 09-25-27-586
b'$GNVTG,,T,,M,0.017,N,0.032,K,A*3A' 09-25-27-609
b'$GNGGA,142507.00,4005.68338,N,08814.36867,W,1,07,1.38,230.0,M,-33.2,M,,*78' 09-25-27-633
b'$GNVTG,,T,,M,0.046,N,0.085,K,A*32' 09-25-27-658
b'$GNGGA,142507.05,4005.68338,N,08814.36867,W,1,07,1.38,230.0,M,-33.2,M,,*7D' 09-25-27-681
b'$GNVTG,,T,,M,0.104,N,0.192,K,A*32' 09-25-27-708
b'$GNGGA,142507.10,4005.68338,N,08814.36867,W,1,07,1.38,230.0,M,-33.2,M,,*79' 09-25-27-731
b'$GNVTG,,T,,M,0.057,N,0.106,K,A*38' 09-25-27-759
b'$GNGGA,142507.15,4005.68338,N,08814.36866,W,1,07,1.38,230.0,M,-33.2,M,,*7D' 09-25-27-782
b'$GNVTG,,T,,M,0.079,N,0.146,K,A*30' 09-25-27-809
b'$GNGGA,142507.20,4005.68338,N,08814.36866,W,1,07,1.38,230.0,M,-33.2,M,,*7B' 09-25-27-832
b'$GNVTG,,T,,M,0.064,N,0.119,K,A*36' 09-25-27-858
b'$GNGGA,142507.25,4005.68338,N,08814.36866,W,1,07,1.38,230.0,M,-33.2,M,,*7E' 09-25-27-882
b'$GNVTG,,T,,M,0.058,N,0.108,K,A*39' 09-25-27-908
b'$GNGGA,142507.30,4005.68338,N,08814.36866,W,1,07,1.38,230.0,M,-33.2,M,,*7A' 09-25-27-932
b'$GNVTG,,T,,M,0.043,N,0.080,K,A*32' 09-25-27-959
b'$GNGGA,142507.35,4005.68338,N,08814.36866,W,1,07,1.38,230.0,M,-33.2,M,,*7F' 09-25-27-982
b'$GNVTG,,T,,M,0.071,N,0.132,K,A*3B' 09-25-28-008
b'$GNGGA,142507.40,4005.68338,N,08814.36866,W,1,07,1.38,230.0,M,-33.2,M,,*7D' 09-25-28-032
b'$GNVTG,,T,,M,0.040,N,0.074,K,A*3A' 09-25-28-059
b'$GNGGA,142507.45,4005.68338,N,08814.36866,W,1,07,1.38,230.0,M,-33.2,M,,*78' 09-25-28-082
b'$GNVTG,,T,,M,0.062,N,0.114,K,A*3D' 09-25-28-108
b'$GNGGA,142507.50,4005.68337,N,08814.36865,W,1,07,1.38,230.0,M,-33.2,M,,*70' 09-25-28-132
b'$GNVTG,,T,,M,0.073,N,0.135,K,A*3E' 09-25-28-158
b'$GNGGA,142507.55,4005.68337,N,08814.36865,W,1,07,1.38,230.0,M,-33.2,M,,*75' 09-25-28-182
b'$GNVTG,,T,,M,0.023,N,0.043,K,A*3B' 09-25-28-209
b'$GNGGA,142507.60,4005.68337,N,08814.36865,W,1,07,1.38,230.0,M,-33.2,M,,*73' 09-25-28-232
b'$GNVTG,,T,,M,0.029,N,0.054,K,A*37' 09-25-28-258
b'$GNGGA,142507.65,4005.68337,N,08814.36865,W,1,07,1.38,230.0,M,-33.2,M,,*76' 09-25-28-282
b'$GNVTG,,T,,M,0.026,N,0.048,K,A*35' 09-25-28-308
b'$GNGGA,142507.70,4005.68337,N,08814.36865,W,1,07,1.38,229.9,M,-33.2,M,,*73' 09-25-28-332
b'$GNVTG,,T,,M,0.035,N,0.065,K,A*38' 09-25-28-358
b'$GNGGA,142507.75,4005.68337,N,08814.36865,W,1,07,1.38,229.9,M,-33.2,M,,*76' 09-25-28-382
b'$GNVTG,,T,,M,0.012,N,0.023,K,A*3F' 09-25-28-408
b'$GNGGA,142507.80,4005.68337,N,08814.36865,W,1,07,1.38,229.9,M,-33.2,M,,*7C' 09-25-28-432
b'$GNVTG,,T,,M,0.047,N,0.087,K,A*31' 09-25-28-459
b'$GNGGA,142507.85,4005.68337,N,08814.36865,W,1,07,1.38,229.9,M,-33.2,M,,*79' 09-25-28-482
b'$GNVTG,,T,,M,0.046,N,0.086,K,A*31' 09-25-28-508
b'$GNGGA,142507.90,4005.68337,N,08814.36865,W,1,07,1.38,229.9,M,-33.2,M,,*7D' 09-25-28-532
b'$GNVTG,,T,,M,0.038,N,0.071,K,A*30' 09-25-28-561
b'$GNGGA,142507.95,4005.68337,N,08814.36865,W,1,07,1.38,229.9,M,-33.2,M,,*78' 09-25-28-584
b'$GNVTG,,T,,M,0.015,N,0.027,K,A*3C' 09-25-28-607
b'$GNGGA,142508.00,4005.68337,N,08814.36865,W,1,07,1.38,229.9,M,-33.2,M,,*7B' 09-25-28-631
b'$GNVTG,,T,,M,0.044,N,0.082,K,A*37' 09-25-28-659
b'$GNGGA,142508.05,4005.68337,N,08814.36864,W,1,07,1.38,229.9,M,-33.2,M,,*7F' 09-25-28-682
b'$GNVTG,,T,,M,0.055,N,0.101,K,A*3D' 09-25-28-725
b'$GNGGA,142508.10,4005.68337,N,08814.36864,W,1,12,1.11,229.9,M,-33.2,M,,*74' 09-25-28-748
b'$GNVTG,,T,,M,0.024,N,0.045,K,A*3A' 09-25-28-770
b'$GNGGA,142508.15,4005.68337,N,08814.36864,W,1,12,1.11,229.9,M,-33.2,M,,*71' 09-25-28-793
b'$GNVTG,,T,,M,0.029,N,0.054,K,A*37' 09-25-28-815
b'$GNGGA,142508.20,4005.68337,N,08814.36863,W,1,12,1.11,229.9,M,-33.2,M,,*70' 09-25-28-838
b'$GNVTG,,T,,M,0.027,N,0.051,K,A*3C' 09-25-28-861
b'$GNGGA,142508.25,4005.68336,N,08814.36862,W,1,12,1.11,229.9,M,-33.2,M,,*75' 09-25-28-885
b'$GNVTG,,T,,M,0.047,N,0.088,K,A*3E' 09-25-28-911
b'$GNGGA,142508.30,4005.68336,N,08814.36862,W,1,12,1.11,229.9,M,-33.2,M,,*71' 09-25-28-935
b'$GNVTG,,T,,M,0.053,N,0.099,K,A*3B' 09-25-28-962
b'$GNGGA,142508.35,4005.68336,N,08814.36861,W,1,12,1.11,229.9,M,-33.2,M,,*77' 09-25-28-985
b'$GNVTG,,T,,M,0.076,N,0.141,K,A*38' 09-25-29-011
b'$GNGGA,142508.40,4005.68335,N,08814.36860,W,1,12,1.11,229.9,M,-33.2,M,,*77' 09-25-29-035
b'$GNVTG,,T,,M,0.030,N,0.055,K,A*3E' 09-25-29-061
b'$GNGGA,142508.45,4005.68335,N,08814.36859,W,1,12,1.11,229.9,M,-33.2,M,,*78' 09-25-29-085
b'$GNVTG,,T,,M,0.043,N,0.079,K,A*34' 09-25-29-111
b'$GNGGA,142508.50,4005.68334,N,08814.36858,W,1,12,1.11,229.8,M,-33.2,M,,*7D' 09-25-29-135
b'$GNVTG,,T,,M,0.080,N,0.149,K,A*39' 09-25-29-161
b'$GNGGA,142508.55,4005.68334,N,08814.36857,W,1,12,1.11,229.8,M,-33.2,M,,*77' 09-25-29-185
b'$GNVTG,,T,,M,0.078,N,0.145,K,A*32' 09-25-29-211
b'$GNGGA,142508.60,4005.68333,N,08814.36856,W,1,12,1.11,229.8,M,-33.2,M,,*77' 09-25-29-235
b'$GNVTG,,T,,M,0.051,N,0.095,K,A*35' 09-25-29-261
b'$GNGGA,142508.65,4005.68333,N,08814.36855,W,1,12,1.11,229.8,M,-33.2,M,,*71' 09-25-29-285
b'$GNVTG,,T,,M,0.083,N,0.154,K,A*36' 09-25-29-311
b'$GNGGA,142508.70,4005.68333,N,08814.36855,W,1,12,1.11,229.8,M,-33.2,M,,*75' 09-25-29-335
b'$GNVTG,,T,,M,0.044,N,0.082,K,A*37' 09-25-29-361
b'$GNGGA,142508.75,4005.68332,N,08814.36854,W,1,12,1.11,229.8,M,-33.2,M,,*70' 09-25-29-385
b'$GNVTG,,T,,M,0.011,N,0.020,K,A*3F' 09-25-29-411
b'$GNGGA,142508.80,4005.68332,N,08814.36853,W,1,12,1.11,229.8,M,-33.2,M,,*7D' 09-25-29-435
b'$GNVTG,,T,,M,0.013,N,0.024,K,A*39' 09-25-29-460
b'$GNGGA,142508.85,4005.68332,N,08814.36852,W,1,12,1.11,229.7,M,-33.2,M,,*76' 09-25-29-484
b'$GNVTG,,T,,M,0.045,N,0.084,K,A*30' 09-25-29-510
b'$GNGGA,142508.90,4005.68331,N,08814.36852,W,1,12,1.11,229.7,M,-33.2,M,,*71' 09-25-29-534
b'$GNVTG,,T,,M,0.016,N,0.029,K,A*31' 09-25-29-565
b'$GNGGA,142508.95,4005.68331,N,08814.36851,W,1,12,1.11,229.7,M,-33.2,M,,*77' 09-25-29-588
b'$GNVTG,,T,,M,0.015,N,0.027,K,A*3C' 09-25-29-612
b'$GNGGA,142509.00,4005.68331,N,08814.36850,W,1,12,1.11,229.7,M,-33.2,M,,*7B' 09-25-29-636
b'$GNVTG,,T,,M,0.048,N,0.090,K,A*38' 09-25-29-662
b'$GNGGA,142509.05,4005.68330,N,08814.36850,W,1,12,1.11,229.7,M,-33.2,M,,*7F' 09-25-29-685
b'$GNVTG,,T,,M,0.027,N,0.050,K,A*3D' 09-25-29-712
b'$GNGGA,142509.10,4005.68330,N,08814.36849,W,1,12,1.11,229.7,M,-33.2,M,,*73' 09-25-29-735
b'$GNVTG,,T,,M,0.024,N,0.044,K,A*3B' 09-25-29-762
b'$GNGGA,142509.15,4005.68330,N,08814.36848,W,1,12,1.11,229.7,M,-33.2,M,,*77' 09-25-29-786
b'$GNVTG,,T,,M,0.042,N,0.078,K,A*34' 09-25-29-812
b'$GNGGA,142509.20,4005.68329,N,08814.36847,W,1,12,1.11,229.7,M,-33.2,M,,*76' 09-25-29-834
b'$GNVTG,,T,,M,0.077,N,0.142,K,A*3A' 09-25-29-862
b'$GNGGA,142509.25,4005.68329,N,08814.36847,W,1,12,1.11,229.6,M,-33.2,M,,*72' 09-25-29-886
b'$GNVTG,,T,,M,0.050,N,0.093,K,A*32' 09-25-29-912
b'$GNGGA,142509.30,4005.68328,N,08814.36846,W,1,12,1.11,229.6,M,-33.2,M,,*76' 09-25-29-936
b'$GNVTG,,T,,M,0.022,N,0.041,K,A*38' 09-25-29-962
b'$GNGGA,142509.35,4005.68328,N,08814.36845,W,1,12,1.11,229.6,M,-33.2,M,,*70' 09-25-29-986
b'$GNVTG,,T,,M,0.057,N,0.105,K,A*3B' 09-25-30-012
b'$GNGGA,142509.40,4005.68328,N,08814.36845,W,1,12,1.11,229.6,M,-33.2,M,,*72' 09-25-30-036
b'$GNVTG,,T,,M,0.057,N,0.105,K,A*3B' 09-25-30-062
b'$GNGGA,142509.45,4005.68328,N,08814.36844,W,1,12,1.11,229.6,M,-33.2,M,,*76' 09-25-30-086
b'$GNVTG,,T,,M,0.050,N,0.092,K,A*33' 09-25-30-112
b'$GNGGA,142509.50,4005.68327,N,08814.36843,W,1,12,1.11,229.6,M,-33.2,M,,*7A' 09-25-30-136
b'$GNVTG,,T,,M,0.099,N,0.184,K,A*30' 09-25-30-162
b'$GNGGA,142509.55,4005.68327,N,08814.36842,W,1,12,1.11,229.6,M,-33.2,M,,*7E' 09-25-30-186
b'$GNVTG,,T,,M,0.029,N,0.053,K,A*30' 09-25-30-212
b'$GNGGA,142509.60,4005.68326,N,08814.36842,W,1,12,1.11,229.6,M,-33.2,M,,*79' 09-25-30-236
b'$GNVTG,,T,,M,0.045,N,0.084,K,A*30' 09-25-30-262
b'$GNGGA,142509.65,4005.68326,N,08814.36841,W,1,12,1.11,229.6,M,-33.2,M,,*7F' 09-25-30-286
b'$GNVTG,,T,,M,0.080,N,0.148,K,A*38' 09-25-30-312
b'$GNGGA,142509.70,4005.68326,N,08814.36840,W,1,12,1.11,229.6,M,-33.2,M,,*7A' 09-25-30-336
b'$GNVTG,,T,,M,0.027,N,0.050,K,A*3D' 09-25-30-361
b'$GNGGA,142509.75,4005.68325,N,08814.36839,W,1,12,1.11,229.6,M,-33.2,M,,*72' 09-25-30-385
b'$GNVTG,,T,,M,0.079,N,0.146,K,A*30' 09-25-30-411
b'$GNGGA,142509.80,4005.68325,N,08814.36839,W,1,12,1.11,229.6,M,-33.2,M,,*78' 09-25-30-435
b'$GNVTG,,T,,M,0.077,N,0.143,K,A*3B' 09-25-30-463
b'$GNGGA,142509.85,4005.68324,N,08814.36838,W,1,12,1.11,229.6,M,-33.2,M,,*7D' 09-25-30-486
b'$GNVTG,,T,,M,0.047,N,0.087,K,A*31' 09-25-30-512
b'$GNGGA,142509.90,4005.68324,N,08814.36837,W,1,12,1.11,229.6,M,-33.2,M,,*76' 09-25-30-536
b'$GNVTG,,T,,M,0.066,N,0.123,K,A*3D' 09-25-30-566
b'$GNGGA,142509.95,4005.68324,N,08814.36837,W,1,12,1.11,229.6,M,-33.2,M,,*73' 09-25-30-589
b'$GNVTG,,T,,M,0.020,N,0.038,K,A*34' 09-25-30-613
b'$GNGGA,142510.00,4005.68323,N,08814.36836,W,1,12,1.11,229.6,M,-33.2,M,,*71' 09-25-30-636
b'$GNVTG,,T,,M,0.065,N,0.120,K,A*3D' 09-25-30-662
b'$GNGGA,142510.05,4005.68323,N,08814.36835,W,1,12,1.11,229.5,M,-33.2,M,,*74' 09-25-30-685
b'$GNVTG,,T,,M,0.054,N,0.100,K,A*3D' 09-25-30-712
b'$GNGGA,142510.10,4005.68322,N,08814.36835,W,1,12,1.11,229.5,M,-33.2,M,,*71' 09-25-30-736
b'$GNVTG,,T,,M,0.052,N,0.097,K,A*34' 09-25-30-763
b'$GNGGA,142510.15,4005.68322,N,08814.36834,W,1,12,1.11,229.5,M,-33.2,M,,*75' 09-25-30-786
b'$GNVTG,,T,,M,0.041,N,0.076,K,A*39' 09-25-30-812
b'$GNGGA,142510.20,4005.68322,N,08814.36833,W,1,12,1.11,229.5,M,-33.2,M,,*74' 09-25-30-836
b'$GNVTG,,T,,M,0.046,N,0.085,K,A*32' 09-25-30-862
b'$GNGGA,142510.25,4005.68321,N,08814.36833,W,1,12,1.11,229.5,M,-33.2,M,,*72' 09-25-30-886
b'$GNVTG,,T,,M,0.032,N,0.060,K,A*3A' 09-25-30-913
b'$GNGGA,142510.30,4005.68321,N,08814.36832,W,1,12,1.11,229.5,M,-33.2,M,,*77' 09-25-30-936
b'$GNVTG,,T,,M,0.050,N,0.093,K,A*32' 09-25-30-962
b'$GNGGA,142510.35,4005.68321,N,08814.36832,W,1,12,1.11,229.5,M,-33.2,M,,*72' 09-25-30-986
b'$GNVTG,,T,,M,0.071,N,0.132,K,A*3B' 09-25-31-012
b'$GNGGA,142510.40,4005.68320,N,08814.36831,W,1,12,1.11,229.5,M,-33.2,M,,*72' 09-25-31-036
b'$GNVTG,,T,,M,0.072,N,0.133,K,A*39' 09-25-31-063
b'$GNGGA,142510.45,4005.68320,N,08814.36831,W,1,12,1.11,229.5,M,-33.2,M,,*77' 09-25-31-086
b'$GNVTG,,T,,M,0.056,N,0.104,K,A*3B' 09-25-31-113
b'$GNGGA,142510.50,4005.68320,N,08814.36830,W,1,12,1.11,229.5,M,-33.2,M,,*72' 09-25-31-136
b'$GNVTG,,T,,M,0.072,N,0.133,K,A*39' 09-25-31-162
b'$GNGGA,142510.55,4005.68320,N,08814.36830,W,1,12,1.11,229.5,M,-33.2,M,,*77' 09-25-31-186
b'$GNVTG,,T,,M,0.059,N,0.109,K,A*39' 09-25-31-213
b'$GNGGA,142510.60,4005.68319,N,08814.36829,W,1,12,1.11,229.5,M,-33.2,M,,*73' 09-25-31-236
b'$GNVTG,,T,,M,0.061,N,0.114,K,A*3E' 09-25-31-262
b'$GNGGA,142510.65,4005.68319,N,08814.36828,W,1,12,1.11,229.5,M,-33.2,M,,*77' 09-25-31-285
b'$GNVTG,,T,,M,0.046,N,0.085,K,A*32' 09-25-31-312
b'$GNGGA,142510.70,4005.68318,N,08814.36828,W,1,12,1.11,229.5,M,-33.2,M,,*72' 09-25-31-335
b'$GNVTG,,T,,M,0.005,N,0.010,K,A*39' 09-25-31-363
b'$GNGGA,142510.75,4005.68318,N,08814.36828,W,1,12,1.11,229.5,M,-33.2,M,,*77' 09-25-31-386
b'$GNVTG,,T,,M,0.031,N,0.057,K,A*3D' 09-25-31-412
b'$GNGGA,142510.80,4005.68318,N,08814.36827,W,1,12,1.11,229.4,M,-33.2,M,,*73' 09-25-31-436
b'$GNVTG,,T,,M,0.022,N,0.041,K,A*38' 09-25-31-462
b'$GNGGA,142510.85,4005.68318,N,08814.36827,W,1,12,1.11,229.4,M,-33.2,M,,*76' 09-25-31-486
b'$GNVTG,,T,,M,0.092,N,0.170,K,A*30' 09-25-31-513
b'$GNGGA,142510.90,4005.68317,N,08814.36826,W,1,12,1.11,229.4,M,-33.2,M,,*7C' 09-25-31-536
b'$GNVTG,,T,,M,0.071,N,0.131,K,A*38' 09-25-31-566
b'$GNGGA,142510.95,4005.68317,N,08814.36825,W,1,12,1.11,229.4,M,-33.2,M,,*7A' 09-25-31-590
b'$GNVTG,,T,,M,0.059,N,0.110,K,A*31' 09-25-31-612
b'$GNGGA,142511.00,4005.68316,N,08814.36825,W,1,12,1.11,229.4,M,-33.2,M,,*76' 09-25-31-636
b'$GNVTG,,T,,M,0.042,N,0.078,K,A*34' 09-25-31-663
b'$GNGGA,142511.05,4005.68316,N,08814.36825,W,1,12,1.11,229.4,M,-33.2,M,,*73' 09-25-31-686
b'$GNVTG,,T,,M,0.047,N,0.087,K,A*31' 09-25-31-713
b'$GNGGA,142511.10,4005.68316,N,08814.36824,W,1,12,1.11,229.4,M,-33.2,M,,*76' 09-25-31-736
b'$GNVTG,,T,,M,0.014,N,0.026,K,A*3C' 09-25-31-762
b'$GNGGA,142511.15,4005.68315,N,08814.36824,W,1,12,1.11,229.4,M,-33.2,M,,*70' 09-25-31-786
b'$GNVTG,,T,,M,0.037,N,0.068,K,A*37' 09-25-31-813
b'$GNGGA,142511.20,4005.68315,N,08814.36823,W,1,12,1.11,229.4,M,-33.2,M,,*71' 09-25-31-836
b'$GNVTG,,T,,M,0.036,N,0.066,K,A*38' 09-25-31-862
b'$GNGGA,142511.25,4005.68315,N,08814.36823,W,1,12,1.11,229.4,M,-33.2,M,,*74' 09-25-31-886
b'$GNVTG,,T,,M,0.016,N,0.030,K,A*39' 09-25-31-912
b'$GNGGA,142511.30,4005.68314,N,08814.36822,W,1,12,1.11,229.4,M,-33.2,M,,*70' 09-25-31-936
b'$GNVTG,,T,,M,0.026,N,0.049,K,A*34' 09-25-31-963
b'$GNGGA,142511.35,4005.68314,N,08814.36822,W,1,12,1.11,229.4,M,-33.2,M,,*75' 09-25-31-986
b'$GNVTG,,T,,M,0.032,N,0.059,K,A*30' 09-25-32-012
b'$GNGGA,142511.40,4005.68314,N,08814.36822,W,1,12,1.11,229.4,M,-33.2,M,,*77' 09-25-32-036
b'$GNVTG,,T,,M,0.020,N,0.037,K,A*3B' 09-25-32-062
b'$GNGGA,142511.45,4005.68314,N,08814.36821,W,1,12,1.11,229.4,M,-33.2,M,,*71' 09-25-32-086
b'$GNVTG,,T,,M,0.037,N,0.069,K,A*36' 09-25-32-113
b'$GNGGA,142511.50,4005.68313,N,08814.36821,W,1,12,1.11,229.4,M,-33.2,M,,*72' 09-25-32-136
b'$GNVTG,,T,,M,0.035,N,0.064,K,A*39' 09-25-32-162
b'$GNGGA,142511.55,4005.68313,N,08814.36820,W,1,12,1.11,229.3,M,-33.2,M,,*71' 09-25-32-185
b'$GNVTG,,T,,M,0.043,N,0.079,K,A*34' 09-25-32-212
b'$GNGGA,142511.60,4005.68313,N,08814.36820,W,1,12,1.11,229.3,M,-33.2,M,,*77' 09-25-32-235
b'$GNVTG,,T,,M,0.020,N,0.037,K,A*3B' 09-25-32-263
b'$GNGGA,142511.65,4005.68313,N,08814.36820,W,1,12,1.11,229.3,M,-33.2,M,,*72' 09-25-32-286
