hello
CAN logging
Accel logging
Steering logging
Cooling loop logging
b'$GNVTG,,,,,,,,,N*2E' 12-47-55-127
b'$GNGGA,,,,,,0,00,99.99,,,,,,*56' 12-47-55-150
b'$GNVTG,,,,,,,,,N*2E' 12-47-55-172
b'$GNGGA,,,,,,0,00,99.99,,,,,,*56' 12-47-55-196
b'$GNVTG,,,,,,,,,N*2E' 12-47-55-218
b'$GNGGA,,,,,,0,00,99.99,,,,,,*56' 12-47-55-241
b'$GNVTG,,,,,,,,,N*2E' 12-47-55-264
b'$GNGGA,,,,,,0,00,99.99,,,,,,*56' 12-47-55-286
b'$GNVTG,,,,,,,,,N*2E' 12-47-55-308
b'$GNGGA,,,,,,0,00,99.99,,,,,,*56' 12-47-55-330
b'$GNVTG,,,,,,,,,N*2E' 12-47-55-352
b'$GNGGA,,,,,,0,00,99.99,,,,,,*56' 12-47-55-374
b'$GNVTG,,,,,,,,,N*2E' 12-47-55-396
b'$GNGGA,,,,,,0,00,99.99,,,,,,*56' 12-47-55-418
b'$GNVTG,,,,,,,,,N*2E' 12-47-55-439
b'$GNGGA,,,,,,0,00,99.99,,,,,,*56' 12-47-55-461
b'$GNVTG,,,,,,,,,N*2E' 12-47-55-487
b'$GNGGA,,,,,,0,00,99.99,,,,,,*56' 12-47-55-512
b'$GNVTG,,,,,,,,,N*2E' 12-47-55-540
b'$GNGGA,,,,,,0,00,99.99,,,,,,*56' 12-47-55-565
b'$GNVTG,,,,,,,,,N*2E' 12-47-55-588
b'$GNGGA,,,,,,0,00,99.99,,,,,,*56' 12-47-55-615
b'$GNVTG,,,,,,,,,N*2E' 12-47-55-639
b'$GNGGA,,,,,,0,00,99.99,,,,,,*56' 12-47-55-663
b'$GNVTG,,,,,,,,,N*2E' 12-47-55-686
b'$GNGGA,,,,,,0,00,99.99,,,,,,*56' 12-47-55-710
b'$GNVTG,,,,,,,,,N*2E' 12-47-55-734
b'$GNGGA,,,,,,0,00,99.99,,,,,,*56' 12-47-55-757
b'$GNVTG,,,,,,,,,N*2E' 12-47-55-779
b'$GNGGA,,,,,,0,00,99.99,,,,,,*56' 12-47-55-800
b'$GNVTG,,,,,,,,,N*2E' 12-47-55-822
b'$GNGGA,,,,,,0,00,99.99,,,,,,*56' 12-47-55-844
b'$GNVTG,,,,,,,,,N*2E' 12-47-55-865
b'$GNGGA,,,,,,0,00,99.99,,,,,,*56' 12-47-55-887
b'$GNVTG,,,,,,,,,N*2E' 12-47-55-908
b'$GNGGA,,,,,,0,00,99.99,,,,,,*56' 12-47-55-930
b'$GNVTG,,,,,,,,,N*2E' 12-47-55-952
b'$GNGGA,,,,,,0,00,99.99,,,,,,*56' 12-47-55-974
b'$GNVTG,,,,,,,,,N*2E' 12-47-55-995
b'$GNGGA,,,,,,0,00,99.99,,,,,,*56' 12-47-56-018
b'$GNVTG,,,,,,,,,N*2E' 12-47-56-042
b'$GNGGA,,,,,,0,00,99.99,,,,,,*56' 12-47-56-066
b'$GNVTG,,,,,,,,,N*2E' 12-47-56-089
b'$GNGGA,,,,,,0,00,99.99,,,,,,*56' 12-47-56-114
b'$GNVTG,,,,,,,,,N*2E' 12-47-56-139
b'$GNGGA,,,,,,0,00,99.99,,,,,,*56' 12-47-56-163
b'$GNVTG,,,,,,,,,N*2E' 12-47-56-186
b'$GNGGA,,,,,,0,00,99.99,,,,,,*56' 12-47-56-209
b'$GNVTG,,,,,,,,,N*2E' 12-47-56-232
b'$GNGGA,,,,,,0,00,99.99,,,,,,*56' 12-47-56-256
b'$GNVTG,,,,,,,,,N*2E' 12-47-56-277
b'$GNGGA,,,,,,0,00,99.99,,,,,,*56' 12-47-56-299
b'$GNVTG,,,,,,,,,N*2E' 12-47-56-320
b'$GNGGA,,,,,,0,00,99.99,,,,,,*56' 12-47-56-342
b'$GNVTG,,,,,,,,,N*2E' 12-47-56-364
b'$GNGGA,,,,,,0,00,99.99,,,,,,*56' 12-47-56-386
b'$GNVTG,,,,,,,,,N*2E' 12-47-56-407
b'$GNGGA,,,,,,0,00,99.99,,,,,,*56' 12-47-56-429
b'$GNVTG,,,,,,,,,N*2E' 12-47-56-450
b'$GNGGA,,,,,,0,00,99.99,,,,,,*56' 12-47-56-472
b'$GNVTG,,,,,,,,,N*2E' 12-47-56-494
b'$GNGGA,,,,,,0,00,99.99,,,,,,*56' 12-47-56-516
b'$GNVTG,,,,,,,,,N*2E' 12-47-56-539
b'$GNGGA,,,,,,0,00,99.99,,,,,,*56' 12-47-56-562
b'$GNVTG,,,,,,,,,N*2E' 12-47-56-583
b'$GNGGA,,,,,,0,00,99.99,,,,,,*56' 12-47-56-605
b'$GNVTG,,,,,,,,,N*2E' 12-47-56-626
b'$GNGGA,,,,,,0,00,99.99,,,,,,*56' 12-47-56-647
b'$GNVTG,,,,,,,,,N*2E' 12-47-56-668
b'$GNGGA,,,,,,0,00,99.99,,,,,,*56' 12-47-56-690
b'$GNVTG,,,,,,,,,N*2E' 12-47-56-710
b'$GNGGA,,,,,,0,00,99.99,,,,,,*56' 12-47-56-733
b'$GNVTG,,,,,,,,,N*2E' 12-47-56-754
b'$GNGGA,,,,,,0,00,99.99,,,,,,*56' 12-47-56-775
b'$GNVTG,,,,,,,,,N*2E' 12-47-56-796
b'$GNGGA,,,,,,0,00,99.99,,,,,,*56' 12-47-56-817
b'$GNVTG,,,,,,,,,N*2E' 12-47-56-838
b'$GNGGA,,,,,,0,00,99.99,,,,,,*56' 12-47-56-860
b'$GNVTG,,,,,,,,,N*2E' 12-47-56-881
b'$GNGGA,,,,,,0,00,99.99,,,,,,*56' 12-47-56-902
b'$GNVTG,,,,,,,,,N*2E' 12-47-56-924
b'$GNGGA,,,,,,0,00,99.99,,,,,,*56' 12-47-56-946
b'$GNVTG,,,,,,,,,N*2E' 12-47-56-967
b'$GNGGA,,,,,,0,00,99.99,,,,,,*56' 12-47-56-988
b'$GNVTG,,,,,,,,,N*2E' 12-47-57-009
b'$GNGGA,,,,,,0,00,99.99,,,,,,*56' 12-47-57-030
b'$GNVTG,,,,,,,,,N*2E' 12-47-57-051
b'$GNGGA,,,,,,0,00,99.99,,,,,,*56' 12-47-57-072
b'$GNVTG,,,,,,,,,N*2E' 12-47-57-094
b'$GNGGA,,,,,,0,00,99.99,,,,,,*56' 12-47-57-115
b'$GNVTG,,,,,,,,,N*2E' 12-47-57-136
b'$GNGGA,,,,,,0,00,99.99,,,,,,*56' 12-47-57-157
b'$GNVTG,,,,,,,,,N*2E' 12-47-57-178
b'$GNGGA,,,,,,0,00,99.99,,,,,,*56' 12-47-57-199
b'$GNVTG,,,,,,,,,N*2E' 12-47-57-220
b'$GNGGA,,,,,,0,00,99.99,,,,,,*56' 12-47-57-241
b'$GNVTG,,,,,,,,,N*2E' 12-47-57-262
b'$GNGGA,,,,,,0,00,99.99,,,,,,*56' 12-47-57-284
b'$GNVTG,,,,,,,,,N*2E' 12-47-57-305
b'$GNGGA,,,,,,0,00,99.99,,,,,,*56' 12-47-57-326
b'$GNVTG,,,,,,,,,N*2E' 12-47-57-348
b'$GNGGA,174730.08,,,,,0,00,99.99,,,,,,*76' 12-47-57-369
b'$GNVTG,,,,,,,,,N*2E' 12-47-57-390
b'$GNGGA,174730.13,,,,,0,00,99.99,,,,,,*7C' 12-47-57-412
b'$GNVTG,,,,,,,,,N*2E' 12-47-57-433
b'$GNGGA,174730.18,,,,,0,00,99.99,,,,,,*77' 12-47-57-455
b'$GNVTG,,,,,,,,,N*2E' 12-47-57-476
b'$GNGGA,174730.23,,,,,0,00,99.99,,,,,,*7F' 12-47-57-498
b'$GNVTG,,,,,,,,,N*2E' 12-47-57-520
b'$GNGGA,174730.28,,,,,0,00,99.99,,,,,,*74' 12-47-57-542
b'$GNVTG,,,,,,,,,N*2E' 12-47-57-562
b'$GNGGA,174730.35,,,,,0,00,99.99,,,,,,*78' 12-47-57-584
b'$GNVTG,,,,,,,,,N*2E' 12-47-57-605
b'$GNGGA,174730.40,,,,,0,00,99.99,,,,,,*7A' 12-47-57-627
b'$GNVTG,,,,,,,,,N*2E' 12-47-57-649
b'$GNGGA,174730.45,,,,,0,00,99.99,,,,,,*7F' 12-47-57-671
b'$GNVTG,,,,,,,,,N*2E' 12-47-57-692
b'$GNGGA,174730.50,,,,,0,00,99.99,,,,,,*7B' 12-47-57-714
b'$GNVTG,,,,,,,,,N*2E' 12-47-57-735
b'$GNGGA,174730.55,,,,,0,00,99.99,,,,,,*7E' 12-47-57-756
b'$GNVTG,,,,,,,,,N*2E' 12-47-57-777
b'$GNGGA,174730.60,,,,,0,00,99.99,,,,,,*78' 12-47-57-798
b'$GNVTG,,,,,,,,,N*2E' 12-47-57-819
b'$GNGGA,174730.65,,,,,0,00,99.99,,,,,,*7D' 12-47-57-841
b'$GNVTG,,,,,,,,,N*2E' 12-47-57-862
b'$GNGGA,174730.70,,,,,0,00,99.99,,,,,,*79' 12-47-57-883
b'$GNVTG,,,,,,,,,N*2E' 12-47-57-904
b'$GNGGA,174730.75,,,,,0,00,99.99,,,,,,*7C' 12-47-57-926
b'$GNVTG,,,,,,,,,N*2E' 12-47-57-947
b'$GNGGA,174730.80,,,,,0,00,99.99,,,,,,*76' 12-47-57-968
b'$GNVTG,,,,,,,,,N*2E' 12-47-57-990
b'$GNGGA,174730.85,,,,,0,00,99.99,,,,,,*73' 12-47-58-011
b'$GNVTG,,,,,,,,,N*2E' 12-47-58-033
b'$GNGGA,174730.90,,,,,0,00,99.99,,,,,,*77' 12-47-58-055
b'$GNVTG,,,,,,,,,N*2E' 12-47-58-076
b'$GNGGA,174730.95,,,,,0,00,99.99,,,,,,*72' 12-47-58-097
b'$GNVTG,,,,,,,,,N*2E' 12-47-58-118
b'$GNGGA,174731.00,,,,,0,00,99.99,,,,,,*7F' 12-47-58-140
b'$GNVTG,,,,,,,,,N*2E' 12-47-58-161
b'$GNGGA,174731.05,,,,,0,00,99.99,,,,,,*7A' 12-47-58-183
b'$GNVTG,,,,,,,,,N*2E' 12-47-58-204
b'$GNGGA,174731.10,,,,,0,00,99.99,,,,,,*7E' 12-47-58-226
b'$GNVTG,,,,,,,,,N*2E' 12-47-58-247
b'$GNGGA,174731.15,,,,,0,00,99.99,,,,,,*7B' 12-47-58-268
b'$GNVTG,,,,,,,,,N*2E' 12-47-58-289
b'$GNGGA,174731.20,,,,,0,00,99.99,,,,,,*7D' 12-47-58-311
b'$GNVTG,,,,,,,,,N*2E' 12-47-58-332
b'$GNGGA,174731.25,,,,,0,00,99.99,,,,,,*78' 12-47-58-353
b'$GNVTG,,,,,,,,,N*2E' 12-47-58-374
b'$GNGGA,174731.30,,,,,0,00,99.99,,,,,,*7C' 12-47-58-396
b'$GNVTG,,,,,,,,,N*2E' 12-47-58-417
b'$GNVTG,,,,,,,,,N*2E' 12-47-58-439
b'$GNGGA,174737.25,,,,,0,00,99.99,,,,,,*7E' 12-47-58-462
b'$GNVTG,,,,,,,,,N*2E' 12-47-58-484
b'$GNGGA,174737.30,,,,,0,00,99.99,,,,,,*7A' 12-47-58-506
b'$GNVTG,,,,,,,,,N*2E' 12-47-58-528
b'$GNGGA,174737.35,,,,,0,00,99.99,,,,,,*7F' 12-47-58-551
b'$GNVTG,,,,,,,,,N*2E' 12-47-58-573
b'$GNGGA,174737.40,,,,,0,00,99.99,,,,,,*7D' 12-47-58-596
b'$GNVTG,,,,,,,,,N*2E' 12-47-58-618
b'$GNGGA,174737.45,,,,,0,00,99.99,,,,,,*78' 12-47-58-640
b'$GNVTG,,,,,,,,,N*2E' 12-47-58-662
b'$GNGGA,174737.50,,,,,0,00,99.99,,,,,,*7C' 12-47-58-684
b'$GNVTG,,,,,,,,,N*2E' 12-47-58-706
b'$GNGGA,174737.55,,,,,0,00,99.99,,,,,,*79' 12-47-58-729
b'$GNVTG,,,,,,,,,N*2E' 12-47-58-750
b'$GNGGA,174737.60,,,,,0,00,99.99,,,,,,*7F' 12-47-58-772
b'$GNVTG,,,,,,,,,N*2E' 12-47-58-794
b'$GNGGA,174737.65,,,,,0,00,99.99,,,,,,*7A' 12-47-58-817
b'$GNVTG,,,,,,,,,N*2E' 12-47-58-839
b'$GNGGA,174737.70,,,,,0,00,99.99,,,,,,*7E' 12-47-58-861
b'$GNVTG,,,,,,,,,N*2E' 12-47-58-883
b'$GNGGA,174737.75,,,,,0,00,99.99,,,,,,*7B' 12-47-58-906
b'$GNVTG,,,,,,,,,N*2E' 12-47-58-928
b'$GNGGA,174737.80,,,,,0,00,99.99,,,,,,*71' 12-47-58-950
b'$GNVTG,,,,,,,,,N*2E' 12-47-58-972
b'$GNGGA,174737.85,,,,,0,00,99.99,,,,,,*74' 12-47-58-995
b'$GNVTG,,,,,,,,,N*2E' 12-47-59-017
b'$GNGGA,174737.90,,,,,0,00,99.99,,,,,,*70' 12-47-59-039
b'$GNVTG,,,,,,,,,N*2E' 12-47-59-064
b'$GNGGA,174737.95,,,,,0,00,99.99,,,,,,*75' 12-47-59-086
b'$GNVTG,,,,,,,,,N*2E' 12-47-59-110
b'$GNGGA,174738.00,,,,,0,00,99.99,,,,,,*76' 12-47-59-133
b'$GNVTG,,,,,,,,,N*2E' 12-47-59-160
b'$GNGGA,174738.05,,,,,0,00,99.99,,,,,,*73' 12-47-59-183
b'$GNVTG,,,,,,,,,N*2E' 12-47-59-215
b'$GNGGA,174738.10,,,,,0,00,99.99,,,,,,*77' 12-47-59-238
b'$GNVTG,,,,,,,,,N*2E' 12-47-59-265
b'$GNGGA,174738.15,,,,,0,00,99.99,,,,,,*72' 12-47-59-288
b'$GNVTG,,,,,,,,,N*2E' 12-47-59-315
b'$GNGGA,174738.20,,,,,0,00,99.99,,,,,,*74' 12-47-59-338
b'$GNVTG,,,,,,,,,N*2E' 12-47-59-365
b'$GNGGA,174738.25,,,,,0,00,99.99,,,,,,*71' 12-47-59-387
b'$GNVTG,,,,,,,,,N*2E' 12-47-59-415
b'$GNGGA,174738.30,,,,,0,00,99.99,,,,,,*75' 12-47-59-438
b'$GNVTG,,,,,,,,,N*2E' 12-47-59-465
b'$GNGGA,174738.35,,,,,0,00,99.99,,,,,,*70' 12-47-59-487
b'$GNVTG,,,,,,,,,N*2E' 12-47-59-515
b'$GNGGA,174738.40,,,,,0,00,99.99,,,,,,*72' 12-47-59-538
b'$GNVTG,,,,,,,,,N*2E' 12-47-59-565
b'$GNGGA,174738.45,,,,,0,00,99.99,,,,,,*77' 12-47-59-587
b'$GNVTG,,,,,,,,,N*2E' 12-47-59-615
b'$GNGGA,174738.50,,,,,0,00,99.99,,,,,,*73' 12-47-59-637
b'$GNVTG,,,,,,,,,N*2E' 12-47-59-665
b'$GNGGA,174738.55,,,,,0,00,99.99,,,,,,*76' 12-47-59-687
b'$GNVTG,,,,,,,,,N*2E' 12-47-59-715
b'$GNGGA,174738.60,,,,,0,00,99.99,,,,,,*70' 12-47-59-738
b'$GNVTG,,,,,,,,,N*2E' 12-47-59-765
b'$GNGGA,174738.65,,,,,0,00,99.99,,,,,,*75' 12-47-59-787
b'$GNVTG,,,,,,,,,N*2E' 12-47-59-815
b'$GNGGA,174738.70,,,,,0,00,99.99,,,,,,*71' 12-47-59-838
b'$GNVTG,,,,,,,,,N*2E' 12-47-59-865
b'$GNGGA,174738.75,,,,,0,00,99.99,,,,,,*74' 12-47-59-887
b'$GNVTG,,,,,,,,,N*2E' 12-47-59-915
b'$GNGGA,174738.80,,,,,0,00,99.99,,,,,,*7E' 12-47-59-938
b'$GNVTG,,,,,,,,,N*2E' 12-47-59-965
b'$GNGGA,174738.85,,,,,0,00,99.99,,,,,,*7B' 12-47-59-987
b'$GNVTG,,,,,,,,,N*2E' 12-48-00-015
b'$GNGGA,174738.90,,,,,0,00,99.99,,,,,,*7F' 12-48-00-038
b'$GNVTG,,,,,,,,,N*2E' 12-48-00-065
b'$GNGGA,174738.95,,,,,0,00,99.99,,,,,,*7A' 12-48-00-088
b'$GNVTG,,,,,,,,,N*2E' 12-48-00-115
b'$GNGGA,174739.00,,,,,0,00,99.99,,,,,,*77' 12-48-00-138
b'$GNVTG,,,,,,,,,N*2E' 12-48-00-165
b'$GNGGA,174739.05,,,,,0,00,99.99,,,,,,*72' 12-48-00-188
b'$GNVTG,,,,,,,,,N*2E' 12-48-00-215
b'$GNGGA,174739.10,,,,,0,00,99.99,,,,,,*76' 12-48-00-238
b'$GNVTG,,,,,,,,,N*2E' 12-48-00-265
b'$GNGGA,174739.15,,,,,0,00,99.99,,,,,,*73' 12-48-00-288
b'$GNVTG,,,,,,,,,N*2E' 12-48-00-315
b'$GNGGA,174739.20,,,,,0,00,99.99,,,,,,*75' 12-48-00-337
b'$GNVTG,,,,,,,,,N*2E' 12-48-00-365
b'$GNGGA,174739.25,,,,,0,00,99.99,,,,,,*70' 12-48-00-388
b'$GNVTG,,,,,,,,,N*2E' 12-48-00-415
b'$GNGGA,174739.30,,,,,0,00,99.99,,,,,,*74' 12-48-00-437
b'$GNVTG,,,,,,,,,N*2E' 12-48-00-465
b'$GNGGA,174739.35,,,,,0,00,99.99,,,,,,*71' 12-48-00-488
b'$GNVTG,,,,,,,,,N*2E' 12-48-00-515
b'$GNGGA,174739.40,,,,,0,00,99.99,,,,,,*73' 12-48-00-538
b'$GNVTG,,,,,,,,,N*2E' 12-48-00-565
b'$GNGGA,174739.45,,,,,0,00,99.99,,,,,,*76' 12-48-00-587
b'$GNVTG,,,,,,,,,N*2E' 12-48-00-616
b'$GNGGA,174739.50,,,,,0,00,99.99,,,,,,*72' 12-48-00-638
b'$GNVTG,,,,,,,,,N*2E' 12-48-00-665
b'$GNGGA,174739.55,,,,,0,00,99.99,,,,,,*77' 12-48-00-688
b'$GNVTG,,,,,,,,,N*2E' 12-48-00-716
b'$GNGGA,174739.60,,,,,0,00,99.99,,,,,,*71' 12-48-00-739
b'$GNVTG,,,,,,,,,N*2E' 12-48-00-765
b'$GNGGA,174739.65,,,,,0,00,99.99,,,,,,*74' 12-48-00-787
b'$GNVTG,,,,,,,,,N*2E' 12-48-00-815
b'$GNGGA,174739.70,,,,,0,00,99.99,,,,,,*70' 12-48-00-838
b'$GNVTG,,,,,,,,,N*2E' 12-48-00-865
b'$GNGGA,174739.75,,,,,0,00,99.99,,,,,,*75' 12-48-00-887
b'$GNVTG,,,,,,,,,N*2E' 12-48-00-915
b'$GNGGA,174739.80,,,,,0,00,99.99,,,,,,*7F' 12-48-00-938
b'$GNVTG,,,,,,,,,N*2E' 12-48-00-965
b'$GNGGA,174739.85,,,,,0,00,99.99,,,,,,*7A' 12-48-00-988
b'$GNVTG,,,,,,,,,N*2E' 12-48-01-015
b'$GNGGA,174739.90,,,,,0,00,99.99,,,,,,*7E' 12-48-01-038
b'$GNVTG,,,,,,,,,N*2E' 12-48-01-065
b'$GNGGA,174739.95,,,,,0,00,99.99,,,,,,*7B' 12-48-01-088
b'$GNVTG,,,,,,,,,N*2E' 12-48-01-116
b'$GNGGA,174740.00,,,,,0,00,99.99,,,,,,*79' 12-48-01-139
b'$GNVTG,,,,,,,,,N*2E' 12-48-01-165
b'$GNGGA,174740.05,,,,,0,00,99.99,,,,,,*7C' 12-48-01-188
b'$GNVTG,268.49,T,,M,4.805,N,8.899,K,A*2B' 12-48-01-246
b'$GNGGA,174740.10,4005.68616,N,08814.37347,W,1,06,1.46,234.5,M,-33.2,M,,*75' 12-48-01-271
b'$GNVTG,268.97,T,,M,5.249,N,9.722,K,A*25' 12-48-01-294
b'$GNGGA,174740.15,4005.68616,N,08814.37357,W,1,06,1.46,234.5,M,-33.2,M,,*71' 12-48-01-318
b'$GNVTG,271.15,T,,M,5.036,N,9.326,K,A*2D' 12-48-01-341
b'$GNGGA,174740.20,4005.68617,N,08814.37366,W,1,06,1.46,234.5,M,-33.2,M,,*74' 12-48-01-365
b'$GNVTG,271.23,T,,M,5.559,N,10.295,K,A*15' 12-48-01-388
b'$GNGGA,174740.25,4005.68617,N,08814.37376,W,1,06,1.46,234.4,M,-33.2,M,,*71' 12-48-01-411
b'$GNVTG,270.51,T,,M,5.798,N,10.738,K,A*1C' 12-48-01-434
b'$GNGGA,174740.30,4005.68616,N,08814.37385,W,1,06,1.46,234.4,M,-33.2,M,,*78' 12-48-01-459
b'$GNVTG,270.23,T,,M,6.065,N,11.233,K,A*10' 12-48-01-482
b'$GNGGA,174740.35,4005.68614,N,08814.37395,W,1,06,1.46,234.4,M,-33.2,M,,*7E' 12-48-01-506
b'$GNVTG,269.69,T,,M,6.719,N,12.443,K,A*18' 12-48-01-528
b'$GNGGA,174740.40,4005.68611,N,08814.37403,W,1,06,1.46,234.4,M,-33.2,M,,*71' 12-48-01-552
b'$GNVTG,269.24,T,,M,7.212,N,13.356,K,A*1C' 12-48-01-575
b'$GNGGA,174740.45,4005.68607,N,08814.37411,W,1,06,1.46,234.5,M,-33.2,M,,*71' 12-48-01-599
b'$GNVTG,267.58,T,,M,7.546,N,13.976,K,A*17' 12-48-01-622
b'$GNGGA,174740.50,4005.68602,N,08814.37418,W,1,06,1.46,234.5,M,-33.2,M,,*79' 12-48-01-646
b'$GNVTG,266.57,T,,M,7.828,N,14.498,K,A*16' 12-48-01-670
b'$GNGGA,174740.55,4005.68597,N,08814.37426,W,1,06,1.46,234.5,M,-33.2,M,,*7E' 12-48-01-694
b'$GNVTG,268.00,T,,M,8.400,N,15.558,K,A*1F' 12-48-01-720
b'$GNGGA,174740.60,4005.68593,N,08814.37437,W,1,06,1.46,234.5,M,-33.2,M,,*7C' 12-48-01-744
b'$GNVTG,268.56,T,,M,8.889,N,16.463,K,A*1B' 12-48-01-769
b'$GNGGA,174740.65,4005.68590,N,08814.37448,W,1,06,1.46,234.6,M,-33.2,M,,*71' 12-48-01-793
b'$GNVTG,266.49,T,,M,9.214,N,17.064,K,A*16' 12-48-01-819
b'$GNGGA,174740.70,4005.68586,N,08814.37461,W,1,06,1.46,234.6,M,-33.2,M,,*79' 12-48-01-843
b'$GNVTG,266.16,T,,M,9.596,N,17.772,K,A*11' 12-48-01-869
b'$GNGGA,174740.75,4005.68582,N,08814.37474,W,1,06,1.46,234.6,M,-33.2,M,,*7C' 12-48-01-894
b'$GNVTG,266.56,T,,M,10.142,N,18.782,K,A*20' 12-48-01-920
b'$GNGGA,174740.80,4005.68578,N,08814.37488,W,1,06,1.46,234.6,M,-33.2,M,,*70' 12-48-01-944
b'$GNVTG,265.99,T,,M,10.637,N,19.700,K,A*2E' 12-48-01-969
b'$GNGGA,174740.85,4005.68574,N,08814.37504,W,1,06,1.46,234.7,M,-33.2,M,,*7D' 12-48-01-994
b'$GNVTG,266.88,T,,M,11.093,N,20.544,K,A*2C' 12-48-02-019
b'$GNGGA,174740.90,4005.68571,N,08814.37522,W,1,06,1.46,234.7,M,-33.2,M,,*78' 12-48-02-043
b'$GNVTG,267.53,T,,M,11.788,N,21.832,K,A*2B' 12-48-02-073
b'$GNGGA,174740.95,4005.68569,N,08814.37541,W,1,06,1.46,234.7,M,-33.2,M,,*71' 12-48-02-097
b'$GNVTG,269.03,T,,M,12.041,N,22.299,K,A*29' 12-48-02-119
b'$GNGGA,174741.00,4005.68567,N,08814.37561,W,1,06,1.46,234.7,M,-33.2,M,,*70' 12-48-02-144
b'$GNVTG,269.05,T,,M,12.702,N,23.524,K,A*2F' 12-48-02-169
b'$GNGGA,174741.05,4005.68565,N,08814.37582,W,1,06,1.46,234.7,M,-33.2,M,,*7A' 12-48-02-193
b'$GNVTG,269.17,T,,M,13.267,N,24.571,K,A*2C' 12-48-02-219
b'$GNGGA,174741.10,4005.68563,N,08814.37605,W,1,06,1.46,234.7,M,-33.2,M,,*74' 12-48-02-243
b'$GNVTG,269.93,T,,M,13.708,N,25.387,K,A*22' 12-48-02-270
b'$GNGGA,174741.15,4005.68562,N,08814.37628,W,1,06,1.46,234.7,M,-33.2,M,,*7F' 12-48-02-294
b'$GNVTG,270.16,T,,M,14.388,N,26.647,K,A*26' 12-48-02-320
b'$GNGGA,174741.20,4005.68561,N,08814.37654,W,1,06,1.46,234.7,M,-33.2,M,,*71' 12-48-02-344
b'$GNGGA,174741.25,4005.68560,N,08814.37680,W,1,06,1.46,234.7,M,-33.2,M,,*7C' 12-48-02-371
b'$GNVTG,270.73,T,,M,15.435,N,28.586,K,A*25' 12-48-02-420
b'$GNGGA,174741.30,4005.68559,N,08814.37707,W,1,06,1.46,234.7,M,-33.2,M,,*7C' 12-48-02-444
b'$GNVTG,270.98,T,,M,15.982,N,29.599,K,A*2E' 12-48-02-469
b'$GNGGA,174741.35,4005.68558,N,08814.37735,W,1,06,1.46,234.7,M,-33.2,M,,*79' 12-48-02-494
b'$GNVTG,271.43,T,,M,16.468,N,30.499,K,A*2A' 12-48-02-520
b'$GNGGA,174741.40,4005.68558,N,08814.37764,W,1,06,1.46,234.7,M,-33.2,M,,*7F' 12-48-02-545
b'$GNVTG,272.99,T,,M,16.754,N,31.028,K,A*2D' 12-48-02-570
b'$GNGGA,174741.45,4005.68559,N,08814.37794,W,1,06,1.46,234.7,M,-33.2,M,,*74' 12-48-02-595
b'$GNVTG,272.63,T,,M,17.202,N,31.857,K,A*2F' 12-48-02-619
b'$GNGGA,174741.50,4005.68559,N,08814.37825,W,1,06,1.46,234.7,M,-33.2,M,,*75' 12-48-02-643
b'$GNVTG,271.59,T,,M,17.887,N,33.128,K,A*21' 12-48-02-669
b'$GNGGA,174741.55,4005.68559,N,08814.37857,W,1,06,1.46,234.7,M,-33.2,M,,*75' 12-48-02-693
b'$GNVTG,272.26,T,,M,18.243,N,33.786,K,A*25' 12-48-02-719
b'$GNGGA,174741.60,4005.68559,N,08814.37889,W,1,06,1.46,234.7,M,-33.2,M,,*70' 12-48-02-743
b'$GNVTG,272.46,T,,M,18.672,N,34.580,K,A*26' 12-48-02-769
b'$GNGGA,174741.65,4005.68560,N,08814.37923,W,1,06,1.47,234.7,M,-33.2,M,,*7F' 12-48-02-793
b'$GNVTG,271.95,T,,M,19.155,N,35.476,K,A*21' 12-48-02-819
b'$GNGGA,174741.70,4005.68560,N,08814.37957,W,1,06,1.47,234.7,M,-33.2,M,,*78' 12-48-02-843
b'$GNVTG,271.32,T,,M,19.317,N,35.775,K,A*28' 12-48-02-869
b'$GNGGA,174741.75,4005.68560,N,08814.37992,W,1,06,1.47,234.7,M,-33.2,M,,*74' 12-48-02-893
b'$GNVTG,269.64,T,,M,19.742,N,36.562,K,A*21' 12-48-02-919
b'$GNGGA,174741.80,4005.68559,N,08814.38027,W,1,06,1.47,234.7,M,-33.2,M,,*7C' 12-48-02-944
b'$GNVTG,270.64,T,,M,20.600,N,38.151,K,A*2E' 12-48-02-969
b'$GNGGA,174741.85,4005.68559,N,08814.38065,W,1,06,1.47,234.7,M,-33.2,M,,*7F' 12-48-02-993
b'$GNVTG,269.80,T,,M,21.001,N,38.894,K,A*2A' 12-48-03-019
b'$GNGGA,174741.90,4005.68558,N,08814.38103,W,1,06,1.47,234.7,M,-33.2,M,,*7B' 12-48-03-043
b'$GNVTG,269.32,T,,M,21.408,N,39.648,K,A*20' 12-48-03-073
b'$GNGGA,174741.95,4005.68557,N,08814.38141,W,1,06,1.47,234.7,M,-33.2,M,,*77' 12-48-03-096
b'$GNVTG,268.84,T,,M,21.624,N,40.048,K,A*28' 12-48-03-119
b'$GNGGA,174742.00,4005.68556,N,08814.38180,W,1,06,1.47,234.7,M,-33.2,M,,*74' 12-48-03-143
b'$GNVTG,268.32,T,,M,22.020,N,40.781,K,A*26' 12-48-03-170
b'$GNGGA,174742.05,4005.68555,N,08814.38220,W,1,06,1.47,234.7,M,-33.2,M,,*7B' 12-48-03-194
b'$GNVTG,267.93,T,,M,22.224,N,41.158,K,A*27' 12-48-03-220
b'$GNGGA,174742.10,4005.68553,N,08814.38260,W,1,06,1.47,234.7,M,-33.2,M,,*7D' 12-48-03-244
b'$GNVTG,267.69,T,,M,22.336,N,41.367,K,A*2E' 12-48-03-269
b'$GNGGA,174742.15,4005.68551,N,08814.38300,W,1,06,1.47,234.7,M,-33.2,M,,*7D' 12-48-03-294
b'$GNVTG,267.30,T,,M,22.099,N,40.927,K,A*2B' 12-48-03-320
b'$GNGGA,174742.20,4005.68550,N,08814.38339,W,1,06,1.47,234.7,M,-33.2,M,,*70' 12-48-03-344
b'$GNVTG,266.90,T,,M,21.282,N,39.415,K,A*29' 12-48-03-370
b'$GNGGA,174742.25,4005.68548,N,08814.38376,W,1,06,1.47,234.7,M,-33.2,M,,*77' 12-48-03-394
b'$GNVTG,266.58,T,,M,20.682,N,38.303,K,A*29' 12-48-03-420
b'$GNGGA,174742.30,4005.68546,N,08814.38411,W,1,06,1.47,234.7,M,-33.2,M,,*7B' 12-48-03-444
b'$GNVTG,265.98,T,,M,20.706,N,38.347,K,A*2B' 12-48-03-470
b'$GNGGA,174742.35,4005.68544,N,08814.38447,W,1,06,1.47,234.7,M,-33.2,M,,*7F' 12-48-03-494
b'$GNVTG,266.63,T,,M,20.301,N,37.598,K,A*24' 12-48-03-521
b'$GNGGA,174742.40,4005.68542,N,08814.38483,W,1,06,1.47,234.7,M,-33.2,M,,*73' 12-48-03-544
b'$GNVTG,266.19,T,,M,19.506,N,36.126,K,A*22' 12-48-03-570
b'$GNGGA,174742.45,4005.68540,N,08814.38516,W,1,06,1.47,234.7,M,-33.2,M,,*79' 12-48-03-592
b'$GNVTG,266.22,T,,M,19.226,N,35.606,K,A*29' 12-48-03-620
b'$GNGGA,174742.50,4005.68538,N,08814.38550,W,1,06,1.47,234.7,M,-33.2,M,,*70' 12-48-03-644
b'$GNVTG,266.84,T,,M,19.362,N,35.859,K,A*20' 12-48-03-670
b'$GNGGA,174742.55,4005.68537,N,08814.38584,W,1,06,1.47,234.7,M,-33.2,M,,*73' 12-48-03-694
b'$GNVTG,267.24,T,,M,19.282,N,35.710,K,A*26' 12-48-03-720
b'$GNGGA,174742.60,4005.68536,N,08814.38618,W,1,06,1.47,234.7,M,-33.2,M,,*72' 12-48-03-744
b'$GNVTG,267.16,T,,M,19.126,N,35.420,K,A*2A' 12-48-03-770
b'$GNGGA,174742.65,4005.68534,N,08814.38652,W,1,06,1.47,234.7,M,-33.2,M,,*7B' 12-48-03-794
b'$GNVTG,266.92,T,,M,19.006,N,35.199,K,A*23' 12-48-03-820
b'$GNGGA,174742.70,4005.68532,N,08814.38686,W,1,06,1.47,234.7,M,-33.2,M,,*70' 12-48-03-844
b'$GNVTG,267.29,T,,M,18.925,N,35.049,K,A*27' 12-48-03-870
b'$GNGGA,174742.75,4005.68531,N,08814.38719,W,1,06,1.47,234.7,M,-33.2,M,,*71' 12-48-03-894
b'$GNVTG,267.58,T,,M,18.975,N,35.142,K,A*2E' 12-48-03-919
b'$GNGGA,174742.80,4005.68530,N,08814.38753,W,1,06,1.47,234.7,M,-33.2,M,,*74' 12-48-03-944
b'$GNVTG,267.64,T,,M,18.709,N,34.650,K,A*21' 12-48-03-969
b'$GNGGA,174742.85,4005.68529,N,08814.38786,W,1,06,1.47,234.7,M,-33.2,M,,*71' 12-48-03-993
b'$GNVTG,267.90,T,,M,18.966,N,35.125,K,A*29' 12-48-04-019
b'$GNGGA,174742.90,4005.68528,N,08814.38820,W,1,06,1.47,234.7,M,-33.2,M,,*77' 12-48-04-042
b'$GNVTG,267.71,T,,M,19.051,N,35.283,K,A*25' 12-48-04-073
b'$GNGGA,174742.95,4005.68526,N,08814.38854,W,1,06,1.47,234.7,M,-33.2,M,,*7F' 12-48-04-096
b'$GNVTG,267.68,T,,M,18.890,N,34.985,K,A*25' 12-48-04-120
b'$GNGGA,174743.00,4005.68525,N,08814.38887,W,1,06,1.47,234.7,M,-33.2,M,,*7F' 12-48-04-143
b'$GNVTG,267.49,T,,M,18.613,N,34.471,K,A*25' 12-48-04-170
b'$GNGGA,174743.05,4005.68524,N,08814.38920,W,1,06,1.47,234.7,M,-33.2,M,,*77' 12-48-04-194
b'$GNVTG,267.72,T,,M,18.615,N,34.475,K,A*2F' 12-48-04-220
b'$GNGGA,174743.10,4005.68523,N,08814.38953,W,1,06,1.47,234.7,M,-33.2,M,,*70' 12-48-04-243
b'$GNVTG,267.20,T,,M,18.622,N,34.489,K,A*2F' 12-48-04-270
b'$GNGGA,174743.15,4005.68521,N,08814.38986,W,1,06,1.47,234.7,M,-33.2,M,,*7F' 12-48-04-293
b'$GNVTG,267.05,T,,M,18.517,N,34.293,K,A*20' 12-48-04-320
b'$GNGGA,174743.20,4005.68519,N,08814.39020,W,1,06,1.47,234.7,M,-33.2,M,,*76' 12-48-04-344
b'$GNVTG,267.38,T,,M,18.510,N,34.280,K,A*2B' 12-48-04-370
b'$GNGGA,174743.25,4005.68518,N,08814.39053,W,1,06,1.47,234.7,M,-33.2,M,,*76' 12-48-04-394
b'$GNVTG,267.89,T,,M,18.400,N,34.076,K,A*2A' 12-48-04-421
b'$GNGGA,174743.30,4005.68517,N,08814.39085,W,1,06,1.47,234.7,M,-33.2,M,,*76' 12-48-04-445
b'$GNVTG,267.33,T,,M,18.443,N,34.157,K,A*2E' 12-48-04-470
b'$GNGGA,174743.35,4005.68516,N,08814.39118,W,1,06,1.47,234.7,M,-33.2,M,,*77' 12-48-04-494
b'$GNVTG,266.50,T,,M,18.150,N,33.614,K,A*2A' 12-48-04-520
b'$GNGGA,174743.40,4005.68514,N,08814.39151,W,1,06,1.47,234.7,M,-33.2,M,,*7A' 12-48-04-544
b'$GNVTG,266.93,T,,M,18.267,N,33.830,K,A*2A' 12-48-04-570
b'$GNGGA,174743.45,4005.68513,N,08814.39183,W,1,06,1.47,234.7,M,-33.2,M,,*77' 12-48-04-593
b'$GNVTG,267.02,T,,M,18.111,N,33.542,K,A*29' 12-48-04-619
b'$GNGGA,174743.50,4005.68511,N,08814.39216,W,1,06,1.47,234.7,M,-33.2,M,,*7E' 12-48-04-642
b'$GNVTG,267.30,T,,M,17.882,N,33.118,K,A*2F' 12-48-04-670
b'$GNGGA,174743.55,4005.68510,N,08814.39248,W,1,06,1.47,234.7,M,-33.2,M,,*71' 12-48-04-693
b'$GNVTG,267.27,T,,M,17.705,N,32.789,K,A*26' 12-48-04-720
b'$GNGGA,174743.60,4005.68509,N,08814.39279,W,1,06,1.47,234.7,M,-33.2,M,,*7D' 12-48-04-742
b'$GNVTG,267.00,T,,M,17.573,N,32.546,K,A*21' 12-48-04-769
b'$GNGGA,174743.65,4005.68508,N,08814.39311,W,1,06,1.47,234.7,M,-33.2,M,,*76' 12-48-04-792
b'$GNVTG,267.48,T,,M,17.493,N,32.397,K,A*28' 12-48-04-820
b'$GNGGA,174743.70,4005.68507,N,08814.39342,W,1,06,1.47,234.7,M,-33.2,M,,*7B' 12-48-04-842
b'$GNVTG,268.66,T,,M,17.460,N,32.336,K,A*2C' 12-48-04-869
b'$GNGGA,174743.75,4005.68506,N,08814.39373,W,1,06,1.47,234.7,M,-33.2,M,,*7D' 12-48-04-892
b'$GNVTG,268.43,T,,M,17.210,N,31.873,K,A*23' 12-48-04-919
b'$GNGGA,174743.80,4005.68506,N,08814.39404,W,1,06,1.47,234.7,M,-33.2,M,,*70' 12-48-04-942
b'$GNVTG,268.33,T,,M,16.444,N,30.454,K,A*2A' 12-48-04-970
b'$GNGGA,174743.85,4005.68505,N,08814.39432,W,1,06,1.47,234.6,M,-33.2,M,,*72' 12-48-04-993
b'$GNVTG,268.47,T,,M,16.252,N,30.100,K,A*2C' 12-48-05-020
b'$GNGGA,174743.90,4005.68504,N,08814.39461,W,1,06,1.47,234.6,M,-33.2,M,,*71' 12-48-05-044
b'$GNVTG,268.86,T,,M,15.955,N,29.548,K,A*2E' 12-48-05-073
b'$GNGGA,174743.95,4005.68504,N,08814.39489,W,1,06,1.47,234.6,M,-33.2,M,,*72' 12-48-05-097
b'$GNVTG,269.21,T,,M,15.748,N,29.165,K,A*2B' 12-48-05-120
b'$GNGGA,174744.00,4005.68504,N,08814.39517,W,1,06,1.47,234.6,M,-33.2,M,,*7F' 12-48-05-143
b'$GNVTG,269.60,T,,M,15.534,N,28.769,K,A*2C' 12-48-05-170
b'$GNGGA,174744.05,4005.68504,N,08814.39545,W,1,06,1.47,234.6,M,-33.2,M,,*7D' 12-48-05-194
b'$GNVTG,269.66,T,,M,15.225,N,28.196,K,A*2B' 12-48-05-220
b'$GNGGA,174744.10,4005.68504,N,08814.39572,W,1,06,1.47,234.6,M,-33.2,M,,*7D' 12-48-05-244
b'$GNVTG,269.31,T,,M,15.024,N,27.824,K,A*25' 12-48-05-270
b'$GNGGA,174744.15,4005.68503,N,08814.39599,W,1,06,1.47,234.6,M,-33.2,M,,*7A' 12-48-05-293
b'$GNVTG,269.96,T,,M,14.908,N,27.610,K,A*27' 12-48-05-321
b'$GNGGA,174744.20,4005.68504,N,08814.39625,W,1,06,1.47,234.6,M,-33.2,M,,*7F' 12-48-05-345
b'$GNVTG,270.99,T,,M,14.815,N,27.437,K,A*2A' 12-48-05-370
b'$GNGGA,174744.25,4005.68504,N,08814.39652,W,1,06,1.47,234.6,M,-33.2,M,,*7A' 12-48-05-394
b'$GNVTG,271.30,T,,M,14.556,N,26.958,K,A*27' 12-48-05-420
b'$GNGGA,174744.30,4005.68505,N,08814.39678,W,1,06,1.47,234.6,M,-33.2,M,,*77' 12-48-05-444
b'$GNVTG,272.39,T,,M,14.489,N,26.834,K,A*25' 12-48-05-470
b'$GNGGA,174744.35,4005.68506,N,08814.39704,W,1,06,1.47,234.6,M,-33.2,M,,*7B' 12-48-05-494
b'$GNVTG,274.18,T,,M,14.296,N,26.477,K,A*23' 12-48-05-520
b'$GNGGA,174744.40,4005.68508,N,08814.39729,W,1,06,1.47,234.6,M,-33.2,M,,*78' 12-48-05-544
b'$GNVTG,276.76,T,,M,13.964,N,25.861,K,A*20' 12-48-05-570
b'$GNGGA,174744.45,4005.68510,N,08814.39753,W,1,06,1.47,234.6,M,-33.2,M,,*79' 12-48-05-593
b'$GNVTG,277.88,T,,M,13.297,N,24.627,K,A*2A' 12-48-05-620
b'$GNGGA,174744.50,4005.68513,N,08814.39776,W,1,06,1.47,234.6,M,-33.2,M,,*79' 12-48-05-643
b'$GNVTG,279.13,T,,M,12.828,N,23.757,K,A*28' 12-48-05-670
b'$GNGGA,174744.55,4005.68516,N,08814.39798,W,1,06,1.47,234.5,M,-33.2,M,,*7A' 12-48-05-694
b'$GNVTG,280.49,T,,M,12.427,N,23.016,K,A*20' 12-48-05-720
b'$GNGGA,174744.60,4005.68519,N,08814.39820,W,1,06,1.47,234.5,M,-33.2,M,,*7F' 12-48-05-744
b'$GNVTG,282.70,T,,M,12.419,N,23.000,K,A*22' 12-48-05-769
b'$GNGGA,174744.65,4005.68524,N,08814.39841,W,1,06,1.47,234.5,M,-33.2,M,,*73' 12-48-05-793
b'$GNGGA,174744.70,4005.68527,N,08814.39862,W,1,06,1.47,234.5,M,-33.2,M,,*75' 12-48-05-820
b'$GNVTG,285.37,T,,M,11.550,N,21.390,K,A*21' 12-48-05-870
b'$GNGGA,174744.75,4005.68532,N,08814.39882,W,1,06,1.47,234.5,M,-33.2,M,,*7A' 12-48-05-893
b'$GNVTG,286.35,T,,M,11.529,N,21.352,K,A*20' 12-48-05-920
b'$GNGGA,174744.80,4005.68537,N,08814.39902,W,1,06,1.47,234.5,M,-33.2,M,,*7C' 12-48-05-942
b'$GNVTG,287.13,T,,M,11.426,N,21.162,K,A*2A' 12-48-05-970
b'$GNGGA,174744.85,4005.68542,N,08814.39922,W,1,06,1.47,234.5,M,-33.2,M,,*79' 12-48-05-992
b'$GNVTG,290.11,T,,M,11.457,N,21.218,K,A*26' 12-48-06-020
b'$GNGGA,174744.90,4005.68548,N,08814.39942,W,1,06,1.47,234.5,M,-33.2,M,,*71' 12-48-06-043
b'$GNVTG,294.31,T,,M,11.522,N,21.339,K,A*21' 12-48-06-073
b'$GNGGA,174744.95,4005.68556,N,08814.39960,W,1,06,1.47,234.5,M,-33.2,M,,*7B' 12-48-06-096
b'$GNVTG,297.25,T,,M,11.496,N,21.291,K,A*2A' 12-48-06-120
b'$GNGGA,174745.00,4005.68564,N,08814.39979,W,1,06,1.47,234.5,M,-33.2,M,,*7F' 12-48-06-143
b'$GNVTG,300.61,T,,M,11.795,N,21.844,K,A*27' 12-48-06-170
b'$GNGGA,174745.05,4005.68573,N,08814.39998,W,1,06,1.47,234.4,M,-33.2,M,,*72' 12-48-06-193
b'$GNVTG,302.89,T,,M,11.937,N,22.108,K,A*27' 12-48-06-221
b'$GNGGA,174745.10,4005.68583,N,08814.40016,W,1,06,1.47,234.4,M,-33.2,M,,*78' 12-48-06-244
b'$GNVTG,305.15,T,,M,11.717,N,21.699,K,A*25' 12-48-06-270
b'$GNGGA,174745.15,4005.68593,N,08814.40033,W,1,06,1.47,234.4,M,-33.2,M,,*7B' 12-48-06-292
b'$GNVTG,306.94,T,,M,11.339,N,21.000,K,A*21' 12-48-06-320
b'$GNGGA,174745.20,4005.68603,N,08814.40049,W,1,06,1.47,234.4,M,-33.2,M,,*7A' 12-48-06-344
b'$GNVTG,308.70,T,,M,11.458,N,21.220,K,A*25' 12-48-06-370
b'$GNGGA,174745.25,4005.68614,N,08814.40065,W,1,06,1.47,234.4,M,-33.2,M,,*77' 12-48-06-393
b'$GNVTG,310.03,T,,M,11.819,N,21.888,K,A*29' 12-48-06-420
b'$GNGGA,174745.30,4005.68625,N,08814.40082,W,1,06,1.47,234.4,M,-33.2,M,,*78' 12-48-06-443
b'$GNVTG,310.46,T,,M,11.948,N,22.128,K,A*2D' 12-48-06-470
b'$GNGGA,174745.35,4005.68636,N,08814.40099,W,1,06,1.47,234.4,M,-33.2,M,,*75' 12-48-06-493
b'$GNVTG,312.83,T,,M,11.879,N,22.000,K,A*2E' 12-48-06-520
b'$GNGGA,174745.40,4005.68648,N,08814.40114,W,1,06,1.47,234.4,M,-33.2,M,,*7A' 12-48-06-543
b'$GNVTG,315.23,T,,M,11.841,N,21.930,K,A*21' 12-48-06-570
b'$GNGGA,174745.45,4005.68660,N,08814.40129,W,1,06,1.47,234.4,M,-33.2,M,,*7B' 12-48-06-594
b'$GNVTG,317.40,T,,M,11.920,N,22.075,K,A*2B' 12-48-06-620
b'$GNGGA,174745.50,4005.68673,N,08814.40143,W,1,06,1.47,234.4,M,-33.2,M,,*71' 12-48-06-643
b'$GNVTG,318.43,T,,M,12.165,N,22.529,K,A*21' 12-48-06-669
b'$GNGGA,174745.55,4005.68686,N,08814.40157,W,1,06,1.47,234.4,M,-33.2,M,,*7B' 12-48-06-692
b'$GNVTG,319.72,T,,M,12.221,N,22.633,K,A*29' 12-48-06-719
b'$GNGGA,174745.60,4005.68700,N,08814.40172,W,1,06,1.47,234.3,M,-33.2,M,,*72' 12-48-06-743
b'$GNVTG,321.99,T,,M,12.238,N,22.665,K,A*2C' 12-48-06-770
b'$GNGGA,174745.65,4005.68714,N,08814.40185,W,1,06,1.47,234.3,M,-33.2,M,,*7A' 12-48-06-793
b'$GNVTG,323.84,T,,M,12.342,N,22.857,K,A*21' 12-48-06-820
b'$GNGGA,174745.70,4005.68728,N,08814.40197,W,1,06,1.47,234.3,M,-33.2,M,,*72' 12-48-06-843
b'$GNVTG,325.45,T,,M,12.307,N,22.792,K,A*2D' 12-48-06-870
b'$GNGGA,174745.75,4005.68742,N,08814.40210,W,1,06,1.47,234.3,M,-33.2,M,,*77' 12-48-06-892
b'$GNVTG,327.37,T,,M,12.282,N,22.746,K,A*2F' 12-48-06-920
b'$GNGGA,174745.80,4005.68757,N,08814.40221,W,1,06,1.47,234.3,M,-33.2,M,,*7B' 12-48-06-943
b'$GNVTG,329.01,T,,M,12.291,N,22.762,K,A*20' 12-48-06-970
b'$GNGGA,174745.85,4005.68772,N,08814.40232,W,1,06,1.47,234.3,M,-33.2,M,,*7B' 12-48-06-993
b'$GNVTG,329.90,T,,M,12.527,N,23.200,K,A*22' 12-48-07-020
b'$GNGGA,174745.90,4005.68788,N,08814.40244,W,1,06,1.47,234.3,M,-33.2,M,,*7B' 12-48-07-042
b'$GNVTG,330.94,T,,M,12.890,N,23.873,K,A*21' 12-48-07-074
b'$GNGGA,174745.95,4005.68804,N,08814.40256,W,1,06,1.47,234.3,M,-33.2,M,,*76' 12-48-07-096
b'$GNVTG,332.38,T,,M,12.783,N,23.674,K,A*21' 12-48-07-120
b'$GNGGA,174746.00,4005.68820,N,08814.40267,W,1,06,1.47,234.2,M,-33.2,M,,*7C' 12-48-07-143
b'$GNVTG,332.80,T,,M,12.615,N,23.363,K,A*2F' 12-48-07-170
b'$GNGGA,174746.05,4005.68836,N,08814.40278,W,1,06,1.47,234.2,M,-33.2,M,,*70' 12-48-07-194
b'$GNVTG,332.92,T,,M,12.927,N,23.941,K,A*28' 12-48-07-220
b'$GNGGA,174746.10,4005.68852,N,08814.40289,W,1,06,1.47,234.2,M,-33.2,M,,*78' 12-48-07-243
b'$GNVTG,333.13,T,,M,13.636,N,25.253,K,A*20' 12-48-07-270
b'$GNGGA,174746.15,4005.68870,N,08814.40301,W,1,06,1.47,234.2,M,-33.2,M,,*7C' 12-48-07-294
b'$GNVTG,334.76,T,,M,14.031,N,25.986,K,A*21' 12-48-07-320
b'$GNGGA,174746.20,4005.68889,N,08814.40312,W,1,06,1.47,234.2,M,-33.2,M,,*7E' 12-48-07-343
b'$GNVTG,336.49,T,,M,14.009,N,25.944,K,A*2A' 12-48-07-370
b'$GNGGA,174746.25,4005.68907,N,08814.40322,W,1,06,1.47,234.2,M,-33.2,M,,*7F' 12-48-07-393
b'$GNVTG,338.07,T,,M,13.806,N,25.568,K,A*2C' 12-48-07-420
b'$GNGGA,174746.30,4005.68924,N,08814.40331,W,1,06,1.47,234.2,M,-33.2,M,,*78' 12-48-07-444
b'$GNVTG,338.99,T,,M,13.951,N,25.837,K,A*2F' 12-48-07-470
b'$GNGGA,174746.35,4005.68943,N,08814.40340,W,1,06,1.47,234.2,M,-33.2,M,,*7A' 12-48-07-493
b'$GNVTG,340.06,T,,M,14.211,N,26.319,K,A*2A' 12-48-07-520
b'$GNGGA,174746.40,4005.68962,N,08814.40348,W,1,06,1.47,234.2,M,-33.2,M,,*73' 12-48-07-543
b'$GNVTG,341.53,T,,M,14.217,N,26.330,K,A*26' 12-48-07-570
b'$GNGGA,174746.45,4005.68981,N,08814.40356,W,1,06,1.47,234.1,M,-33.2,M,,*77' 12-48-07-592
b'$GNVTG,342.93,T,,M,14.253,N,26.396,K,A*25' 12-48-07-619
b'$GNGGA,174746.50,4005.69000,N,08814.40363,W,1,06,1.47,234.1,M,-33.2,M,,*74' 12-48-07-642
b'$GNVTG,344.18,T,,M,14.113,N,26.137,K,A*2E' 12-48-07-670
b'$GNGGA,174746.55,4005.69019,N,08814.40370,W,1,06,1.47,234.1,M,-33.2,M,,*7B' 12-48-07-693
b'$GNVTG,345.28,T,,M,14.333,N,26.544,K,A*2C' 12-48-07-720
b'$GNGGA,174746.60,4005.69039,N,08814.40376,W,1,06,1.47,234.1,M,-33.2,M,,*79' 12-48-07-743
b'$GNVTG,346.52,T,,M,14.461,N,26.782,K,A*2A' 12-48-07-770
b'$GNGGA,174746.65,4005.69058,N,08814.40382,W,1,06,1.47,234.1,M,-33.2,M,,*70' 12-48-07-792
b'$GNVTG,347.98,T,,M,14.568,N,26.979,K,A*2F' 12-48-07-820
b'$GNGGA,174746.70,4005.69078,N,08814.40386,W,1,06,1.47,234.1,M,-33.2,M,,*72' 12-48-07-843
b'$GNVTG,348.97,T,,M,14.469,N,26.797,K,A*21' 12-48-07-870
b'$GNGGA,174746.75,4005.69098,N,08814.40391,W,1,06,1.47,234.1,M,-33.2,M,,*7F' 12-48-07-893
b'$GNVTG,350.36,T,,M,14.377,N,26.627,K,A*21' 12-48-07-920
b'$GNGGA,174746.80,4005.69117,N,08814.40394,W,1,06,1.47,234.1,M,-33.2,M,,*76' 12-48-07-943
b'$GNVTG,352.11,T,,M,14.666,N,27.161,K,A*27' 12-48-07-970
b'$GNGGA,174746.85,4005.69138,N,08814.40397,W,1,06,1.47,234.1,M,-33.2,M,,*7D' 12-48-07-993
b'$GNVTG,353.15,T,,M,14.531,N,26.911,K,A*2D' 12-48-08-020
b'$GNGGA,174746.90,4005.69157,N,08814.40399,W,1,06,1.47,234.0,M,-33.2,M,,*7F' 12-48-08-043
b'$GNVTG,354.81,T,,M,14.416,N,26.699,K,A*2C' 12-48-08-073
b'$GNGGA,174746.95,4005.69177,N,08814.40401,W,1,06,1.47,234.0,M,-33.2,M,,*7E' 12-48-08-097
b'$GNVTG,356.37,T,,M,14.517,N,26.885,K,A*20' 12-48-08-120
b'$GNGGA,174747.00,4005.69197,N,08814.40401,W,1,06,1.47,234.0,M,-33.2,M,,*7D' 12-48-08-143
b'$GNVTG,357.28,T,,M,14.321,N,26.522,K,A*2C' 12-48-08-171
b'$GNGGA,174747.05,4005.69216,N,08814.40402,W,1,06,1.47,234.0,M,-33.2,M,,*71' 12-48-08-194
b'$GNVTG,358.12,T,,M,14.280,N,26.447,K,A*22' 12-48-08-221
b'$GNGGA,174747.10,4005.69236,N,08814.40402,W,1,06,1.47,234.0,M,-33.2,M,,*77' 12-48-08-243
b'$GNVTG,359.41,T,,M,14.374,N,26.620,K,A*2C' 12-48-08-271
b'$GNGGA,174747.15,4005.69255,N,08814.40402,W,1,06,1.47,234.0,M,-33.2,M,,*77' 12-48-08-294
b'$GNVTG,0.92,T,,M,14.351,N,26.579,K,A*25' 12-48-08-321
b'$GNGGA,174747.20,4005.69275,N,08814.40400,W,1,06,1.47,234.0,M,-33.2,M,,*71' 12-48-08-345
b'$GNVTG,2.56,T,,M,14.284,N,26.454,K,A*28' 12-48-08-370
b'$GNGGA,174747.25,4005.69294,N,08814.40398,W,1,06,1.47,234.0,M,-33.2,M,,*7D' 12-48-08-393
b'$GNVTG,4.57,T,,M,14.332,N,26.543,K,A*24' 12-48-08-421
b'$GNGGA,174747.30,4005.69314,N,08814.40394,W,1,06,1.47,234.0,M,-33.2,M,,*7C' 12-48-08-444
b'$GNVTG,5.34,T,,M,14.271,N,26.429,K,A*2B' 12-48-08-470
b'$GNGGA,174747.35,4005.69333,N,08814.40391,W,1,06,1.47,234.0,M,-33.2,M,,*79' 12-48-08-493
b'$GNVTG,5.79,T,,M,14.232,N,26.359,K,A*25' 12-48-08-521
b'$GNGGA,174747.40,4005.69353,N,08814.40388,W,1,06,1.47,234.0,M,-33.2,M,,*75' 12-48-08-543
b'$GNVTG,6.92,T,,M,14.082,N,26.079,K,A*2B' 12-48-08-570
b'$GNGGA,174747.45,4005.69372,N,08814.40384,W,1,06,1.47,234.0,M,-33.2,M,,*7F' 12-48-08-593
b'$GNVTG,8.44,T,,M,13.841,N,25.634,K,A*22' 12-48-08-620
b'$GNGGA,174747.50,4005.69390,N,08814.40379,W,1,06,1.47,233.9,M,-33.2,M,,*7B' 12-48-08-643
b'$GNVTG,9.68,T,,M,13.676,N,25.327,K,A*20' 12-48-08-670
b'$GNGGA,174747.55,4005.69408,N,08814.40374,W,1,06,1.47,233.9,M,-33.2,M,,*75' 12-48-08-693
b'$GNVTG,10.93,T,,M,13.486,N,24.976,K,A*1E' 12-48-08-720
b'$GNGGA,174747.60,4005.69426,N,08814.40369,W,1,06,1.47,234.0,M,-33.2,M,,*7D' 12-48-08-743
b'$GNVTG,12.11,T,,M,13.293,N,24.618,K,A*13' 12-48-08-770
b'$GNGGA,174747.65,4005.69444,N,08814.40363,W,1,06,1.47,233.9,M,-33.2,M,,*78' 12-48-08-793
b'$GNVTG,12.84,T,,M,13.074,N,24.214,K,A*1C' 12-48-08-820
b'$GNGGA,174747.70,4005.69461,N,08814.40357,W,1,06,1.47,233.9,M,-33.2,M,,*7C' 12-48-08-843
b'$GNVTG,13.93,T,,M,12.882,N,23.858,K,A*1E' 12-48-08-870
b'$GNGGA,174747.75,4005.69477,N,08814.40351,W,1,06,1.47,233.9,M,-33.2,M,,*78' 12-48-08-894
b'$GNVTG,15.10,T,,M,12.579,N,23.296,K,A*12' 12-48-08-920
b'$GNGGA,174747.80,4005.69493,N,08814.40344,W,1,06,1.47,233.9,M,-33.2,M,,*7C' 12-48-08-943
b'$GNVTG,16.17,T,,M,12.289,N,22.759,K,A*19' 12-48-08-970
b'$GNGGA,174747.85,4005.69509,N,08814.40337,W,1,06,1.47,233.9,M,-33.2,M,,*7F' 12-48-08-994
b'$GNVTG,17.24,T,,M,12.009,N,22.240,K,A*1F' 12-48-09-020
b'$GNGGA,174747.90,4005.69524,N,08814.40329,W,1,06,1.47,233.9,M,-33.2,M,,*7B' 12-48-09-043
b'$GNVTG,17.98,T,,M,11.746,N,21.754,K,A*14' 12-48-09-074
b'$GNGGA,174747.95,4005.69539,N,08814.40322,W,1,06,1.47,233.9,M,-33.2,M,,*79' 12-48-09-098
b'$GNVTG,19.58,T,,M,11.415,N,21.140,K,A*10' 12-48-09-120
b'$GNGGA,174748.00,4005.69554,N,08814.40315,W,1,06,1.47,233.9,M,-33.2,M,,*75' 12-48-09-143
b'$GNVTG,20.42,T,,M,11.133,N,20.619,K,A*1A' 12-48-09-171
b'$GNGGA,174748.05,4005.69567,N,08814.40307,W,1,06,1.47,233.9,M,-33.2,M,,*73' 12-48-09-193
b'$GNVTG,21.45,T,,M,10.963,N,20.303,K,A*1E' 12-48-09-221
b'$GNGGA,174748.10,4005.69581,N,08814.40299,W,1,06,1.47,233.9,M,-33.2,M,,*79' 12-48-09-244
b'$GNVTG,22.30,T,,M,10.716,N,19.846,K,A*13' 12-48-09-270
b'$GNGGA,174748.15,4005.69595,N,08814.40291,W,1,06,1.47,233.9,M,-33.2,M,,*71' 12-48-09-293
b'$GNVTG,23.15,T,,M,10.398,N,19.256,K,A*1C' 12-48-09-321
b'$GNGGA,174748.20,4005.69607,N,08814.40283,W,1,06,1.47,233.9,M,-33.2,M,,*7C' 12-48-09-345
b'$GNVTG,24.17,T,,M,10.115,N,18.734,K,A*1E' 12-48-09-370
b'$GNGGA,174748.25,4005.69620,N,08814.40275,W,1,06,1.47,233.9,M,-33.2,M,,*75' 12-48-09-393
b'$GNVTG,25.51,T,,M,9.869,N,18.278,K,A*2A' 12-48-09-420
b'$GNGGA,174748.30,4005.69632,N,08814.40267,W,1,06,1.47,233.9,M,-33.2,M,,*71' 12-48-09-442
b'$GNGGA,174748.35,4005.69643,N,08814.40259,W,1,06,1.47,233.9,M,-33.2,M,,*7F' 12-48-09-472
b'$GNVTG,26.89,T,,M,9.407,N,17.422,K,A*2E' 12-48-09-520
b'$GNGGA,174748.40,4005.69655,N,08814.40250,W,1,06,1.47,233.9,M,-33.2,M,,*73' 12-48-09-543
b'$GNVTG,28.11,T,,M,9.108,N,16.869,K,A*29' 12-48-09-570
b'$GNGGA,174748.45,4005.69665,N,08814.40242,W,1,06,1.47,233.9,M,-33.2,M,,*76' 12-48-09-593
b'$GNVTG,28.95,T,,M,8.941,N,16.559,K,A*2F' 12-48-09-620
b'$GNGGA,174748.50,4005.69676,N,08814.40234,W,1,06,1.47,233.9,M,-33.2,M,,*71' 12-48-09-643
b'$GNVTG,29.78,T,,M,8.845,N,16.381,K,A*2B' 12-48-09-670
b'$GNGGA,174748.55,4005.69686,N,08814.40225,W,1,06,1.47,233.9,M,-33.2,M,,*7B' 12-48-09-693
b'$GNVTG,30.38,T,,M,9.019,N,16.704,K,A*2E' 12-48-09-720
b'$GNGGA,174748.60,4005.69697,N,08814.40216,W,1,06,1.47,233.9,M,-33.2,M,,*7D' 12-48-09-743
b'$GNVTG,31.22,T,,M,8.850,N,16.391,K,A*28' 12-48-09-770
b'$GNGGA,174748.65,4005.69707,N,08814.40208,W,1,06,1.47,233.9,M,-33.2,M,,*7F' 12-48-09-793
b'$GNVTG,32.26,T,,M,8.841,N,16.374,K,A*24' 12-48-09-820
b'$GNGGA,174748.70,4005.69717,N,08814.40198,W,1,06,1.47,233.9,M,-33.2,M,,*70' 12-48-09-843
b'$GNVTG,31.90,T,,M,8.842,N,16.374,K,A*29' 12-48-09-870
b'$GNGGA,174748.75,4005.69728,N,08814.40190,W,1,06,1.47,233.8,M,-33.2,M,,*70' 12-48-09-893
b'$GNVTG,29.39,T,,M,8.920,N,16.520,K,A*21' 12-48-09-920
b'$GNGGA,174748.80,4005.69739,N,08814.40183,W,1,06,1.47,233.8,M,-33.2,M,,*78' 12-48-09-943
b'$GNVTG,26.32,T,,M,9.008,N,16.683,K,A*2D' 12-48-09-970
b'$GNGGA,174748.85,4005.69750,N,08814.40177,W,1,06,1.47,233.8,M,-33.2,M,,*79' 12-48-09-993
b'$GNVTG,22.91,T,,M,9.145,N,16.936,K,A*29' 12-48-10-020
b'$GNGGA,174748.90,4005.69762,N,08814.40171,W,1,06,1.47,233.8,M,-33.2,M,,*7A' 12-48-10-043
b'$GNVTG,19.50,T,,M,9.146,N,16.938,K,A*21' 12-48-10-074
b'$GNGGA,174748.95,4005.69775,N,08814.40167,W,1,06,1.47,233.8,M,-33.2,M,,*7E' 12-48-10-097
b'$GNVTG,16.26,T,,M,9.205,N,17.048,K,A*24' 12-48-10-120
b'$GNGGA,174749.00,4005.69787,N,08814.40163,W,1,06,1.47,233.8,M,-33.2,M,,*7A' 12-48-10-143
b'$GNVTG,15.14,T,,M,9.264,N,17.156,K,A*2F' 12-48-10-170
b'$GNGGA,174749.05,4005.69800,N,08814.40158,W,1,06,1.47,233.8,M,-33.2,M,,*77' 12-48-10-193
b'$GNVTG,14.18,T,,M,9.384,N,17.379,K,A*22' 12-48-10-220
b'$GNGGA,174749.10,4005.69812,N,08814.40154,W,1,06,1.47,233.8,M,-33.2,M,,*7C' 12-48-10-243
b'$GNVTG,13.05,T,,M,9.767,N,18.089,K,A*23' 12-48-10-270
b'$GNGGA,174749.15,4005.69826,N,08814.40151,W,1,06,1.47,233.8,M,-33.2,M,,*7B' 12-48-10-293
b'$GNVTG,11.41,T,,M,9.991,N,18.503,K,A*21' 12-48-10-319
b'$GNGGA,174749.20,4005.69840,N,08814.40148,W,1,06,1.47,233.8,M,-33.2,M,,*75' 12-48-10-342
b'$GNVTG,9.37,T,,M,10.120,N,18.743,K,A*25' 12-48-10-370
b'$GNGGA,174749.25,4005.69854,N,08814.40145,W,1,06,1.47,233.8,M,-33.2,M,,*78' 12-48-10-393
b'$GNVTG,7.20,T,,M,10.056,N,18.624,K,A*2D' 12-48-10-420
b'$GNGGA,174749.30,4005.69867,N,08814.40144,W,1,06,1.47,233.8,M,-33.2,M,,*7D' 12-48-10-443
b'$GNVTG,5.14,T,,M,10.294,N,19.064,K,A*27' 12-48-10-470
b'$GNGGA,174749.35,4005.69882,N,08814.40142,W,1,06,1.47,233.8,M,-33.2,M,,*75' 12-48-10-493
b'$GNVTG,3.64,T,,M,10.688,N,19.794,K,A*27' 12-48-10-520
b'$GNGGA,174749.40,4005.69897,N,08814.40141,W,1,06,1.47,233.8,M,-33.2,M,,*70' 12-48-10-543
b'$GNVTG,2.77,T,,M,10.953,N,20.286,K,A*21' 12-48-10-570
b'$GNGGA,174749.45,4005.69912,N,08814.40141,W,1,06,1.47,233.8,M,-33.2,M,,*79' 12-48-10-593
b'$GNVTG,0.93,T,,M,11.208,N,20.757,K,A*24' 12-48-10-620
b'$GNGGA,174749.50,4005.69928,N,08814.40141,W,1,06,1.47,233.8,M,-33.2,M,,*74' 12-48-10-643
b'$GNVTG,358.91,T,,M,11.421,N,21.151,K,A*24' 12-48-10-670
b'$GNGGA,174749.55,4005.69944,N,08814.40142,W,1,06,1.47,233.8,M,-33.2,M,,*78' 12-48-10-693
b'$GNVTG,355.42,T,,M,11.602,N,21.487,K,A*2A' 12-48-10-720
b'$GNGGA,174749.60,4005.69960,N,08814.40145,W,1,06,1.47,233.8,M,-33.2,M,,*7F' 12-48-10-743
b'$GNVTG,352.28,T,,M,11.903,N,22.045,K,A*26' 12-48-10-770
b'$GNGGA,174749.65,4005.69977,N,08814.40149,W,1,06,1.47,233.8,M,-33.2,M,,*70' 12-48-10-794
b'$GNVTG,350.84,T,,M,12.160,N,22.520,K,A*2A' 12-48-10-820
b'$GNGGA,174749.70,4005.69993,N,08814.40153,W,1,06,1.47,233.7,M,-33.2,M,,*7A' 12-48-10-843
b'$GNVTG,349.94,T,,M,12.298,N,22.775,K,A*25' 12-48-10-870
b'$GNGGA,174749.75,4005.70010,N,08814.40158,W,1,06,1.47,233.7,M,-33.2,M,,*7E' 12-48-10-893
b'$GNVTG,347.44,T,,M,12.411,N,22.985,K,A*20' 12-48-10-920
b'$GNGGA,174749.80,4005.70027,N,08814.40164,W,1,06,1.47,233.7,M,-33.2,M,,*7F' 12-48-10-944
b'$GNVTG,343.96,T,,M,12.673,N,23.470,K,A*2B' 12-48-10-970
b'$GNGGA,174749.85,4005.70044,N,08814.40172,W,1,06,1.47,233.7,M,-33.2,M,,*78' 12-48-10-993
b'$GNVTG,340.87,T,,M,12.895,N,23.881,K,A*2C' 12-48-11-020
b'$GNGGA,174749.90,4005.70061,N,08814.40180,W,1,06,1.47,233.7,M,-33.2,M,,*76' 12-48-11-043
b'$GNVTG,339.02,T,,M,13.001,N,24.079,K,A*23' 12-48-11-074
b'$GNGGA,174749.95,4005.70078,N,08814.40189,W,1,06,1.47,233.7,M,-33.2,M,,*72' 12-48-11-097
b'$GNVTG,336.86,T,,M,13.148,N,24.350,K,A*24' 12-48-11-120
b'$GNGGA,174750.00,4005.70094,N,08814.40199,W,1,06,1.47,233.7,M,-33.2,M,,*75' 12-48-11-143
b'$GNVTG,336.05,T,,M,13.409,N,24.833,K,A*21' 12-48-11-170
b'$GNGGA,174750.05,4005.70111,N,08814.40210,W,1,06,1.47,233.7,M,-33.2,M,,*7E' 12-48-11-193
b'$GNVTG,335.05,T,,M,13.674,N,25.324,K,A*26' 12-48-11-220
b'$GNGGA,174750.10,4005.70129,N,08814.40221,W,1,06,1.47,233.7,M,-33.2,M,,*73' 12-48-11-242
b'$GNVTG,333.87,T,,M,13.720,N,25.409,K,A*22' 12-48-11-270
b'$GNGGA,174750.15,4005.70146,N,08814.40232,W,1,06,1.47,233.7,M,-33.2,M,,*7D' 12-48-11-293
b'$GNVTG,333.41,T,,M,13.690,N,25.354,K,A*2D' 12-48-11-320
b'$GNGGA,174750.20,4005.70162,N,08814.40243,W,1,06,1.47,233.6,M,-33.2,M,,*7A' 12-48-11-343
b'$GNVTG,333.54,T,,M,13.802,N,25.561,K,A*2C' 12-48-11-370
b'$GNGGA,174750.25,4005.70180,N,08814.40254,W,1,06,1.47,233.6,M,-33.2,M,,*75' 12-48-11-393
b'$GNVTG,334.66,T,,M,13.972,N,25.876,K,A*27' 12-48-11-421
b'$GNGGA,174750.30,4005.70197,N,08814.40264,W,1,06,1.47,233.7,M,-33.2,M,,*75' 12-48-11-444
b'$GNVTG,336.59,T,,M,14.131,N,26.171,K,A*2C' 12-48-11-471
b'$GNGGA,174750.35,4005.70216,N,08814.40274,W,1,06,1.47,233.6,M,-33.2,M,,*7A' 12-48-11-494
b'$GNVTG,338.49,T,,M,14.169,N,26.240,K,A*2F' 12-48-11-520
b'$GNGGA,174750.40,4005.70234,N,08814.40283,W,1,06,1.47,233.6,M,-33.2,M,,*70' 12-48-11-543
b'$GNVTG,339.41,T,,M,14.147,N,26.199,K,A*2D' 12-48-11-570
b'$GNGGA,174750.45,4005.70253,N,08814.40291,W,1,06,1.47,233.6,M,-33.2,M,,*77' 12-48-11-593
b'$GNVTG,340.98,T,,M,14.250,N,26.391,K,A*28' 12-48-11-620
b'$GNGGA,174750.50,4005.70272,N,08814.40299,W,1,06,1.47,233.6,M,-33.2,M,,*78' 12-48-11-643
b'$GNVTG,343.19,T,,M,14.411,N,26.688,K,A*2C' 12-48-11-670
b'$GNGGA,174750.55,4005.70291,N,08814.40305,W,1,06,1.47,233.6,M,-33.2,M,,*74' 12-48-11-693
b'$GNVTG,344.71,T,,M,14.518,N,26.888,K,A*23' 12-48-11-720
b'$GNGGA,174750.60,4005.70311,N,08814.40312,W,1,06,1.47,233.6,M,-33.2,M,,*7D' 12-48-11-743
b'$GNVTG,346.16,T,,M,14.603,N,27.044,K,A*20' 12-48-11-770
b'$GNGGA,174750.65,4005.70330,N,08814.40317,W,1,06,1.47,233.6,M,-33.2,M,,*7E' 12-48-11-794
b'$GNVTG,347.62,T,,M,14.613,N,27.063,K,A*26' 12-48-11-820
b'$GNGGA,174750.70,4005.70350,N,08814.40322,W,1,06,1.47,233.6,M,-33.2,M,,*7A' 12-48-11-843
b'$GNVTG,349.59,T,,M,14.530,N,26.909,K,A*26' 12-48-11-870
b'$GNGGA,174750.75,4005.70370,N,08814.40325,W,1,06,1.47,233.6,M,-33.2,M,,*7A' 12-48-11-893
b'$GNVTG,351.04,T,,M,14.443,N,26.748,K,A*29' 12-48-11-920
b'$GNGGA,174750.80,4005.70389,N,08814.40329,W,1,06,1.47,233.6,M,-33.2,M,,*7A' 12-48-11-943
b'$GNVTG,351.92,T,,M,14.449,N,26.760,K,A*26' 12-48-11-970
b'$GNGGA,174750.85,4005.70409,N,08814.40332,W,1,06,1.47,233.6,M,-33.2,M,,*7A' 12-48-11-993
b'$GNVTG,353.17,T,,M,14.510,N,26.873,K,A*29' 12-48-12-020
b'$GNGGA,174750.90,4005.70429,N,08814.40334,W,1,06,1.47,233.5,M,-33.2,M,,*79' 12-48-12-043
b'$GNVTG,354.80,T,,M,14.528,N,26.907,K,A*29' 12-48-12-074
b'$GNGGA,174750.95,4005.70449,N,08814.40336,W,1,06,1.47,233.5,M,-33.2,M,,*78' 12-48-12-097
b'$GNVTG,356.05,T,,M,14.459,N,26.778,K,A*27' 12-48-12-120
b'$GNGGA,174751.00,4005.70469,N,08814.40337,W,1,06,1.47,233.5,M,-33.2,M,,*76' 12-48-12-143
b'$GNVTG,357.30,T,,M,14.418,N,26.702,K,A*28' 12-48-12-170
b'$GNGGA,174751.05,4005.70489,N,08814.40337,W,1,06,1.47,233.5,M,-33.2,M,,*7D' 12-48-12-194
b'$GNVTG,359.27,T,,M,14.250,N,26.391,K,A*24' 12-48-12-221
b'$GNGGA,174751.10,4005.70508,N,08814.40336,W,1,06,1.47,233.5,M,-33.2,M,,*70' 12-48-12-243
b'$GNVTG,1.92,T,,M,14.370,N,26.614,K,A*2F' 12-48-12-270
b'$GNGGA,174751.15,4005.70528,N,08814.40334,W,1,06,1.47,233.5,M,-33.2,M,,*75' 12-48-12-294
b'$GNVTG,5.01,T,,M,14.483,N,26.823,K,A*20' 12-48-12-321
b'$GNGGA,174751.20,4005.70548,N,08814.40330,W,1,06,1.47,233.5,M,-33.2,M,,*71' 12-48-12-344
b'$GNVTG,7.65,T,,M,14.305,N,26.493,K,A*2E' 12-48-12-370
b'$GNGGA,174751.25,4005.70567,N,08814.40325,W,1,06,1.47,233.5,M,-33.2,M,,*7D' 12-48-12-393
b'$GNVTG,9.67,T,,M,14.162,N,26.229,K,A*26' 12-48-12-420
b'$GNGGA,174751.30,4005.70586,N,08814.40320,W,1,06,1.47,233.5,M,-33.2,M,,*73' 12-48-12-443
b'$GNVTG,11.96,T,,M,14.057,N,26.034,K,A*18' 12-48-12-470
b'$GNGGA,174751.35,4005.70604,N,08814.40313,W,1,06,1.47,233.5,M,-33.2,M,,*7F' 12-48-12-493
b'$GNVTG,14.67,T,,M,14.057,N,26.034,K,A*13' 12-48-12-521
b'$GNGGA,174751.40,4005.70623,N,08814.40305,W,1,06,1.47,233.5,M,-33.2,M,,*7F' 12-48-12-543
b'$GNVTG,16.79,T,,M,14.159,N,26.222,K,A*14' 12-48-12-571
b'$GNGGA,174751.45,4005.70641,N,08814.40296,W,1,06,1.47,233.5,M,-33.2,M,,*75' 12-48-12-594
b'$GNVTG,18.65,T,,M,14.171,N,26.245,K,A*1C' 12-48-12-621
b'$GNGGA,174751.50,4005.70660,N,08814.40287,W,1,06,1.47,233.4,M,-33.2,M,,*73' 12-48-12-643
b'$GNVTG,20.08,T,,M,14.034,N,25.990,K,A*1C' 12-48-12-671
b'$GNGGA,174751.55,4005.70677,N,08814.40278,W,1,06,1.47,233.4,M,-33.2,M,,*70' 12-48-12-694
b'$GNVTG,22.00,T,,M,13.940,N,25.816,K,A*14' 12-48-12-720
b'$GNGGA,174751.60,4005.70695,N,08814.40267,W,1,06,1.47,233.4,M,-33.2,M,,*74' 12-48-12-743
b'$GNVTG,24.59,T,,M,13.836,N,25.625,K,A*10' 12-48-12-770
b'$GNGGA,174751.65,4005.70712,N,08814.40256,W,1,06,1.47,233.4,M,-33.2,M,,*7D' 12-48-12-793
b'$GNVTG,26.82,T,,M,13.785,N,25.529,K,A*1C' 12-48-12-821
b'$GNGGA,174751.70,4005.70728,N,08814.40244,W,1,06,1.47,233.4,M,-33.2,M,,*73' 12-48-12-844
b'$GNVTG,28.56,T,,M,13.752,N,25.469,K,A*14' 12-48-12-870
b'$GNGGA,174751.75,4005.70745,N,08814.40231,W,1,06,1.47,233.4,M,-33.2,M,,*7F' 12-48-12-893
b'$GNVTG,28.78,T,,M,13.900,N,25.743,K,A*1A' 12-48-12-921
b'$GNGGA,174751.80,4005.70762,N,08814.40219,W,1,06,1.47,233.4,M,-33.2,M,,*7A' 12-48-12-945
b'$GNVTG,28.70,T,,M,14.212,N,26.321,K,A*1E' 12-48-12-970
b'$GNGGA,174751.85,4005.70779,N,08814.40207,W,1,06,1.47,233.4,M,-33.2,M,,*7A' 12-48-12-993
b'$GNVTG,27.67,T,,M,14.399,N,26.668,K,A*1D' 12-48-13-020
b'$GNGGA,174751.90,4005.70797,N,08814.40195,W,1,06,1.47,233.4,M,-33.2,M,,*76' 12-48-13-043
b'$GNVTG,25.41,T,,M,14.383,N,26.637,K,A*1A' 12-48-13-075
b'$GNGGA,174751.95,4005.70815,N,08814.40185,W,1,06,1.47,233.4,M,-33.2,M,,*77' 12-48-13-099
b'$GNVTG,22.39,T,,M,14.385,N,26.641,K,A*15' 12-48-13-121
b'$GNGGA,174752.00,4005.70834,N,08814.40176,W,1,06,1.47,233.4,M,-33.2,M,,*77' 12-48-13-143
b'$GNVTG,19.07,T,,M,14.454,N,26.769,K,A*10' 12-48-13-171
b'$GNGGA,174752.05,4005.70853,N,08814.40169,W,1,06,1.47,233.4,M,-33.2,M,,*7D' 12-48-13-193
b'$GNVTG,17.06,T,,M,14.591,N,27.023,K,A*1F' 12-48-13-221
b'$GNGGA,174752.10,4005.70873,N,08814.40163,W,1,06,1.47,233.3,M,-33.2,M,,*76' 12-48-13-244
b'$GNVTG,15.45,T,,M,14.594,N,27.027,K,A*1B' 12-48-13-271
b'$GNGGA,174752.15,4005.70893,N,08814.40156,W,1,06,1.47,233.3,M,-33.2,M,,*7B' 12-48-13-294
b'$GNVTG,14.30,T,,M,14.398,N,26.666,K,A*10' 12-48-13-320
b'$GNGGA,174752.20,4005.70912,N,08814.40151,W,1,06,1.47,233.3,M,-33.2,M,,*72' 12-48-13-344
b'$GNVTG,12.75,T,,M,14.426,N,26.717,K,A*12' 12-48-13-371
b'$GNGGA,174752.25,4005.70931,N,08814.40146,W,1,06,1.47,233.3,M,-33.2,M,,*70' 12-48-13-394
b'$GNVTG,10.16,T,,M,14.578,N,26.998,K,A*16' 12-48-13-421
b'$GNGGA,174752.30,4005.70952,N,08814.40142,W,1,06,1.47,233.3,M,-33.2,M,,*75' 12-48-13-444
b'$GNVTG,8.16,T,,M,14.644,N,27.121,K,A*28' 12-48-13-470
b'$GNGGA,174752.35,4005.70972,N,08814.40140,W,1,06,1.47,233.3,M,-33.2,M,,*70' 12-48-13-493
b'$GNVTG,6.49,T,,M,14.851,N,27.504,K,A*25' 12-48-13-521
b'$GNGGA,174752.40,4005.70993,N,08814.40137,W,1,06,1.47,233.3,M,-33.2,M,,*7D' 12-48-13-544
b'$GNVTG,5.12,T,,M,15.029,N,27.833,K,A*27' 12-48-13-570
b'$GNGGA,174752.45,4005.71014,N,08814.40136,W,1,06,1.47,233.3,M,-33.2,M,,*7E' 12-48-13-594
b'$GNVTG,3.63,T,,M,15.122,N,28.005,K,A*2F' 12-48-13-620
b'$GNGGA,174752.50,4005.71034,N,08814.40135,W,1,06,1.47,233.2,M,-33.2,M,,*7A' 12-48-13-644
b'$GNVTG,0.40,T,,M,15.031,N,27.838,K,A*27' 12-48-13-671
b'$GNGGA,174752.55,4005.71055,N,08814.40137,W,1,06,1.47,233.2,M,-33.2,M,,*7A' 12-48-13-694
b'$GNVTG,357.94,T,,M,15.022,N,27.820,K,A*24' 12-48-13-721
b'$GNGGA,174752.60,4005.71076,N,08814.40138,W,1,06,1.47,233.2,M,-33.2,M,,*72' 12-48-13-744
b'$GNVTG,356.48,T,,M,15.214,N,28.176,K,A*26' 12-48-13-770
b'$GNGGA,174752.65,4005.71097,N,08814.40141,W,1,06,1.47,233.2,M,-33.2,M,,*76' 12-48-13-794
b'$GNVTG,355.28,T,,M,15.050,N,27.872,K,A*23' 12-48-13-821
b'$GNGGA,174752.70,4005.71118,N,08814.40144,W,1,06,1.47,233.2,M,-33.2,M,,*71' 12-48-13-844
b'$GNVTG,354.06,T,,M,14.996,N,27.773,K,A*22' 12-48-13-870
b'$GNGGA,174752.75,4005.71138,N,08814.40148,W,1,06,1.47,233.1,M,-33.2,M,,*79' 12-48-13-894
b'$GNVTG,352.16,T,,M,14.872,N,27.542,K,A*2E' 12-48-13-920
b'$GNGGA,174752.80,4005.71159,N,08814.40153,W,1,06,1.47,233.1,M,-33.2,M,,*7E' 12-48-13-943
b'$GNVTG,349.91,T,,M,14.834,N,27.473,K,A*2A' 12-48-13-971
b'$GNGGA,174752.85,4005.71179,N,08814.40159,W,1,06,1.47,233.1,M,-33.2,M,,*73' 12-48-13-994
b'$GNVTG,346.92,T,,M,14.703,N,27.229,K,A*24' 12-48-14-021
b'$GNGGA,174752.90,4005.71198,N,08814.40167,W,1,06,1.47,233.1,M,-33.2,M,,*75' 12-48-14-044
b'$GNVTG,345.20,T,,M,14.583,N,27.007,K,A*2A' 12-48-14-075
b'$GNGGA,174752.95,4005.71218,N,08814.40174,W,1,06,1.47,233.1,M,-33.2,M,,*79' 12-48-14-098
b'$GNVTG,344.37,T,,M,14.351,N,26.578,K,A*28' 12-48-14-120
b'$GNGGA,174753.00,4005.71237,N,08814.40182,W,1,06,1.47,233.1,M,-33.2,M,,*70' 12-48-14-144
b'$GNVTG,341.95,T,,M,14.275,N,26.437,K,A*28' 12-48-14-171
b'$GNGGA,174753.05,4005.71255,N,08814.40191,W,1,06,1.47,233.1,M,-33.2,M,,*73' 12-48-14-194
b'$GNVTG,338.30,T,,M,14.308,N,26.499,K,A*26' 12-48-14-220
b'$GNGGA,174753.10,4005.71273,N,08814.40202,W,1,06,1.47,233.1,M,-33.2,M,,*7A' 12-48-14-244
b'$GNVTG,335.73,T,,M,14.307,N,26.496,K,A*2C' 12-48-14-271
b'$GNGGA,174753.15,4005.71291,N,08814.40214,W,1,06,1.47,233.1,M,-33.2,M,,*74' 12-48-14-294
b'$GNVTG,334.06,T,,M,14.244,N,26.380,K,A*29' 12-48-14-321
b'$GNGGA,174753.20,4005.71309,N,08814.40226,W,1,06,1.47,233.1,M,-33.2,M,,*73' 12-48-14-344
b'$GNVTG,331.24,T,,M,14.170,N,26.243,K,A*26' 12-48-14-371
b'$GNGGA,174753.25,4005.71325,N,08814.40239,W,1,06,1.47,233.1,M,-33.2,M,,*76' 12-48-14-394
b'$GNVTG,329.13,T,,M,14.263,N,26.415,K,A*2F' 12-48-14-421
b'$GNGGA,174753.30,4005.71342,N,08814.40254,W,1,06,1.47,233.0,M,-33.2,M,,*79' 12-48-14-444
b'$GNVTG,326.43,T,,M,14.260,N,26.409,K,A*2B' 12-48-14-471
b'$GNGGA,174753.35,4005.71358,N,08814.40269,W,1,06,1.47,233.0,M,-33.2,M,,*79' 12-48-14-494
b'$GNVTG,323.27,T,,M,14.220,N,26.335,K,A*20' 12-48-14-520
b'$GNGGA,174753.40,4005.71374,N,08814.40285,W,1,06,1.47,233.1,M,-33.2,M,,*76' 12-48-14-545
b'$GNVTG,322.71,T,,M,14.254,N,26.398,K,A*26' 12-48-14-571
b'$GNGGA,174753.45,4005.71390,N,08814.40301,W,1,06,1.47,233.0,M,-33.2,M,,*75' 12-48-14-594
b'$GNVTG,320.19,T,,M,14.394,N,26.657,K,A*21' 12-48-14-621
b'$GNGGA,174753.50,4005.71405,N,08814.40319,W,1,06,1.47,233.0,M,-33.2,M,,*73' 12-48-14-644
b'$GNVTG,317.42,T,,M,14.512,N,26.876,K,A*2E' 12-48-14-670
b'$GNGGA,174753.55,4005.71419,N,08814.40338,W,1,06,1.47,233.0,M,-33.2,M,,*78' 12-48-14-694
b'$GNVTG,315.43,T,,M,14.538,N,26.924,K,A*23' 12-48-14-720
b'$GNGGA,174753.60,4005.71433,N,08814.40357,W,1,06,1.47,233.0,M,-33.2,M,,*7F' 12-48-14-744
b'$GNVTG,313.41,T,,M,14.537,N,26.923,K,A*2F' 12-48-14-770
b'$GNGGA,174753.65,4005.71447,N,08814.40377,W,1,06,1.47,233.0,M,-33.2,M,,*7B' 12-48-14-794
b'$GNVTG,310.92,T,,M,14.527,N,26.904,K,A*26' 12-48-14-820
b'$GNGGA,174753.70,4005.71459,N,08814.40398,W,1,06,1.47,233.0,M,-33.2,M,,*71' 12-48-14-844
b'$GNVTG,308.44,T,,M,14.698,N,27.222,K,A*2D' 12-48-14-871
b'$GNGGA,174753.75,4005.71472,N,08814.40420,W,1,06,1.47,233.0,M,-33.2,M,,*79' 12-48-14-894
b'$GNVTG,306.04,T,,M,14.844,N,27.492,K,A*25' 12-48-14-921
b'$GNGGA,174753.80,4005.71484,N,08814.40442,W,1,06,1.47,233.0,M,-33.2,M,,*7E' 12-48-14-944
b'$GNVTG,303.64,T,,M,14.821,N,27.449,K,A*23' 12-48-14-970
b'$GNGGA,174753.85,4005.71495,N,08814.40466,W,1,06,1.47,233.0,M,-33.2,M,,*7D' 12-48-14-993
b'$GNVTG,301.30,T,,M,14.923,N,27.638,K,A*27' 12-48-15-020
b'$GNGGA,174753.90,4005.71505,N,08814.40490,W,1,06,1.47,232.9,M,-33.2,M,,*70' 12-48-15-044
b'$GNVTG,298.54,T,,M,15.165,N,28.086,K,A*23' 12-48-15-075
b'$GNGGA,174753.95,4005.71514,N,08814.40515,W,1,06,1.47,232.9,M,-33.2,M,,*79' 12-48-15-098
b'$GNVTG,296.37,T,,M,15.095,N,27.955,K,A*2E' 12-48-15-121
b'$GNGGA,174754.00,4005.71523,N,08814.40540,W,1,06,1.47,232.9,M,-33.2,M,,*76' 12-48-15-143
b'$GNVTG,294.06,T,,M,15.300,N,28.336,K,A*21' 12-48-15-171
b'$GNGGA,174754.05,4005.71531,N,08814.40566,W,1,06,1.47,232.9,M,-33.2,M,,*74' 12-48-15-194
b'$GNVTG,290.41,T,,M,15.505,N,28.715,K,A*20' 12-48-15-234
b'$GNGGA,174754.10,4005.71538,N,08814.40594,W,1,12,0.86,232.9,M,-33.2,M,,*7D' 12-48-15-257
b'$GNVTG,288.42,T,,M,15.694,N,29.066,K,A*23' 12-48-15-279
b'$GNGGA,174754.15,4005.71544,N,08814.40621,W,1,12,0.86,232.9,M,-33.2,M,,*7E' 12-48-15-302
b'$GNVTG,286.60,T,,M,15.818,N,29.295,K,A*29' 12-48-15-325
b'$GNGGA,174754.20,4005.71551,N,08814.40648,W,1,12,0.86,232.9,M,-33.2,M,,*73' 12-48-15-348
b'$GNVTG,283.29,T,,M,15.743,N,29.156,K,A*2C' 12-48-15-383
b'$GNGGA,174754.25,4005.71555,N,08814.40674,W,1,12,0.86,232.9,M,-33.2,M,,*7D' 12-48-15-406
b'$GNVTG,281.45,T,,M,15.973,N,29.581,K,A*27' 12-48-15-428
b'$GNGGA,174754.30,4005.71559,N,08814.40701,W,1,12,0.86,232.9,M,-33.2,M,,*76' 12-48-15-451
b'$GNVTG,279.00,T,,M,16.197,N,29.998,K,A*24' 12-48-15-475
b'$GNGGA,174754.35,4005.71562,N,08814.40729,W,1,12,0.86,232.9,M,-33.2,M,,*71' 12-48-15-498
b'$GNVTG,276.53,T,,M,16.220,N,30.039,K,A*28' 12-48-15-525
b'$GNGGA,174754.40,4005.71565,N,08814.40756,W,1,12,0.86,233.0,M,-33.2,M,,*74' 12-48-15-548
b'$GNVTG,275.63,T,,M,16.202,N,30.007,K,A*25' 12-48-15-575
b'$GNGGA,174754.45,4005.71567,N,08814.40784,W,1,12,0.86,233.0,M,-33.2,M,,*7C' 12-48-15-598
b'$GNVTG,274.63,T,,M,16.660,N,30.855,K,A*2B' 12-48-15-625
b'$GNGGA,174754.50,4005.71569,N,08814.40813,W,1,12,0.86,233.0,M,-33.2,M,,*77' 12-48-15-648
b'$GNVTG,273.16,T,,M,17.212,N,31.876,K,A*2E' 12-48-15-674
b'$GNGGA,174754.55,4005.71570,N,08814.40843,W,1,12,0.86,233.1,M,-33.2,M,,*7E' 12-48-15-697
b'$GNVTG,272.32,T,,M,17.465,N,32.345,K,A*27' 12-48-15-724
b'$GNGGA,174754.60,4005.71571,N,08814.40873,W,1,12,0.86,233.1,M,-33.2,M,,*7A' 12-48-15-747
b'$GNVTG,270.38,T,,M,17.687,N,32.755,K,A*24' 12-48-15-775
b'$GNGGA,174754.65,4005.71571,N,08814.40904,W,1,12,0.86,233.1,M,-33.2,M,,*7E' 12-48-15-798
b'$GNVTG,268.19,T,,M,17.849,N,33.056,K,A*27' 12-48-15-825
b'$GNGGA,174754.70,4005.71570,N,08814.40935,W,1,12,0.86,233.1,M,-33.2,M,,*79' 12-48-15-849
b'$GNVTG,267.00,T,,M,18.308,N,33.906,K,A*2D' 12-48-15-875
b'$GNGGA,174754.75,4005.71569,N,08814.40967,W,1,12,0.86,233.1,M,-33.2,M,,*73' 12-48-15-898
b'$GNVTG,266.77,T,,M,18.617,N,34.479,K,A*25' 12-48-15-925
b'$GNGGA,174754.80,4005.71567,N,08814.41000,W,1,12,0.86,233.1,M,-33.2,M,,*7E' 12-48-15-948
b'$GNVTG,265.43,T,,M,18.889,N,34.982,K,A*21' 12-48-15-975
b'$GNGGA,174754.85,4005.71565,N,08814.41033,W,1,12,0.86,233.1,M,-33.2,M,,*79' 12-48-15-998
b'$GNVTG,263.69,T,,M,19.335,N,35.809,K,A*21' 12-48-16-024
b'$GNGGA,174754.90,4005.71561,N,08814.41067,W,1,12,0.86,233.1,M,-33.2,M,,*78' 12-48-16-048
b'$GNVTG,262.45,T,,M,19.828,N,36.722,K,A*2C' 12-48-16-078
b'$GNGGA,174754.95,4005.71557,N,08814.41102,W,1,12,0.86,233.1,M,-33.2,M,,*7A' 12-48-16-101
b'$GNVTG,261.49,T,,M,20.059,N,37.150,K,A*25' 12-48-16-125
b'$GNGGA,174755.00,4005.71553,N,08814.41137,W,1,12,0.86,233.1,M,-33.2,M,,*75' 12-48-16-149
b'$GNVTG,260.10,T,,M,20.409,N,37.797,K,A*24' 12-48-16-175
b'$GNGGA,174755.05,4005.71548,N,08814.41172,W,1,12,0.86,233.1,M,-33.2,M,,*7B' 12-48-16-198
b'$GNVTG,259.05,T,,M,21.127,N,39.127,K,A*21' 12-48-16-226
b'$GNGGA,174755.10,4005.71542,N,08814.41209,W,1,12,0.86,233.2,M,-33.2,M,,*79' 12-48-16-249
b'$GNVTG,259.23,T,,M,21.626,N,40.052,K,A*2E' 12-48-16-276
b'$GNGGA,174755.15,4005.71536,N,08814.41247,W,1,12,0.86,233.2,M,-33.2,M,,*75' 12-48-16-299
b'$GNVTG,259.39,T,,M,22.199,N,41.112,K,A*21' 12-48-16-326
b'$GNGGA,174755.20,4005.71530,N,08814.41286,W,1,12,0.86,233.2,M,-33.2,M,,*78' 12-48-16-349
b'$GNVTG,259.13,T,,M,22.798,N,42.221,K,A*2E' 12-48-16-376
b'$GNGGA,174755.25,4005.71524,N,08814.41326,W,1,12,0.86,233.2,M,-33.2,M,,*73' 12-48-16-399
b'$GNVTG,259.53,T,,M,23.303,N,43.157,K,A*2E' 12-48-16-426
b'$GNGGA,174755.30,4005.71518,N,08814.41367,W,1,12,0.86,233.2,M,-33.2,M,,*7D' 12-48-16-449
b'$GNVTG,260.07,T,,M,23.909,N,44.279,K,A*2D' 12-48-16-476
b'$GNGGA,174755.35,4005.71512,N,08814.41409,W,1,12,0.86,233.2,M,-33.2,M,,*7D' 12-48-16-501
b'$GNVTG,260.54,T,,M,24.378,N,45.147,K,A*2F' 12-48-16-526
b'$GNGGA,174755.40,4005.71507,N,08814.41452,W,1,12,0.86,233.2,M,-33.2,M,,*75' 12-48-16-549
b'$GNVTG,261.35,T,,M,24.956,N,46.219,K,A*24' 12-48-16-575
b'$GNGGA,174755.45,4005.71501,N,08814.41496,W,1,12,0.86,233.2,M,-33.2,M,,*7E' 12-48-16-598
b'$GNVTG,262.56,T,,M,25.455,N,47.142,K,A*21' 12-48-16-625
b'$GNGGA,174755.50,4005.71497,N,08814.41542,W,1,12,0.86,233.2,M,-33.2,M,,*7C' 12-48-16-648
b'$GNVTG,263.24,T,,M,25.985,N,48.124,K,A*2A' 12-48-16-676
b'$GNGGA,174755.55,4005.71493,N,08814.41588,W,1,12,0.86,233.2,M,-33.2,M,,*7B' 12-48-16-699
b'$GNVTG,263.95,T,,M,26.542,N,49.155,K,A*23' 12-48-16-726
b'$GNGGA,174755.60,4005.71489,N,08814.41635,W,1,12,0.86,233.2,M,-33.2,M,,*73' 12-48-16-749
b'$GNVTG,264.72,T,,M,27.022,N,50.044,K,A*26' 12-48-16-776
b'$GNGGA,174755.65,4005.71485,N,08814.41683,W,1,12,0.86,233.2,M,-33.2,M,,*77' 12-48-16-799
b'$GNVTG,265.50,T,,M,27.590,N,51.097,K,A*24' 12-48-16-826
b'$GNGGA,174755.70,4005.71482,N,08814.41733,W,1,12,0.86,233.2,M,-33.2,M,,*7E' 12-48-16-849
b'$GNVTG,266.05,T,,M,28.162,N,52.156,K,A*2E' 12-48-16-876
b'$GNGGA,174755.75,4005.71479,N,08814.41783,W,1,12,0.86,233.2,M,-33.2,M,,*74' 12-48-16-899
b'$GNVTG,266.82,T,,M,28.683,N,53.122,K,A*2B' 12-48-16-926
b'$GNGGA,174755.80,4005.71477,N,08814.41835,W,1,12,0.86,233.2,M,-33.2,M,,*72' 12-48-16-949
b'$GNVTG,267.41,T,,M,29.034,N,53.771,K,A*2E' 12-48-16-976
b'$GNGGA,174755.85,4005.71475,N,08814.41887,W,1,12,0.86,233.2,M,-33.2,M,,*7C' 12-48-16-999
b'$GNVTG,267.94,T,,M,29.482,N,54.601,K,A*2E' 12-48-17-026
b'$GNGGA,174755.90,4005.71474,N,08814.41940,W,1,12,0.86,233.2,M,-33.2,M,,*73' 12-48-17-049
b'$GNVTG,267.92,T,,M,29.850,N,55.282,K,A*25' 12-48-17-079
b'$GNGGA,174755.95,4005.71472,N,08814.41994,W,1,12,0.86,233.2,M,-33.2,M,,*79' 12-48-17-102
b'$GNVTG,267.98,T,,M,29.978,N,55.519,K,A*21' 12-48-17-126
b'$GNGGA,174756.00,4005.71471,N,08814.42047,W,1,12,0.86,233.2,M,-33.2,M,,*71' 12-48-17-149
b'$GNVTG,268.40,T,,M,29.759,N,55.114,K,A*2F' 12-48-17-177
b'$GNGGA,174756.05,4005.71470,N,08814.42100,W,1,12,0.86,233.2,M,-33.2,M,,*77' 12-48-17-200
b'$GNVTG,268.93,T,,M,29.108,N,53.908,K,A*20' 12-48-17-226
b'$GNGGA,174756.10,4005.71469,N,08814.42152,W,1,12,0.86,233.2,M,-33.2,M,,*7C' 12-48-17-249
b'$GNVTG,269.28,T,,M,28.426,N,52.644,K,A*2F' 12-48-17-277
b'$GNGGA,174756.15,4005.71469,N,08814.42202,W,1,12,0.86,233.1,M,-33.2,M,,*7C' 12-48-17-300
b'$GNVTG,269.64,T,,M,28.192,N,52.211,K,A*29' 12-48-17-327
b'$GNGGA,174756.20,4005.71468,N,08814.42252,W,1,12,0.86,233.2,M,-33.2,M,,*7D' 12-48-17-350
b'$GNVTG,269.44,T,,M,28.063,N,51.973,K,A*28' 12-48-17-376
b'$GNGGA,174756.25,4005.71468,N,08814.42302,W,1,12,0.86,233.1,M,-33.2,M,,*7F' 12-48-17-399
b'$GNVTG,269.24,T,,M,27.866,N,51.608,K,A*2F' 12-48-17-426
