hello
CAN logging
Accel logging
Steering logging
Cooling loop logging
b'$GNVTG,,,,,,,,,N*2E' 10-51-58-147
b'$GNGGA,,,,,,0,00,99.99,,,,,,*56' 10-51-58-169
b'$GNVTG,,,,,,,,,N*2E' 10-51-58-190
b'$GNGGA,,,,,,0,00,99.99,,,,,,*56' 10-51-58-212
b'$GNVTG,,,,,,,,,N*2E' 10-51-58-235
b'$GNGGA,,,,,,0,00,99.99,,,,,,*56' 10-51-58-258
b'$GNVTG,,,,,,,,,N*2E' 10-51-58-280
b'$GNGGA,,,,,,0,00,99.99,,,,,,*56' 10-51-58-303
b'$GNVTG,,,,,,,,,N*2E' 10-51-58-326
b'$GNGGA,,,,,,0,00,99.99,,,,,,*56' 10-51-58-348
b'$GNVTG,,,,,,,,,N*2E' 10-51-58-370
b'$GNGGA,,,,,,0,00,99.99,,,,,,*56' 10-51-58-402
b'$GNVTG,,,,,,,,,N*2E' 10-51-58-423
b'$GNGGA,,,,,,0,00,99.99,,,,,,*56' 10-51-58-446
b'$GNVTG,,,,,,,,,N*2E' 10-51-58-467
b'$GNGGA,,,,,,0,00,99.99,,,,,,*56' 10-51-58-489
b'$GNVTG,,,,,,,,,N*2E' 10-51-58-511
b'$GNGGA,,,,,,0,00,99.99,,,,,,*56' 10-51-58-532
b'$GNVTG,,,,,,,,,N*2E' 10-51-58-554
b'$GNGGA,,,,,,0,00,99.99,,,,,,*56' 10-51-58-575
b'$GNVTG,,,,,,,,,N*2E' 10-51-58-597
b'$GNGGA,,,,,,0,00,99.99,,,,,,*56' 10-51-58-619
b'$GNVTG,,,,,,,,,N*2E' 10-51-58-641
b'$GNGGA,,,,,,0,00,99.99,,,,,,*56' 10-51-58-663
b'$GNVTG,,,,,,,,,N*2E' 10-51-58-685
b'$GNGGA,,,,,,0,00,99.99,,,,,,*56' 10-51-58-707
b'$GNVTG,,,,,,,,,N*2E' 10-51-58-731
b'$GNGGA,,,,,,0,00,99.99,,,,,,*56' 10-51-58-758
b'$GNVTG,,,,,,,,,N*2E' 10-51-58-782
b'$GNGGA,,,,,,0,00,99.99,,,,,,*56' 10-51-58-806
b'$GNVTG,,,,,,,,,N*2E' 10-51-58-830
b'$GNGGA,,,,,,0,00,99.99,,,,,,*56' 10-51-58-853
b'$GNVTG,,,,,,,,,N*2E' 10-51-58-878
b'$GNGGA,,,,,,0,00,99.99,,,,,,*56' 10-51-58-902
b'$GNVTG,,,,,,,,,N*2E' 10-51-58-925
b'$GNGGA,,,,,,0,00,99.99,,,,,,*56' 10-51-58-949
b'$GNVTG,,,,,,,,,N*2E' 10-51-58-972
b'$GNGGA,,,,,,0,00,99.99,,,,,,*56' 10-51-58-995
b'$GNVTG,,,,,,,,,N*2E' 10-51-59-018
b'$GNGGA,,,,,,0,00,99.99,,,,,,*56' 10-51-59-040
b'$GNVTG,,,,,,,,,N*2E' 10-51-59-062
b'$GNGGA,,,,,,0,00,99.99,,,,,,*56' 10-51-59-083
b'$GNVTG,,,,,,,,,N*2E' 10-51-59-105
b'$GNGGA,,,,,,0,00,99.99,,,,,,*56' 10-51-59-126
b'$GNVTG,,,,,,,,,N*2E' 10-51-59-148
b'$GNGGA,,,,,,0,00,99.99,,,,,,*56' 10-51-59-169
b'$GNVTG,,,,,,,,,N*2E' 10-51-59-190
b'$GNGGA,,,,,,0,00,99.99,,,,,,*56' 10-51-59-212
b'$GNVTG,,,,,,,,,N*2E' 10-51-59-234
b'$GNGGA,,,,,,0,00,99.99,,,,,,*56' 10-51-59-255
b'$GNVTG,,,,,,,,,N*2E' 10-51-59-276
b'$GNGGA,,,,,,0,00,99.99,,,,,,*56' 10-51-59-299
b'$GNVTG,,,,,,,,,N*2E' 10-51-59-323
b'$GNGGA,,,,,,0,00,99.99,,,,,,*56' 10-51-59-347
b'$GNVTG,,,,,,,,,N*2E' 10-51-59-371
b'$GNGGA,,,,,,0,00,99.99,,,,,,*56' 10-51-59-396
b'$GNVTG,,,,,,,,,N*2E' 10-51-59-419
b'$GNGGA,,,,,,0,00,99.99,,,,,,*56' 10-51-59-443
b'$GNVTG,,,,,,,,,N*2E' 10-51-59-466
b'$GNGGA,,,,,,0,00,99.99,,,,,,*56' 10-51-59-489
b'$GNVTG,,,,,,,,,N*2E' 10-51-59-513
b'$GNGGA,,,,,,0,00,99.99,,,,,,*56' 10-51-59-537
b'$GNVTG,,,,,,,,,N*2E' 10-51-59-558
b'$GNGGA,,,,,,0,00,99.99,,,,,,*56' 10-51-59-580
b'$GNVTG,,,,,,,,,N*2E' 10-51-59-601
b'$GNGGA,,,,,,0,00,99.99,,,,,,*56' 10-51-59-622
b'$GNVTG,,,,,,,,,N*2E' 10-51-59-644
b'$GNGGA,,,,,,0,00,99.99,,,,,,*56' 10-51-59-665
b'$GNVTG,,,,,,,,,N*2E' 10-51-59-686
b'$GNGGA,,,,,,0,00,99.99,,,,,,*56' 10-51-59-708
b'$GNVTG,,,,,,,,,N*2E' 10-51-59-729
b'$GNGGA,,,,,,0,00,99.99,,,,,,*56' 10-51-59-751
b'$GNVTG,,,,,,,,,N*2E' 10-51-59-772
b'$GNGGA,,,,,,0,00,99.99,,,,,,*56' 10-51-59-794
b'$GNVTG,,,,,,,,,N*2E' 10-51-59-818
b'$GNGGA,,,,,,0,00,99.99,,,,,,*56' 10-51-59-840
b'$GNVTG,,,,,,,,,N*2E' 10-51-59-861
b'$GNGGA,155132.49,,,,,0,00,99.99,,,,,,*74' 10-51-59-883
b'$GNVTG,,,,,,,,,N*2E' 10-51-59-904
b'$GNGGA,155132.54,,,,,0,00,99.99,,,,,,*78' 10-51-59-926
b'$GNVTG,,,,,,,,,N*2E' 10-51-59-948
b'$GNGGA,155132.59,,,,,0,00,99.99,,,,,,*75' 10-51-59-970
b'$GNVTG,,,,,,,,,N*2E' 10-51-59-993
b'$GNGGA,155132.64,,,,,0,00,99.99,,,,,,*7B' 10-52-00-015
b'$GNVTG,,,,,,,,,N*2E' 10-52-00-036
b'$GNGGA,155132.69,,,,,0,00,99.99,,,,,,*76' 10-52-00-058
b'$GNVTG,,,,,,,,,N*2E' 10-52-00-079
b'$GNGGA,155132.75,,,,,0,00,99.99,,,,,,*7B' 10-52-00-100
b'$GNVTG,,,,,,,,,N*2E' 10-52-00-121
b'$GNGGA,155132.80,,,,,0,00,99.99,,,,,,*71' 10-52-00-143
b'$GNVTG,,,,,,,,,N*2E' 10-52-00-164
b'$GNGGA,155132.85,,,,,0,00,99.99,,,,,,*74' 10-52-00-187
b'$GNVTG,,,,,,,,,N*2E' 10-52-00-208
b'$GNGGA,155132.90,,,,,0,00,99.99,,,,,,*70' 10-52-00-230
b'$GNVTG,,,,,,,,,N*2E' 10-52-00-250
b'$GNGGA,155132.95,,,,,0,00,99.99,,,,,,*75' 10-52-00-272
b'$GNVTG,,,,,,,,,N*2E' 10-52-00-293
b'$GNGGA,155133.00,,,,,0,00,99.99,,,,,,*78' 10-52-00-314
b'$GNVTG,,,,,,,,,N*2E' 10-52-00-335
b'$GNGGA,155133.05,,,,,0,00,99.99,,,,,,*7D' 10-52-00-357
b'$GNVTG,,,,,,,,,N*2E' 10-52-00-378
b'$GNGGA,155133.10,,,,,0,00,99.99,,,,,,*79' 10-52-00-400
b'$GNVTG,,,,,,,,,N*2E' 10-52-00-422
b'$GNGGA,155133.15,,,,,0,00,99.99,,,,,,*7C' 10-52-00-443
b'$GNVTG,,,,,,,,,N*2E' 10-52-00-464
b'$GNGGA,155133.20,,,,,0,00,99.99,,,,,,*7A' 10-52-00-485
b'$GNVTG,,,,,,,,,N*2E' 10-52-00-506
b'$GNGGA,155133.25,,,,,0,00,99.99,,,,,,*7F' 10-52-00-528
b'$GNVTG,,,,,,,,,N*2E' 10-52-00-549
b'$GNGGA,155133.30,,,,,0,00,99.99,,,,,,*7B' 10-52-00-570
b'$GNVTG,,,,,,,,,N*2E' 10-52-00-591
b'$GNGGA,155133.35,,,,,0,00,99.99,,,,,,*7E' 10-52-00-613
b'$GNVTG,,,,,,,,,N*2E' 10-52-00-634
b'$GNGGA,155133.40,,,,,0,00,99.99,,,,,,*7C' 10-52-00-655
b'$GNVTG,,,,,,,,,N*2E' 10-52-00-676
b'$GNGGA,155133.45,,,,,0,00,99.99,,,,,,*79' 10-52-00-698
b'$GNVTG,,,,,,,,,N*2E' 10-52-00-719
b'$GNGGA,155133.50,,,,,0,00,99.99,,,,,,*7D' 10-52-00-741
b'$GNVTG,,,,,,,,,N*2E' 10-52-00-762
b'$GNGGA,155133.55,,,,,0,00,99.99,,,,,,*78' 10-52-00-784
b'$GNVTG,,,,,,,,,N*2E' 10-52-00-806
b'$GNGGA,155133.60,,,,,0,00,99.99,,,,,,*7E' 10-52-00-827
b'$GNGGA,155133.65,,,,,0,00,99.99,,,,,,*7B' 10-52-00-849
b'$GNVTG,,,,,,,,,N*2E' 10-52-00-870
b'$GNGGA,155133.70,,,,,0,00,99.99,,,,,,*7F' 10-52-00-892
b'$GNVTG,,,,,,,,,N*2E' 10-52-00-913
b'$GNGGA,155133.75,,,,,0,00,99.99,,,,,,*7A' 10-52-00-934
b'$GNVTG,,,,,,,,,N*2E' 10-52-00-956
b'$GNGGA,155133.80,,,,,0,00,99.99,,,,,,*70' 10-52-00-978
b'$GNVTG,,,,,,,,,N*2E' 10-52-00-999
b'$GNGGA,155133.85,,,,,0,00,99.99,,,,,,*75' 10-52-01-020
b'$GNVTG,,,,,,,,,N*2E' 10-52-01-041
b'$GNGGA,155133.90,,,,,0,00,99.99,,,,,,*71' 10-52-01-063
b'$GNVTG,,,,,,,,,N*2E' 10-52-01-084
b'$GNGGA,155133.95,,,,,0,00,99.99,,,,,,*74' 10-52-01-105
b'$GNVTG,,,,,,,,,N*2E' 10-52-01-126
b'$GNGGA,155134.00,,,,,0,00,99.99,,,,,,*7F' 10-52-01-148
b'$GNVTG,,,,,,,,,N*2E' 10-52-01-169
b'$GNGGA,155134.05,,,,,0,00,99.99,,,,,,*7A' 10-52-01-190
b'$GNVTG,,,,,,,,,N*2E' 10-52-01-211
b'$GNGGA,155134.10,,,,,0,00,99.99,,,,,,*7E' 10-52-01-233
b'$GNVTG,,,,,,,,,N*2E' 10-52-01-254
b'$GNGGA,155134.15,,,,,0,00,99.99,,,,,,*7B' 10-52-01-276
b'$GNVTG,,,,,,,,,N*2E' 10-52-01-297
b'$GNGGA,155134.20,,,,,0,00,99.99,,,,,,*7D' 10-52-01-319
b'$GNVTG,,,,,,,,,N*2E' 10-52-01-340
b'$GNGGA,155134.25,,,,,0,00,99.99,,,,,,*78' 10-52-01-362
b'$GNVTG,,T,,M,0.053,N,0.099,K,A*3B' 10-52-01-383
b'$GNGGA,155140.20,4005.68343,N,08814.37723,W,1,05,1.88,221.7,M,-33.2,M,,*77' 10-52-01-406
b'$GNVTG,,T,,M,0.059,N,0.109,K,A*39' 10-52-01-427
b'$GNGGA,155140.25,4005.68343,N,08814.37723,W,1,05,1.88,221.7,M,-33.2,M,,*72' 10-52-01-450
b'$GNVTG,,T,,M,0.158,N,0.292,K,A*38' 10-52-01-471
b'$GNGGA,155140.30,4005.68343,N,08814.37725,W,1,05,1.88,221.7,M,-33.2,M,,*70' 10-52-01-494
b'$GNVTG,,T,,M,0.097,N,0.179,K,A*3C' 10-52-01-515
b'$GNGGA,155140.35,4005.68344,N,08814.37726,W,1,05,1.88,221.8,M,-33.2,M,,*7E' 10-52-01-538
b'$GNVTG,,T,,M,0.087,N,0.162,K,A*37' 10-52-01-560
b'$GNGGA,155140.40,4005.68345,N,08814.37727,W,1,05,1.88,221.8,M,-33.2,M,,*7C' 10-52-01-582
b'$GNVTG,,T,,M,0.121,N,0.223,K,A*3C' 10-52-01-604
b'$GNGGA,155140.45,4005.68345,N,08814.37727,W,1,05,1.88,221.8,M,-33.2,M,,*79' 10-52-01-627
b'$GNVTG,,T,,M,0.140,N,0.259,K,A*36' 10-52-01-648
b'$GNGGA,155140.50,4005.68345,N,08814.37728,W,1,05,1.88,221.8,M,-33.2,M,,*72' 10-52-01-672
b'$GNVTG,,T,,M,0.055,N,0.101,K,A*3D' 10-52-01-694
b'$GNGGA,155140.55,4005.68345,N,08814.37726,W,1,05,1.88,221.7,M,-33.2,M,,*76' 10-52-01-717
b'$GNVTG,,T,,M,0.101,N,0.188,K,A*3C' 10-52-01-739
b'$GNGGA,155140.60,4005.68340,N,08814.37720,W,1,05,1.88,221.6,M,-33.2,M,,*72' 10-52-01-762
b'$GNVTG,,T,,M,0.136,N,0.252,K,A*3C' 10-52-01-783
b'$GNGGA,155140.65,4005.68336,N,08814.37715,W,1,05,1.88,221.4,M,-33.2,M,,*72' 10-52-01-806
b'$GNVTG,,T,,M,0.115,N,0.212,K,A*39' 10-52-01-827
b'$GNGGA,155140.70,4005.68333,N,08814.37713,W,1,05,1.88,221.3,M,-33.2,M,,*72' 10-52-01-850
b'$GNVTG,,T,,M,0.103,N,0.191,K,A*36' 10-52-01-873
b'$GNGGA,155140.75,4005.68332,N,08814.37711,W,1,05,1.88,221.3,M,-33.2,M,,*74' 10-52-01-896
b'$GNVTG,,T,,M,0.020,N,0.038,K,A*34' 10-52-01-918
b'$GNGGA,155140.80,4005.68330,N,08814.37709,W,1,05,1.88,221.2,M,-33.2,M,,*74' 10-52-01-941
b'$GNVTG,,T,,M,0.030,N,0.055,K,A*3E' 10-52-01-963
b'$GNGGA,155140.85,4005.68329,N,08814.37707,W,1,05,1.88,221.2,M,-33.2,M,,*77' 10-52-01-986
b'$GNVTG,,T,,M,0.065,N,0.121,K,A*3C' 10-52-02-007
b'$GNGGA,155140.90,4005.68328,N,08814.37705,W,1,05,1.88,221.1,M,-33.2,M,,*73' 10-52-02-030
b'$GNVTG,,T,,M,0.095,N,0.176,K,A*31' 10-52-02-051
b'$GNGGA,155140.95,4005.68327,N,08814.37704,W,1,05,1.88,221.1,M,-33.2,M,,*78' 10-52-02-074
b'$GNVTG,,T,,M,0.079,N,0.147,K,A*31' 10-52-02-096
b'$GNGGA,155141.00,4005.68326,N,08814.37702,W,1,05,1.88,221.0,M,-33.2,M,,*73' 10-52-02-119
b'$GNVTG,,T,,M,0.043,N,0.080,K,A*32' 10-52-02-141
b'$GNGGA,155141.05,4005.68325,N,08814.37701,W,1,05,1.88,221.0,M,-33.2,M,,*76' 10-52-02-164
b'$GNVTG,,T,,M,0.127,N,0.236,K,A*3E' 10-52-02-191
b'$GNGGA,155141.10,4005.68325,N,08814.37700,W,1,05,1.88,221.0,M,-33.2,M,,*73' 10-52-02-214
b'$GNVTG,,T,,M,0.150,N,0.277,K,A*3B' 10-52-02-241
b'$GNGGA,155141.15,4005.68325,N,08814.37700,W,1,05,1.88,221.0,M,-33.2,M,,*76' 10-52-02-264
b'$GNVTG,,T,,M,0.074,N,0.138,K,A*34' 10-52-02-292
b'$GNGGA,155141.20,4005.68324,N,08814.37697,W,1,05,1.88,220.9,M,-33.2,M,,*76' 10-52-02-315
b'$GNVTG,,T,,M,0.092,N,0.171,K,A*31' 10-52-02-341
b'$GNGGA,155141.25,4005.68324,N,08814.37695,W,1,05,1.88,220.9,M,-33.2,M,,*71' 10-52-02-364
b'$GNVTG,,T,,M,0.097,N,0.180,K,A*3A' 10-52-02-391
b'$GNGGA,155141.30,4005.68324,N,08814.37693,W,1,05,1.88,220.8,M,-33.2,M,,*72' 10-52-02-414
b'$GNVTG,,T,,M,0.142,N,0.263,K,A*3D' 10-52-02-440
b'$GNGGA,155141.35,4005.68324,N,08814.37691,W,1,05,1.88,220.8,M,-33.2,M,,*75' 10-52-02-463
b'$GNVTG,,T,,M,0.075,N,0.138,K,A*35' 10-52-02-491
b'$GNGGA,155141.40,4005.68324,N,08814.37690,W,1,05,1.88,220.7,M,-33.2,M,,*79' 10-52-02-514
b'$GNVTG,,T,,M,0.117,N,0.216,K,A*3F' 10-52-02-541
b'$GNGGA,155141.45,4005.68324,N,08814.37687,W,1,05,1.88,220.7,M,-33.2,M,,*7A' 10-52-02-563
b'$GNVTG,,T,,M,0.161,N,0.299,K,A*39' 10-52-02-591
b'$GNGGA,155141.50,4005.68324,N,08814.37686,W,1,05,1.88,220.7,M,-33.2,M,,*7F' 10-52-02-614
b'$GNVTG,,T,,M,0.155,N,0.286,K,A*30' 10-52-02-641
b'$GNGGA,155141.55,4005.68323,N,08814.37685,W,1,05,1.88,220.7,M,-33.2,M,,*7E' 10-52-02-663
b'$GNVTG,,T,,M,0.113,N,0.209,K,A*35' 10-52-02-692
b'$GNGGA,155141.60,4005.68324,N,08814.37684,W,1,05,1.88,220.6,M,-33.2,M,,*7F' 10-52-02-715
b'$GNVTG,,T,,M,0.051,N,0.094,K,A*34' 10-52-02-741
b'$GNGGA,155141.65,4005.68324,N,08814.37683,W,1,05,1.88,220.6,M,-33.2,M,,*7D' 10-52-02-763
b'$GNVTG,,T,,M,0.028,N,0.051,K,A*33' 10-52-02-791
b'$GNGGA,155141.70,4005.68324,N,08814.37681,W,1,05,1.88,220.6,M,-33.2,M,,*7B' 10-52-02-814
b'$GNVTG,,T,,M,0.217,N,0.402,K,A*3F' 10-52-02-841
b'$GNGGA,155141.75,4005.68325,N,08814.37679,W,1,05,1.88,220.6,M,-33.2,M,,*78' 10-52-02-864
b'$GNVTG,,T,,M,0.124,N,0.230,K,A*3B' 10-52-02-891
b'$GNGGA,155141.80,4005.68325,N,08814.37678,W,1,05,1.88,220.5,M,-33.2,M,,*70' 10-52-02-914
b'$GNVTG,,T,,M,0.093,N,0.173,K,A*32' 10-52-02-941
b'$GNGGA,155141.85,4005.68323,N,08814.37676,W,1,05,1.88,220.5,M,-33.2,M,,*7D' 10-52-02-963
b'$GNVTG,,T,,M,0.078,N,0.144,K,A*33' 10-52-02-991
b'$GNGGA,155141.90,4005.68323,N,08814.37675,W,1,05,1.88,220.4,M,-33.2,M,,*7B' 10-52-03-014
b'$GNVTG,,T,,M,0.109,N,0.203,K,A*34' 10-52-03-041
b'$GNGGA,155141.95,4005.68322,N,08814.37673,W,1,05,1.88,220.4,M,-33.2,M,,*79' 10-52-03-063
b'$GNVTG,,T,,M,0.039,N,0.072,K,A*32' 10-52-03-095
b'$GNGGA,155142.00,4005.68321,N,08814.37672,W,1,05,1.88,220.3,M,-33.2,M,,*73' 10-52-03-118
b'$GNVTG,,T,,M,0.031,N,0.057,K,A*3D' 10-52-03-141
b'$GNGGA,155142.05,4005.68320,N,08814.37670,W,1,05,1.88,220.3,M,-33.2,M,,*75' 10-52-03-164
b'$GNVTG,,T,,M,0.055,N,0.102,K,A*3E' 10-52-03-192
b'$GNGGA,155142.10,4005.68320,N,08814.37668,W,1,05,1.88,220.3,M,-33.2,M,,*78' 10-52-03-215
b'$GNVTG,,T,,M,0.100,N,0.186,K,A*33' 10-52-03-241
b'$GNGGA,155142.15,4005.68319,N,08814.37667,W,1,05,1.88,220.2,M,-33.2,M,,*79' 10-52-03-264
b'$GNVTG,,T,,M,0.170,N,0.315,K,A*3C' 10-52-03-293
b'$GNGGA,155142.20,4005.68318,N,08814.37666,W,1,05,1.88,220.2,M,-33.2,M,,*7F' 10-52-03-316
b'$GNVTG,,T,,M,0.039,N,0.072,K,A*32' 10-52-03-341
b'$GNGGA,155142.25,4005.68318,N,08814.37665,W,1,05,1.88,220.1,M,-33.2,M,,*7A' 10-52-03-363
b'$GNVTG,,T,,M,0.040,N,0.075,K,A*3B' 10-52-03-391
b'$GNGGA,155142.30,4005.68317,N,08814.37663,W,1,05,1.88,220.1,M,-33.2,M,,*77' 10-52-03-414
b'$GNVTG,,T,,M,0.069,N,0.128,K,A*39' 10-52-03-441
b'$GNGGA,155142.35,4005.68317,N,08814.37663,W,1,05,1.88,220.1,M,-33.2,M,,*72' 10-52-03-464
b'$GNVTG,,T,,M,0.116,N,0.215,K,A*3D' 10-52-03-491
b'$GNGGA,155142.40,4005.68316,N,08814.37663,W,1,05,1.88,220.1,M,-33.2,M,,*71' 10-52-03-514
b'$GNVTG,,T,,M,0.093,N,0.173,K,A*32' 10-52-03-541
b'$GNGGA,155142.45,4005.68316,N,08814.37663,W,1,05,1.88,220.1,M,-33.2,M,,*74' 10-52-03-564
b'$GNVTG,,T,,M,0.069,N,0.127,K,A*36' 10-52-03-592
b'$GNGGA,155142.50,4005.68315,N,08814.37662,W,1,05,1.88,220.1,M,-33.2,M,,*72' 10-52-03-615
b'$GNVTG,,T,,M,0.096,N,0.177,K,A*33' 10-52-03-641
b'$GNGGA,155142.55,4005.68315,N,08814.37661,W,1,05,1.88,220.1,M,-33.2,M,,*74' 10-52-03-664
b'$GNVTG,,T,,M,0.078,N,0.145,K,A*32' 10-52-03-691
b'$GNGGA,155142.60,4005.68314,N,08814.37661,W,1,05,1.88,220.1,M,-33.2,M,,*73' 10-52-03-714
b'$GNVTG,,T,,M,0.104,N,0.193,K,A*33' 10-52-03-741
b'$GNGGA,155142.65,4005.68314,N,08814.37661,W,1,05,1.88,220.1,M,-33.2,M,,*76' 10-52-03-764
b'$GNVTG,,T,,M,0.083,N,0.154,K,A*36' 10-52-03-791
b'$GNGGA,155142.70,4005.68313,N,08814.37661,W,1,05,1.88,220.1,M,-33.2,M,,*75' 10-52-03-814
b'$GNVTG,,T,,M,0.051,N,0.095,K,A*35' 10-52-03-841
b'$GNGGA,155142.75,4005.68313,N,08814.37660,W,1,05,1.88,220.1,M,-33.2,M,,*71' 10-52-03-864
b'$GNVTG,,T,,M,0.126,N,0.233,K,A*3A' 10-52-03-892
b'$GNGGA,155142.80,4005.68313,N,08814.37659,W,1,05,1.88,220.0,M,-33.2,M,,*70' 10-52-03-915
b'$GNVTG,,T,,M,0.069,N,0.128,K,A*39' 10-52-03-941
b'$GNGGA,155142.85,4005.68313,N,08814.37658,W,1,05,1.88,220.0,M,-33.2,M,,*74' 10-52-03-964
b'$GNVTG,,T,,M,0.035,N,0.065,K,A*38' 10-52-03-991
b'$GNGGA,155142.90,4005.68312,N,08814.37658,W,1,05,1.88,220.0,M,-33.2,M,,*71' 10-52-04-014
b'$GNVTG,,T,,M,0.069,N,0.128,K,A*39' 10-52-04-041
b'$GNGGA,155142.95,4005.68311,N,08814.37657,W,1,05,1.88,220.0,M,-33.2,M,,*78' 10-52-04-064
b'$GNVTG,,T,,M,0.048,N,0.089,K,A*30' 10-52-04-095
b'$GNGGA,155143.00,4005.68310,N,08814.37656,W,1,05,1.88,220.0,M,-33.2,M,,*75' 10-52-04-118
b'$GNVTG,,T,,M,0.027,N,0.049,K,A*35' 10-52-04-141
b'$GNGGA,155143.05,4005.68310,N,08814.37655,W,1,05,1.88,219.9,M,-33.2,M,,*70' 10-52-04-164
b'$GNVTG,,T,,M,0.059,N,0.109,K,A*39' 10-52-04-192
b'$GNGGA,155143.10,4005.68310,N,08814.37654,W,1,05,1.88,219.9,M,-33.2,M,,*75' 10-52-04-215
b'$GNVTG,,T,,M,0.025,N,0.046,K,A*38' 10-52-04-240
b'$GNGGA,155143.15,4005.68309,N,08814.37654,W,1,05,1.88,219.9,M,-33.2,M,,*78' 10-52-04-263
b'$GNVTG,,T,,M,0.049,N,0.090,K,A*39' 10-52-04-291
b'$GNGGA,155143.20,4005.68308,N,08814.37653,W,1,05,1.88,219.9,M,-33.2,M,,*78' 10-52-04-314
b'$GNVTG,,T,,M,0.062,N,0.115,K,A*3C' 10-52-04-341
b'$GNGGA,155143.25,4005.68308,N,08814.37653,W,1,05,1.88,219.9,M,-33.2,M,,*7D' 10-52-04-364
b'$GNVTG,,T,,M,0.018,N,0.033,K,A*34' 10-52-04-392
b'$GNGGA,155143.30,4005.68307,N,08814.37652,W,1,05,1.88,219.9,M,-33.2,M,,*77' 10-52-04-415
b'$GNVTG,,T,,M,0.058,N,0.107,K,A*36' 10-52-04-441
b'$GNGGA,155143.35,4005.68307,N,08814.37652,W,1,05,1.88,219.9,M,-33.2,M,,*72' 10-52-04-464
b'$GNVTG,,T,,M,0.049,N,0.090,K,A*39' 10-52-04-492
b'$GNGGA,155143.40,4005.68307,N,08814.37651,W,1,05,1.88,219.9,M,-33.2,M,,*73' 10-52-04-515
b'$GNVTG,,T,,M,0.034,N,0.063,K,A*3F' 10-52-04-541
b'$GNGGA,155143.45,4005.68306,N,08814.37651,W,1,05,1.88,219.9,M,-33.2,M,,*77' 10-52-04-564
b'$GNVTG,,T,,M,0.042,N,0.077,K,A*3B' 10-52-04-591
b'$GNGGA,155143.50,4005.68306,N,08814.37650,W,1,05,1.88,219.9,M,-33.2,M,,*72' 10-52-04-614
b'$GNVTG,,T,,M,0.061,N,0.113,K,A*39' 10-52-04-641
b'$GNGGA,155143.55,4005.68305,N,08814.37650,W,1,05,1.88,219.9,M,-33.2,M,,*74' 10-52-04-664
b'$GNVTG,,T,,M,0.094,N,0.174,K,A*32' 10-52-04-691
b'$GNGGA,155143.60,4005.68305,N,08814.37649,W,1,05,1.88,219.8,M,-33.2,M,,*7B' 10-52-04-714
b'$GNVTG,,T,,M,0.086,N,0.159,K,A*3E' 10-52-04-741
b'$GNGGA,155143.65,4005.68304,N,08814.37649,W,1,05,1.88,219.8,M,-33.2,M,,*7F' 10-52-04-764
b'$GNVTG,,T,,M,0.047,N,0.088,K,A*3E' 10-52-04-792
b'$GNGGA,155143.70,4005.68303,N,08814.37648,W,1,05,1.88,219.8,M,-33.2,M,,*7D' 10-52-04-815
b'$GNVTG,,T,,M,0.101,N,0.187,K,A*33' 10-52-04-841
b'$GNGGA,155143.75,4005.68302,N,08814.37647,W,1,05,1.88,219.8,M,-33.2,M,,*76' 10-52-04-864
b'$GNVTG,,T,,M,0.140,N,0.258,K,A*37' 10-52-04-893
b'$GNGGA,155143.80,4005.68302,N,08814.37647,W,1,05,1.88,219.8,M,-33.2,M,,*7C' 10-52-04-915
b'$GNVTG,,T,,M,0.067,N,0.124,K,A*3B' 10-52-04-941
b'$GNGGA,155143.85,4005.68301,N,08814.37646,W,1,05,1.88,219.8,M,-33.2,M,,*7B' 10-52-04-964
b'$GNVTG,,T,,M,0.007,N,0.014,K,A*3F' 10-52-04-992
b'$GNGGA,155143.90,4005.68300,N,08814.37645,W,1,05,1.88,219.8,M,-33.2,M,,*7D' 10-52-05-015
b'$GNVTG,,T,,M,0.014,N,0.025,K,A*3F' 10-52-05-041
b'$GNGGA,155143.95,4005.68300,N,08814.37645,W,1,05,1.88,219.8,M,-33.2,M,,*78' 10-52-05-064
b'$GNVTG,,T,,M,0.029,N,0.054,K,A*37' 10-52-05-096
b'$GNGGA,155144.00,4005.68299,N,08814.37644,W,1,05,1.88,219.8,M,-33.2,M,,*73' 10-52-05-118
b'$GNVTG,,T,,M,0.028,N,0.052,K,A*30' 10-52-05-141
b'$GNGGA,155144.05,4005.68299,N,08814.37644,W,1,05,1.88,219.8,M,-33.2,M,,*76' 10-52-05-164
b'$GNVTG,,T,,M,0.054,N,0.100,K,A*3D' 10-52-05-193
b'$GNGGA,155144.10,4005.68298,N,08814.37643,W,1,05,1.88,219.7,M,-33.2,M,,*7B' 10-52-05-215
b'$GNVTG,,T,,M,0.050,N,0.092,K,A*33' 10-52-05-242
b'$GNGGA,155144.15,4005.68298,N,08814.37643,W,1,05,1.88,219.7,M,-33.2,M,,*7E' 10-52-05-265
b'$GNVTG,,T,,M,0.076,N,0.140,K,A*39' 10-52-05-292
b'$GNGGA,155144.20,4005.68298,N,08814.37643,W,1,05,1.88,219.8,M,-33.2,M,,*77' 10-52-05-315
b'$GNVTG,,T,,M,0.069,N,0.128,K,A*39' 10-52-05-341
b'$GNGGA,155144.25,4005.68298,N,08814.37642,W,1,05,1.88,219.8,M,-33.2,M,,*73' 10-52-05-364
b'$GNVTG,,T,,M,0.036,N,0.066,K,A*38' 10-52-05-392
b'$GNGGA,155144.30,4005.68297,N,08814.37642,W,1,05,1.88,219.8,M,-33.2,M,,*78' 10-52-05-415
b'$GNVTG,,T,,M,0.114,N,0.211,K,A*3B' 10-52-05-441
b'$GNGGA,155144.35,4005.68297,N,08814.37643,W,1,05,1.88,219.8,M,-33.2,M,,*7C' 10-52-05-464
b'$GNVTG,,T,,M,0.050,N,0.093,K,A*32' 10-52-05-492
b'$GNGGA,155144.40,4005.68298,N,08814.37643,W,1,05,1.88,219.8,M,-33.2,M,,*71' 10-52-05-515
b'$GNVTG,,T,,M,0.075,N,0.140,K,A*3A' 10-52-05-542
b'$GNGGA,155144.45,4005.68298,N,08814.37642,W,1,05,1.88,219.8,M,-33.2,M,,*75' 10-52-05-565
b'$GNVTG,,T,,M,0.070,N,0.129,K,A*30' 10-52-05-592
b'$GNGGA,155144.50,4005.68298,N,08814.37642,W,1,05,1.88,219.9,M,-33.2,M,,*70' 10-52-05-615
b'$GNVTG,,T,,M,0.077,N,0.143,K,A*3B' 10-52-05-641
b'$GNGGA,155144.55,4005.68298,N,08814.37643,W,1,05,1.88,219.9,M,-33.2,M,,*74' 10-52-05-664
b'$GNVTG,,T,,M,0.083,N,0.154,K,A*36' 10-52-05-692
b'$GNGGA,155144.60,4005.68298,N,08814.37642,W,1,05,1.88,219.8,M,-33.2,M,,*72' 10-52-05-715
b'$GNVTG,,T,,M,0.032,N,0.060,K,A*3A' 10-52-05-741
b'$GNGGA,155144.65,4005.68298,N,08814.37640,W,1,05,1.88,219.8,M,-33.2,M,,*75' 10-52-05-764
b'$GNVTG,,T,,M,0.061,N,0.113,K,A*39' 10-52-05-792
b'$GNGGA,155144.70,4005.68298,N,08814.37639,W,1,05,1.88,219.8,M,-33.2,M,,*7F' 10-52-05-815
b'$GNVTG,,T,,M,0.040,N,0.073,K,A*3D' 10-52-05-842
b'$GNGGA,155144.75,4005.68298,N,08814.37638,W,1,05,1.88,219.8,M,-33.2,M,,*7B' 10-52-05-866
b'$GNVTG,,T,,M,0.060,N,0.111,K,A*3A' 10-52-05-892
b'$GNGGA,155144.80,4005.68297,N,08814.37637,W,1,05,1.88,219.8,M,-33.2,M,,*71' 10-52-05-915
b'$GNVTG,,T,,M,0.142,N,0.263,K,A*3D' 10-52-05-941
b'$GNGGA,155144.85,4005.68297,N,08814.37637,W,1,05,1.88,219.8,M,-33.2,M,,*74' 10-52-05-964
b'$GNVTG,,T,,M,0.045,N,0.083,K,A*37' 10-52-05-992
b'$GNGGA,155144.90,4005.68297,N,08814.37636,W,1,05,1.88,219.8,M,-33.2,M,,*71' 10-52-06-015
b'$GNVTG,,T,,M,0.041,N,0.076,K,A*39' 10-52-06-041
b'$GNGGA,155144.95,4005.68297,N,08814.37635,W,1,05,1.88,219.8,M,-33.2,M,,*77' 10-52-06-064
b'$GNVTG,,T,,M,0.090,N,0.166,K,A*35' 10-52-06-095
b'$GNGGA,155145.00,4005.68297,N,08814.37635,W,1,05,1.88,219.8,M,-33.2,M,,*7A' 10-52-06-118
b'$GNVTG,,T,,M,0.064,N,0.118,K,A*37' 10-52-06-142
b'$GNGGA,155145.05,4005.68297,N,08814.37634,W,1,05,1.88,219.8,M,-33.2,M,,*7E' 10-52-06-165
b'$GNVTG,,T,,M,0.091,N,0.168,K,A*3A' 10-52-06-192
b'$GNGGA,155145.10,4005.68296,N,08814.37632,W,1,05,1.88,219.8,M,-33.2,M,,*7D' 10-52-06-215
b'$GNVTG,,T,,M,0.084,N,0.155,K,A*30' 10-52-06-241
b'$GNGGA,155145.15,4005.68296,N,08814.37632,W,1,05,1.88,219.8,M,-33.2,M,,*78' 10-52-06-264
b'$GNVTG,,T,,M,0.143,N,0.264,K,A*3B' 10-52-06-292
b'$GNGGA,155145.20,4005.68296,N,08814.37632,W,1,05,1.88,219.8,M,-33.2,M,,*7E' 10-52-06-315
b'$GNVTG,,T,,M,0.065,N,0.120,K,A*3D' 10-52-06-341
b'$GNGGA,155145.25,4005.68296,N,08814.37632,W,1,05,1.88,219.8,M,-33.2,M,,*7B' 10-52-06-364
b'$GNVTG,,T,,M,0.023,N,0.043,K,A*3B' 10-52-06-392
b'$GNGGA,155145.30,4005.68297,N,08814.37631,W,1,05,1.88,219.8,M,-33.2,M,,*7D' 10-52-06-415
b'$GNVTG,,T,,M,0.091,N,0.169,K,A*3B' 10-52-06-442
b'$GNGGA,155145.35,4005.68297,N,08814.37630,W,1,05,1.88,219.7,M,-33.2,M,,*76' 10-52-06-465
b'$GNVTG,,T,,M,0.047,N,0.088,K,A*3E' 10-52-06-492
b'$GNGGA,155145.40,4005.68297,N,08814.37629,W,1,05,1.88,219.7,M,-33.2,M,,*7C' 10-52-06-515
b'$GNVTG,,T,,M,0.031,N,0.057,K,A*3D' 10-52-06-541
b'$GNGGA,155145.45,4005.68297,N,08814.37628,W,1,05,1.88,219.7,M,-33.2,M,,*78' 10-52-06-564
b'$GNVTG,,T,,M,0.107,N,0.199,K,A*3A' 10-52-06-593
b'$GNGGA,155145.50,4005.68297,N,08814.37628,W,1,05,1.88,219.7,M,-33.2,M,,*7C' 10-52-06-616
b'$GNVTG,,T,,M,0.072,N,0.134,K,A*3E' 10-52-06-641
b'$GNGGA,155145.55,4005.68297,N,08814.37628,W,1,05,1.88,219.7,M,-33.2,M,,*79' 10-52-06-664
b'$GNVTG,,T,,M,0.032,N,0.060,K,A*3A' 10-52-06-693
b'$GNGGA,155145.60,4005.68297,N,08814.37627,W,1,05,1.88,219.7,M,-33.2,M,,*70' 10-52-06-716
b'$GNVTG,,T,,M,0.010,N,0.018,K,A*35' 10-52-06-742
b'$GNGGA,155145.65,4005.68298,N,08814.37627,W,1,05,1.88,219.7,M,-33.2,M,,*7A' 10-52-06-765
b'$GNVTG,,T,,M,0.045,N,0.084,K,A*30' 10-52-06-793
b'$GNGGA,155145.70,4005.68298,N,08814.37626,W,1,05,1.88,219.8,M,-33.2,M,,*70' 10-52-06-816
b'$GNVTG,,T,,M,0.125,N,0.231,K,A*3B' 10-52-06-842
b'$GNGGA,155145.75,4005.68298,N,08814.37625,W,1,05,1.88,219.8,M,-33.2,M,,*76' 10-52-06-865
b'$GNVTG,,T,,M,0.045,N,0.083,K,A*37' 10-52-06-893
b'$GNGGA,155145.80,4005.68299,N,08814.37626,W,1,05,1.88,219.8,M,-33.2,M,,*7E' 10-52-06-917
b'$GNVTG,,T,,M,0.028,N,0.052,K,A*30' 10-52-06-941
b'$GNGGA,155145.85,4005.68300,N,08814.37625,W,1,05,1.88,219.8,M,-33.2,M,,*79' 10-52-06-964
b'$GNVTG,,T,,M,0.038,N,0.070,K,A*31' 10-52-06-993
b'$GNGGA,155145.90,4005.68300,N,08814.37625,W,1,05,1.88,219.8,M,-33.2,M,,*7D' 10-52-07-016
b'$GNVTG,,T,,M,0.059,N,0.109,K,A*39' 10-52-07-042
b'$GNGGA,155145.95,4005.68300,N,08814.37625,W,1,05,1.88,219.8,M,-33.2,M,,*78' 10-52-07-065
b'$GNVTG,,T,,M,0.043,N,0.079,K,A*34' 10-52-07-096
b'$GNGGA,155146.00,4005.68300,N,08814.37624,W,1,05,1.88,219.8,M,-33.2,M,,*76' 10-52-07-120
b'$GNVTG,,T,,M,0.086,N,0.159,K,A*3E' 10-52-07-143
b'$GNGGA,155146.05,4005.68300,N,08814.37623,W,1,05,1.88,219.8,M,-33.2,M,,*74' 10-52-07-166
b'$GNVTG,,T,,M,0.045,N,0.083,K,A*37' 10-52-07-193
b'$GNGGA,155146.10,4005.68300,N,08814.37623,W,1,05,1.88,219.8,M,-33.2,M,,*70' 10-52-07-216
b'$GNVTG,,T,,M,0.043,N,0.080,K,A*32' 10-52-07-241
b'$GNGGA,155146.15,4005.68300,N,08814.37622,W,1,05,1.88,219.8,M,-33.2,M,,*74' 10-52-07-264
b'$GNVTG,,T,,M,0.070,N,0.129,K,A*30' 10-52-07-293
b'$GNGGA,155146.20,4005.68301,N,08814.37621,W,1,05,1.88,219.8,M,-33.2,M,,*70' 10-52-07-316
b'$GNVTG,,T,,M,0.038,N,0.071,K,A*30' 10-52-07-342
b'$GNGGA,155146.25,4005.68301,N,08814.37621,W,1,05,1.88,219.8,M,-33.2,M,,*75' 10-52-07-365
b'$GNVTG,,T,,M,0.068,N,0.125,K,A*35' 10-52-07-394
b'$GNGGA,155146.30,4005.68301,N,08814.37620,W,1,05,1.88,219.8,M,-33.2,M,,*70' 10-52-07-417
b'$GNVTG,,T,,M,0.044,N,0.082,K,A*37' 10-52-07-441
b'$GNGGA,155146.35,4005.68301,N,08814.37619,W,1,05,1.88,219.8,M,-33.2,M,,*7F' 10-52-07-464
b'$GNVTG,,T,,M,0.029,N,0.053,K,A*30' 10-52-07-493
b'$GNGGA,155146.40,4005.68301,N,08814.37619,W,1,05,1.88,219.8,M,-33.2,M,,*7D' 10-52-07-516
b'$GNVTG,,T,,M,0.049,N,0.091,K,A*38' 10-52-07-541
b'$GNGGA,155146.45,4005.68301,N,08814.37618,W,1,05,1.88,219.8,M,-33.2,M,,*79' 10-52-07-564
b'$GNVTG,,T,,M,0.023,N,0.042,K,A*3A' 10-52-07-593
b'$GNGGA,155146.50,4005.68301,N,08814.37618,W,1,05,1.88,219.8,M,-33.2,M,,*7D' 10-52-07-616
b'$GNVTG,,T,,M,0.046,N,0.084,K,A*33' 10-52-07-642
b'$GNGGA,155146.55,4005.68301,N,08814.37617,W,1,05,1.88,219.8,M,-33.2,M,,*77' 10-52-07-665
b'$GNVTG,,T,,M,0.106,N,0.196,K,A*34' 10-52-07-693
b'$GNGGA,155146.60,4005.68301,N,08814.37617,W,1,05,1.88,219.8,M,-33.2,M,,*71' 10-52-07-717
b'$GNVTG,,T,,M,0.092,N,0.170,K,A*30' 10-52-07-741
b'$GNGGA,155146.65,4005.68301,N,08814.37616,W,1,05,1.88,219.8,M,-33.2,M,,*75' 10-52-07-764
b'$GNVTG,,T,,M,0.042,N,0.077,K,A*3B' 10-52-07-793
b'$GNGGA,155146.70,4005.68301,N,08814.37616,W,1,05,1.88,219.8,M,-33.2,M,,*71' 10-52-07-816
b'$GNVTG,,T,,M,0.060,N,0.110,K,A*3B' 10-52-07-841
b'$GNGGA,155146.75,4005.68301,N,08814.37615,W,1,05,1.88,219.8,M,-33.2,M,,*77' 10-52-07-864
b'$GNVTG,,T,,M,0.082,N,0.151,K,A*32' 10-52-07-893
b'$GNGGA,155146.80,4005.68301,N,08814.37615,W,1,05,1.88,219.8,M,-33.2,M,,*7D' 10-52-07-916
b'$GNVTG,,T,,M,0.034,N,0.062,K,A*3E' 10-52-07-942
b'$GNGGA,155146.85,4005.68302,N,08814.37614,W,1,05,1.88,219.8,M,-33.2,M,,*7A' 10-52-07-965
b'$GNVTG,,T,,M,0.030,N,0.055,K,A*3E' 10-52-07-993
b'$GNGGA,155146.90,4005.68302,N,08814.37614,W,1,05,1.88,219.8,M,-33.2,M,,*7E' 10-52-08-016
b'$GNVTG,,T,,M,0.062,N,0.115,K,A*3C' 10-52-08-042
b'$GNGGA,155146.95,4005.68301,N,08814.37613,W,1,05,1.88,219.8,M,-33.2,M,,*7F' 10-52-08-065
b'$GNVTG,,T,,M,0.007,N,0.013,K,A*38' 10-52-08-097
b'$GNGGA,155147.00,4005.68301,N,08814.37612,W,1,05,1.88,219.8,M,-33.2,M,,*73' 10-52-08-120
b'$GNVTG,,T,,M,0.020,N,0.036,K,A*3A' 10-52-08-142
b'$GNGGA,155147.05,4005.68301,N,08814.37612,W,1,05,1.88,219.8,M,-33.2,M,,*76' 10-52-08-165
b'$GNVTG,,T,,M,0.077,N,0.142,K,A*3A' 10-52-08-193
b'$GNGGA,155147.10,4005.68301,N,08814.37611,W,1,05,1.88,219.8,M,-33.2,M,,*71' 10-52-08-216
b'$GNVTG,,T,,M,0.078,N,0.144,K,A*33' 10-52-08-242
b'$GNGGA,155147.15,4005.68301,N,08814.37610,W,1,05,1.88,219.7,M,-33.2,M,,*7A' 10-52-08-265
b'$GNVTG,,T,,M,0.042,N,0.077,K,A*3B' 10-52-08-293
b'$GNGGA,155147.20,4005.68301,N,08814.37609,W,1,05,1.88,219.7,M,-33.2,M,,*74' 10-52-08-316
b'$GNVTG,,T,,M,0.058,N,0.108,K,A*39' 10-52-08-342
b'$GNGGA,155147.25,4005.68301,N,08814.37609,W,1,05,1.88,219.7,M,-33.2,M,,*71' 10-52-08-366
b'$GNVTG,,T,,M,0.021,N,0.039,K,A*34' 10-52-08-393
b'$GNGGA,155147.30,4005.68301,N,08814.37608,W,1,05,1.88,219.7,M,-33.2,M,,*74' 10-52-08-416
b'$GNVTG,,T,,M,0.030,N,0.055,K,A*3E' 10-52-08-442
b'$GNGGA,155147.35,4005.68301,N,08814.37608,W,1,05,1.88,219.7,M,-33.2,M,,*71' 10-52-08-466
b'$GNVTG,,T,,M,0.033,N,0.061,K,A*3A' 10-52-08-493
b'$GNGGA,155147.40,4005.68301,N,08814.37607,W,1,05,1.88,219.7,M,-33.2,M,,*7C' 10-52-08-517
b'$GNVTG,,T,,M,0.053,N,0.098,K,A*3A' 10-52-08-542
b'$GNGGA,155147.45,4005.68301,N,08814.37606,W,1,05,1.88,219.7,M,-33.2,M,,*78' 10-52-08-566
b'$GNVTG,,T,,M,0.076,N,0.140,K,A*39' 10-52-08-593
b'$GNGGA,155147.50,4005.68301,N,08814.37606,W,1,05,1.88,219.7,M,-33.2,M,,*7C' 10-52-08-617
b'$GNVTG,,T,,M,0.057,N,0.106,K,A*38' 10-52-08-641
b'$GNGGA,155147.55,4005.68301,N,08814.37605,W,1,05,1.88,219.7,M,-33.2,M,,*7A' 10-52-08-664
b'$GNVTG,,T,,M,0.021,N,0.038,K,A*35' 10-52-08-693
b'$GNGGA,155147.60,4005.68301,N,08814.37605,W,1,05,1.88,219.7,M,-33.2,M,,*7C' 10-52-08-717
b'$GNVTG,,T,,M,0.037,N,0.069,K,A*36' 10-52-08-741
b'$GNGGA,155147.65,4005.68301,N,08814.37604,W,1,05,1.88,219.7,M,-33.2,M,,*78' 10-52-08-764
b'$GNVTG,,T,,M,0.029,N,0.054,K,A*37' 10-52-08-793
b'$GNGGA,155147.70,4005.68301,N,08814.37603,W,1,05,1.88,219.7,M,-33.2,M,,*7B' 10-52-08-816
b'$GNVTG,,T,,M,0.059,N,0.110,K,A*31' 10-52-08-842
b'$GNGGA,155147.75,4005.68301,N,08814.37602,W,1,05,1.88,219.7,M,-33.2,M,,*7F' 10-52-08-865
b'$GNVTG,,T,,M,0.104,N,0.194,K,A*34' 10-52-08-893
b'$GNGGA,155147.80,4005.68301,N,08814.37602,W,1,05,1.88,219.7,M,-33.2,M,,*75' 10-52-08-916
b'$GNVTG,,T,,M,0.049,N,0.090,K,A*39' 10-52-08-941
b'$GNGGA,155147.85,4005.68301,N,08814.37601,W,1,05,1.88,219.7,M,-33.2,M,,*73' 10-52-08-964
b'$GNVTG,,T,,M,0.060,N,0.112,K,A*39' 10-52-08-993
b'$GNGGA,155147.90,4005.68301,N,08814.37601,W,1,05,1.88,219.6,M,-33.2,M,,*76' 10-52-09-016
b'$GNVTG,,T,,M,0.059,N,0.110,K,A*31' 10-52-09-042
b'$GNGGA,155147.95,4005.68301,N,08814.37600,W,1,05,1.88,219.6,M,-33.2,M,,*72' 10-52-09-065
b'$GNVTG,,T,,M,0.070,N,0.130,K,A*38' 10-52-09-097
b'$GNGGA,155148.00,4005.68301,N,08814.37599,W,1,05,1.88,219.6,M,-33.2,M,,*72' 10-52-09-120
b'$GNVTG,,T,,M,0.078,N,0.144,K,A*33' 10-52-09-142
b'$GNGGA,155148.05,4005.68301,N,08814.37599,W,1,05,1.88,219.6,M,-33.2,M,,*77' 10-52-09-166
b'$GNVTG,,T,,M,0.035,N,0.065,K,A*38' 10-52-09-193
b'$GNGGA,155148.10,4005.68301,N,08814.37598,W,1,05,1.88,219.6,M,-33.2,M,,*72' 10-52-09-216
b'$GNVTG,,T,,M,0.021,N,0.039,K,A*34' 10-52-09-242
b'$GNGGA,155148.15,4005.68301,N,08814.37597,W,1,05,1.88,219.6,M,-33.2,M,,*78' 10-52-09-265
b'$GNVTG,,T,,M,0.056,N,0.103,K,A*3C' 10-52-09-294
b'$GNGGA,155148.20,4005.68301,N,08814.37596,W,1,05,1.88,219.6,M,-33.2,M,,*7F' 10-52-09-317
b'$GNVTG,,T,,M,0.051,N,0.095,K,A*35' 10-52-09-343
b'$GNGGA,155148.25,4005.68301,N,08814.37596,W,1,05,1.88,219.5,M,-33.2,M,,*79' 10-52-09-366
b'$GNVTG,,T,,M,0.074,N,0.137,K,A*3B' 10-52-09-393
b'$GNGGA,155148.30,4005.68301,N,08814.37595,W,1,05,1.88,219.5,M,-33.2,M,,*7E' 10-52-09-416
b'$GNVTG,,T,,M,0.052,N,0.097,K,A*34' 10-52-09-443
b'$GNGGA,155148.35,4005.68301,N,08814.37594,W,1,05,1.88,219.5,M,-33.2,M,,*7A' 10-52-09-465
b'$GNVTG,,T,,M,0.017,N,0.031,K,A*39' 10-52-09-493
b'$GNGGA,155148.40,4005.68301,N,08814.37594,W,1,05,1.88,219.5,M,-33.2,M,,*78' 10-52-09-516
b'$GNVTG,,T,,M,0.030,N,0.055,K,A*3E' 10-52-09-542
b'$GNGGA,155148.45,4005.68301,N,08814.37594,W,1,05,1.88,219.5,M,-33.2,M,,*7D' 10-52-09-565
b'$GNVTG,,T,,M,0.054,N,0.100,K,A*3D' 10-52-09-594
b'$GNGGA,155148.50,4005.68301,N,08814.37593,W,1,05,1.88,219.5,M,-33.2,M,,*7E' 10-52-09-617
b'$GNVTG,,T,,M,0.048,N,0.090,K,A*38' 10-52-09-642
b'$GNGGA,155148.55,4005.68301,N,08814.37593,W,1,05,1.88,219.5,M,-33.2,M,,*7B' 10-52-09-665
b'$GNVTG,,T,,M,0.040,N,0.073,K,A*3D' 10-52-09-693
b'$GNGGA,155148.60,4005.68301,N,08814.37592,W,1,05,1.88,219.5,M,-33.2,M,,*7C' 10-52-09-716
b'$GNVTG,,T,,M,0.018,N,0.032,K,A*35' 10-52-09-743
b'$GNGGA,155148.65,4005.68301,N,08814.37592,W,1,05,1.88,219.5,M,-33.2,M,,*79' 10-52-09-765
b'$GNVTG,,T,,M,0.032,N,0.058,K,A*31' 10-52-09-793
b'$GNGGA,155148.70,4005.68301,N,08814.37592,W,1,05,1.88,219.5,M,-33.2,M,,*7D' 10-52-09-816
b'$GNVTG,,T,,M,0.040,N,0.073,K,A*3D' 10-52-09-842
b'$GNGGA,155148.75,4005.68301,N,08814.37591,W,1,05,1.88,219.5,M,-33.2,M,,*7B' 10-52-09-865
b'$GNVTG,,T,,M,0.121,N,0.224,K,A*3B' 10-52-09-893
b'$GNGGA,155148.80,4005.68301,N,08814.37591,W,1,05,1.88,219.5,M,-33.2,M,,*71' 10-52-09-916
b'$GNVTG,,T,,M,0.251,N,0.465,K,A*3C' 10-52-09-942
b'$GNGGA,155148.85,4005.68301,N,08814.37591,W,1,05,1.88,219.5,M,-33.2,M,,*74' 10-52-09-965
b'$GNVTG,286.45,T,,M,0.336,N,0.622,K,A*2E' 10-52-09-993
b'$GNGGA,155148.90,4005.68301,N,08814.37592,W,1,05,1.88,219.5,M,-33.2,M,,*73' 10-52-10-016
b'$GNVTG,280.98,T,,M,0.326,N,0.603,K,A*2A' 10-52-10-043
b'$GNGGA,155148.95,4005.68301,N,08814.37592,W,1,05,1.88,219.5,M,-33.2,M,,*76' 10-52-10-066
b'$GNVTG,282.26,T,,M,0.470,N,0.871,K,A*22' 10-52-10-097
b'$GNGGA,155149.00,4005.68301,N,08814.37593,W,1,05,1.88,219.5,M,-33.2,M,,*7A' 10-52-10-120
b'$GNVTG,276.12,T,,M,0.512,N,0.947,K,A*2F' 10-52-10-143
b'$GNGGA,155149.05,4005.68301,N,08814.37594,W,1,05,1.88,219.5,M,-33.2,M,,*78' 10-52-10-166
b'$GNVTG,273.13,T,,M,0.459,N,0.851,K,A*23' 10-52-10-194
b'$GNGGA,155149.10,4005.68302,N,08814.37595,W,1,05,1.88,219.5,M,-33.2,M,,*7E' 10-52-10-217
b'$GNVTG,268.63,T,,M,0.444,N,0.822,K,A*26' 10-52-10-242
b'$GNGGA,155149.15,4005.68302,N,08814.37595,W,1,05,1.88,219.5,M,-33.2,M,,*7B' 10-52-10-265
b'$GNVTG,265.42,T,,M,0.497,N,0.921,K,A*24' 10-52-10-294
b'$GNGGA,155149.20,4005.68302,N,08814.37596,W,1,05,1.88,219.5,M,-33.2,M,,*7E' 10-52-10-317
b'$GNVTG,262.55,T,,M,0.665,N,1.231,K,A*21' 10-52-10-343
b'$GNGGA,155149.25,4005.68302,N,08814.37597,W,1,05,1.88,219.5,M,-33.2,M,,*7A' 10-52-10-366
b'$GNVTG,261.42,T,,M,0.742,N,1.375,K,A*21' 10-52-10-393
b'$GNGGA,155149.30,4005.68302,N,08814.37598,W,1,05,1.88,219.5,M,-33.2,M,,*71' 10-52-10-416
b'$GNVTG,261.15,T,,M,0.611,N,1.132,K,A*25' 10-52-10-442
b'$GNGGA,155149.35,4005.68302,N,08814.37599,W,1,05,1.88,219.5,M,-33.2,M,,*75' 10-52-10-465
b'$GNVTG,264.05,T,,M,0.526,N,0.973,K,A*2A' 10-52-10-494
b'$GNGGA,155149.40,4005.68303,N,08814.37598,W,1,05,1.88,219.5,M,-33.2,M,,*77' 10-52-10-517
b'$GNVTG,266.57,T,,M,0.590,N,1.093,K,A*24' 10-52-10-542
b'$GNGGA,155149.45,4005.68303,N,08814.37599,W,1,05,1.88,219.5,M,-33.2,M,,*73' 10-52-10-565
b'$GNVTG,268.94,T,,M,0.776,N,1.438,K,A*2A' 10-52-10-593
b'$GNGGA,155149.50,4005.68303,N,08814.37601,W,1,05,1.88,219.5,M,-33.2,M,,*75' 10-52-10-617
b'$GNVTG,268.06,T,,M,0.948,N,1.755,K,A*2A' 10-52-10-643
b'$GNGGA,155149.55,4005.68302,N,08814.37603,W,1,05,1.88,219.5,M,-33.2,M,,*73' 10-52-10-666
b'$GNVTG,266.73,T,,M,1.036,N,1.919,K,A*21' 10-52-10-694
b'$GNGGA,155149.60,4005.68302,N,08814.37605,W,1,05,1.88,219.5,M,-33.2,M,,*73' 10-52-10-716
b'$GNVTG,265.99,T,,M,0.930,N,1.723,K,A*2F' 10-52-10-743
b'$GNGGA,155149.65,4005.68301,N,08814.37606,W,1,05,1.88,219.5,M,-33.2,M,,*76' 10-52-10-766
b'$GNVTG,267.04,T,,M,0.990,N,1.833,K,A*2D' 10-52-10-793
b'$GNGGA,155149.70,4005.68301,N,08814.37607,W,1,05,1.88,219.5,M,-33.2,M,,*73' 10-52-10-816
b'$GNVTG,268.85,T,,M,1.077,N,1.994,K,A*26' 10-52-10-843
b'$GNGGA,155149.75,4005.68301,N,08814.37609,W,1,05,1.88,219.5,M,-33.2,M,,*78' 10-52-10-866
b'$GNVTG,268.85,T,,M,1.209,N,2.239,K,A*22' 10-52-10-894
b'$GNGGA,155149.80,4005.68300,N,08814.37611,W,1,05,1.88,219.5,M,-33.2,M,,*7A' 10-52-10-916
b'$GNVTG,269.72,T,,M,1.221,N,2.261,K,A*2C' 10-52-10-943
b'$GNGGA,155149.85,4005.68300,N,08814.37614,W,1,05,1.88,219.5,M,-33.2,M,,*7A' 10-52-10-966
b'$GNVTG,271.89,T,,M,1.244,N,2.303,K,A*27' 10-52-10-993
b'$GNGGA,155149.90,4005.68301,N,08814.37615,W,1,05,1.88,219.5,M,-33.2,M,,*7E' 10-52-11-017
b'$GNVTG,270.19,T,,M,1.431,N,2.650,K,A*28' 10-52-11-043
b'$GNGGA,155149.95,4005.68301,N,08814.37618,W,1,05,1.88,219.6,M,-33.2,M,,*75' 10-52-11-066
b'$GNVTG,270.55,T,,M,1.518,N,2.811,K,A*21' 10-52-11-097
b'$GNGGA,155150.00,4005.68300,N,08814.37621,W,1,05,1.88,219.6,M,-33.2,M,,*7A' 10-52-11-120
b'$GNVTG,272.00,T,,M,1.433,N,2.654,K,A*24' 10-52-11-143
b'$GNGGA,155150.05,4005.68300,N,08814.37624,W,1,05,1.88,219.5,M,-33.2,M,,*79' 10-52-11-166
b'$GNVTG,272.29,T,,M,1.438,N,2.663,K,A*20' 10-52-11-194
b'$GNGGA,155150.10,4005.68300,N,08814.37626,W,1,05,1.88,219.5,M,-33.2,M,,*7F' 10-52-11-217
b'$GNVTG,270.29,T,,M,1.624,N,3.008,K,A*27' 10-52-11-243
b'$GNGGA,155150.15,4005.68300,N,08814.37630,W,1,05,1.88,219.6,M,-33.2,M,,*7E' 10-52-11-266
b'$GNVTG,270.63,T,,M,1.876,N,3.475,K,A*2E' 10-52-11-293
b'$GNGGA,155150.20,4005.68300,N,08814.37633,W,1,05,1.88,219.6,M,-33.2,M,,*7B' 10-52-11-317
b'$GNVTG,272.04,T,,M,1.892,N,3.503,K,A*27' 10-52-11-343
b'$GNGGA,155150.25,4005.68300,N,08814.37637,W,1,05,1.88,219.6,M,-33.2,M,,*7A' 10-52-11-366
b'$GNVTG,273.58,T,,M,2.042,N,3.782,K,A*22' 10-52-11-394
b'$GNGGA,155150.30,4005.68300,N,08814.37642,W,1,05,1.88,219.6,M,-33.2,M,,*7C' 10-52-11-417
b'$GNVTG,273.28,T,,M,2.066,N,3.827,K,A*23' 10-52-11-442
b'$GNGGA,155150.35,4005.68300,N,08814.37645,W,1,05,1.88,219.6,M,-33.2,M,,*7E' 10-52-11-465
b'$GNVTG,268.89,T,,M,1.967,N,3.642,K,A*24' 10-52-11-493
b'$GNGGA,155150.40,4005.68300,N,08814.37649,W,1,05,1.88,219.6,M,-33.2,M,,*70' 10-52-11-516
b'$GNVTG,267.30,T,,M,2.198,N,4.070,K,A*22' 10-52-11-543
b'$GNGGA,155150.45,4005.68300,N,08814.37653,W,1,05,1.88,219.6,M,-33.2,M,,*7E' 10-52-11-566
b'$GNVTG,269.74,T,,M,2.375,N,4.398,K,A*28' 10-52-11-593
b'$GNGGA,155150.50,4005.68300,N,08814.37658,W,1,05,1.88,219.6,M,-33.2,M,,*71' 10-52-11-616
b'$GNVTG,271.29,T,,M,2.385,N,4.417,K,A*26' 10-52-11-642
b'$GNGGA,155150.55,4005.68300,N,08814.37662,W,1,05,1.88,219.6,M,-33.2,M,,*7D' 10-52-11-665
b'$GNVTG,271.57,T,,M,2.592,N,4.800,K,A*25' 10-52-11-693
b'$GNGGA,155150.60,4005.68300,N,08814.37667,W,1,05,1.88,219.6,M,-33.2,M,,*7E' 10-52-11-716
b'$GNVTG,270.35,T,,M,2.506,N,4.640,K,A*27' 10-52-11-742
b'$GNGGA,155150.65,4005.68300,N,08814.37671,W,1,05,1.88,219.6,M,-33.2,M,,*7C' 10-52-11-765
b'$GNVTG,267.73,T,,M,2.572,N,4.763,K,A*20' 10-52-11-793
b'$GNGGA,155150.70,4005.68300,N,08814.37676,W,1,05,1.88,219.6,M,-33.2,M,,*7F' 10-52-11-816
b'$GNVTG,267.01,T,,M,2.835,N,5.250,K,A*2F' 10-52-11-843
b'$GNGGA,155150.75,4005.68299,N,08814.37681,W,1,05,1.88,219.6,M,-33.2,M,,*73' 10-52-11-867
b'$GNVTG,268.08,T,,M,2.942,N,5.449,K,A*26' 10-52-11-893
b'$GNGGA,155150.80,4005.68299,N,08814.37687,W,1,05,1.88,219.7,M,-33.2,M,,*7E' 10-52-11-916
b'$GNVTG,268.41,T,,M,3.023,N,5.599,K,A*28' 10-52-11-943
b'$GNGGA,155150.85,4005.68299,N,08814.37692,W,1,05,1.88,219.6,M,-33.2,M,,*7E' 10-52-11-965
b'$GNVTG,268.06,T,,M,3.029,N,5.609,K,A*2B' 10-52-11-993
b'$GNGGA,155150.90,4005.68299,N,08814.37698,W,1,05,1.88,219.6,M,-33.2,M,,*70' 10-52-12-016
b'$GNVTG,268.23,T,,M,3.064,N,5.674,K,A*2F' 10-52-12-042
b'$GNGGA,155150.95,4005.68299,N,08814.37703,W,1,05,1.88,219.6,M,-33.2,M,,*76' 10-52-12-065
b'$GNVTG,267.61,T,,M,2.938,N,5.441,K,A*23' 10-52-12-097
b'$GNGGA,155151.00,4005.68299,N,08814.37708,W,1,05,1.88,219.7,M,-33.2,M,,*71' 10-52-12-120
b'$GNVTG,268.62,T,,M,3.117,N,5.773,K,A*29' 10-52-12-143
b'$GNGGA,155151.05,4005.68299,N,08814.37714,W,1,05,1.88,219.6,M,-33.2,M,,*78' 10-52-12-166
b'$GNVTG,270.07,T,,M,3.383,N,6.265,K,A*2D' 10-52-12-194
b'$GNGGA,155151.10,4005.68300,N,08814.37720,W,1,05,1.88,219.6,M,-33.2,M,,*7A' 10-52-12-217
b'$GNVTG,269.90,T,,M,3.256,N,6.029,K,A*28' 10-52-12-242
b'$GNGGA,155151.15,4005.68299,N,08814.37726,W,1,05,1.88,219.6,M,-33.2,M,,*78' 10-52-12-265
b'$GNVTG,269.19,T,,M,3.260,N,6.037,K,A*23' 10-52-12-294
b'$GNGGA,155151.20,4005.68299,N,08814.37732,W,1,05,1.88,219.6,M,-33.2,M,,*7B' 10-52-12-317
b'$GNVTG,268.57,T,,M,3.420,N,6.333,K,A*2D' 10-52-12-342
b'$GNGGA,155151.25,4005.68299,N,08814.37738,W,1,05,1.88,219.6,M,-33.2,M,,*74' 10-52-12-365
b'$GNVTG,268.04,T,,M,3.559,N,6.591,K,A*2A' 10-52-12-393
b'$GNGGA,155151.30,4005.68299,N,08814.37744,W,1,05,1.88,219.6,M,-33.2,M,,*7B' 10-52-12-417
b'$GNVTG,267.92,T,,M,3.741,N,6.928,K,A*2F' 10-52-12-443
b'$GNGGA,155151.35,4005.68298,N,08814.37751,W,1,05,1.88,219.6,M,-33.2,M,,*7B' 10-52-12-466
b'$GNVTG,269.18,T,,M,3.725,N,6.900,K,A*2B' 10-52-12-493
b'$GNGGA,155151.40,4005.68298,N,08814.37757,W,1,05,1.88,219.6,M,-33.2,M,,*7F' 10-52-12-517
b'$GNVTG,269.35,T,,M,3.822,N,7.078,K,A*2B' 10-52-12-543
b'$GNGGA,155151.45,4005.68298,N,08814.37764,W,1,05,1.88,219.6,M,-33.2,M,,*7A' 10-52-12-565
b'$GNVTG,269.26,T,,M,4.021,N,7.446,K,A*2C' 10-52-12-594
b'$GNGGA,155151.50,4005.68298,N,08814.37771,W,1,05,1.88,219.6,M,-33.2,M,,*7A' 10-52-12-616
b'$GNVTG,268.92,T,,M,4.001,N,7.410,K,A*23' 10-52-12-642
b'$GNGGA,155151.55,4005.68298,N,08814.37778,W,1,05,1.88,219.6,M,-33.2,M,,*76' 10-52-12-665
b'$GNVTG,268.52,T,,M,4.171,N,7.725,K,A*2C' 10-52-12-693
b'$GNGGA,155151.60,4005.68298,N,08814.37786,W,1,05,1.88,219.6,M,-33.2,M,,*71' 10-52-12-717
b'$GNVTG,267.92,T,,M,4.256,N,7.881,K,A*28' 10-52-12-743
b'$GNGGA,155151.65,4005.68297,N,08814.37793,W,1,05,1.88,219.6,M,-33.2,M,,*7F' 10-52-12-766
b'$GNVTG,269.39,T,,M,4.292,N,7.949,K,A*2A' 10-52-12-793
b'$GNGGA,155151.70,4005.68298,N,08814.37801,W,1,05,1.88,219.6,M,-33.2,M,,*70' 10-52-12-816
b'$GNVTG,270.27,T,,M,4.186,N,7.753,K,A*2E' 10-52-12-843
b'$GNGGA,155151.75,4005.68298,N,08814.37808,W,1,05,1.88,219.6,M,-33.2,M,,*7C' 10-52-12-865
b'$GNVTG,268.56,T,,M,4.277,N,7.921,K,A*27' 10-52-12-894
b'$GNGGA,155151.80,4005.68297,N,08814.37816,W,1,05,1.88,219.6,M,-33.2,M,,*76' 10-52-12-916
b'$GNVTG,268.62,T,,M,4.598,N,8.515,K,A*22' 10-52-12-943
b'$GNGGA,155151.85,4005.68297,N,08814.37824,W,1,05,1.88,219.6,M,-33.2,M,,*72' 10-52-12-965
b'$GNVTG,269.15,T,,M,4.857,N,8.996,K,A*2A' 10-52-12-993
b'$GNGGA,155151.90,4005.68297,N,08814.37833,W,1,05,1.88,219.6,M,-33.2,M,,*70' 10-52-13-016
b'$GNVTG,270.02,T,,M,4.782,N,8.856,K,A*2E' 10-52-13-043
b'$GNGGA,155151.95,4005.68297,N,08814.37842,W,1,05,1.88,219.6,M,-33.2,M,,*73' 10-52-13-066
b'$GNVTG,269.13,T,,M,4.652,N,8.616,K,A*20' 10-52-13-097
b'$GNGGA,155152.00,4005.68297,N,08814.37850,W,1,05,1.88,219.6,M,-33.2,M,,*7F' 10-52-13-120
b'$GNVTG,269.08,T,,M,4.922,N,9.115,K,A*27' 10-52-13-142
b'$GNGGA,155152.05,4005.68297,N,08814.37859,W,1,05,1.88,219.6,M,-33.2,M,,*73' 10-52-13-165
b'$GNVTG,268.23,T,,M,4.942,N,9.153,K,A*2B' 10-52-13-194
b'$GNGGA,155152.10,4005.68297,N,08814.37868,W,1,05,1.88,219.6,M,-33.2,M,,*75' 10-52-13-217
b'$GNVTG,269.47,T,,M,5.042,N,9.337,K,A*20' 10-52-13-242
b'$GNGGA,155152.15,4005.68297,N,08814.37877,W,1,05,1.88,219.6,M,-33.2,M,,*7E' 10-52-13-265
b'$GNVTG,269.92,T,,M,5.060,N,9.370,K,A*2B' 10-52-13-293
b'$GNGGA,155152.20,4005.68297,N,08814.37885,W,1,05,1.88,219.6,M,-33.2,M,,*75' 10-52-13-316
b'$GNVTG,269.68,T,,M,5.096,N,9.437,K,A*23' 10-52-13-343
b'$GNGGA,155152.25,4005.68297,N,08814.37894,W,1,05,1.88,219.6,M,-33.2,M,,*70' 10-52-13-366
b'$GNVTG,268.84,T,,M,5.178,N,9.589,K,A*25' 10-52-13-393
b'$GNGGA,155152.30,4005.68297,N,08814.37904,W,1,05,1.88,219.5,M,-33.2,M,,*7F' 10-52-13-417
b'$GNVTG,268.70,T,,M,5.335,N,9.880,K,A*21' 10-52-13-442
b'$GNGGA,155152.35,4005.68296,N,08814.37913,W,1,05,1.88,219.6,M,-33.2,M,,*7E' 10-52-13-465
b'$GNVTG,268.51,T,,M,5.398,N,9.996,K,A*23' 10-52-13-493
b'$GNGGA,155152.40,4005.68296,N,08814.37923,W,1,05,1.88,219.5,M,-33.2,M,,*7C' 10-52-13-516
b'$GNVTG,268.30,T,,M,5.405,N,10.010,K,A*18' 10-52-13-542
b'$GNGGA,155152.45,4005.68296,N,08814.37932,W,1,05,1.88,219.5,M,-33.2,M,,*79' 10-52-13-565
b'$GNVTG,268.51,T,,M,5.412,N,10.023,K,A*19' 10-52-13-593
b'$GNGGA,155152.50,4005.68295,N,08814.37941,W,1,05,1.88,219.5,M,-33.2,M,,*7A' 10-52-13-616
b'$GNVTG,269.34,T,,M,5.436,N,10.067,K,A*1D' 10-52-13-643
b'$GNGGA,155152.55,4005.68296,N,08814.37951,W,1,05,1.88,219.5,M,-33.2,M,,*7D' 10-52-13-666
b'$GNVTG,268.63,T,,M,5.632,N,10.431,K,A*1F' 10-52-13-693
b'$GNGGA,155152.60,4005.68295,N,08814.37962,W,1,05,1.88,219.5,M,-33.2,M,,*78' 10-52-13-716
b'$GNVTG,268.99,T,,M,5.670,N,10.500,K,A*1F' 10-52-13-743
b'$GNGGA,155152.65,4005.68295,N,08814.37972,W,1,05,1.88,219.5,M,-33.2,M,,*7C' 10-52-13-767
b'$GNVTG,268.33,T,,M,5.830,N,10.797,K,A*19' 10-52-13-793
b'$GNGGA,155152.70,4005.68295,N,08814.37982,W,1,05,1.88,219.5,M,-33.2,M,,*77' 10-52-13-816
b'$GNVTG,268.70,T,,M,5.692,N,10.541,K,A*11' 10-52-13-843
b'$GNGGA,155152.75,4005.68295,N,08814.37992,W,1,05,1.88,219.5,M,-33.2,M,,*73' 10-52-13-865
b'$GNVTG,269.94,T,,M,5.943,N,11.006,K,A*1E' 10-52-13-893
b'$GNGGA,155152.80,4005.68295,N,08814.38003,W,1,05,1.88,219.5,M,-33.2,M,,*77' 10-52-13-917
b'$GNVTG,269.55,T,,M,5.975,N,11.066,K,A*10' 10-52-13-943
b'$GNGGA,155152.85,4005.68295,N,08814.38014,W,1,05,1.88,219.5,M,-33.2,M,,*74' 10-52-13-965
b'$GNVTG,267.79,T,,M,6.030,N,11.167,K,A*1B' 10-52-13-993
b'$GNGGA,155152.90,4005.68294,N,08814.38025,W,1,05,1.88,219.5,M,-33.2,M,,*73' 10-52-14-017
b'$GNVTG,268.17,T,,M,6.133,N,11.358,K,A*10' 10-52-14-042
b'$GNGGA,155152.95,4005.68294,N,08814.38036,W,1,05,1.88,219.5,M,-33.2,M,,*74' 10-52-14-065
b'$GNVTG,269.03,T,,M,6.372,N,11.801,K,A*14' 10-52-14-097
b'$GNGGA,155153.00,4005.68294,N,08814.38048,W,1,05,1.89,219.5,M,-33.2,M,,*71' 10-52-14-121
b'$GNVTG,268.89,T,,M,6.467,N,11.977,K,A*14' 10-52-14-143
b'$GNGGA,155153.05,4005.68294,N,08814.38059,W,1,05,1.89,219.5,M,-33.2,M,,*74' 10-52-14-165
b'$GNVTG,269.23,T,,M,6.427,N,11.903,K,A*12' 10-52-14-194
b'$GNGGA,155153.10,4005.68294,N,08814.38071,W,1,05,1.89,219.5,M,-33.2,M,,*7A' 10-52-14-217
b'$GNVTG,269.11,T,,M,6.509,N,12.054,K,A*16' 10-52-14-243
b'$GNGGA,155153.15,4005.68294,N,08814.38082,W,1,05,1.89,219.5,M,-33.2,M,,*73' 10-52-14-266
b'$GNVTG,268.80,T,,M,6.698,N,12.404,K,A*15' 10-52-14-294
b'$GNGGA,155153.20,4005.68294,N,08814.38095,W,1,05,1.89,219.5,M,-33.2,M,,*73' 10-52-14-318
b'$GNVTG,269.21,T,,M,6.665,N,12.344,K,A*1E' 10-52-14-343
b'$GNGGA,155153.25,4005.68294,N,08814.38107,W,1,05,1.89,219.5,M,-33.2,M,,*7C' 10-52-14-366
b'$GNVTG,269.99,T,,M,6.734,N,12.471,K,A*19' 10-52-14-394
b'$GNGGA,155153.30,4005.68294,N,08814.38119,W,1,05,1.89,219.5,M,-33.2,M,,*77' 10-52-14-417
b'$GNVTG,269.76,T,,M,6.987,N,12.940,K,A*11' 10-52-14-442
b'$GNGGA,155153.35,4005.68294,N,08814.38132,W,1,05,1.89,219.5,M,-33.2,M,,*7B' 10-52-14-465
b'$GNVTG,268.89,T,,M,7.092,N,13.135,K,A*17' 10-52-14-494
b'$GNGGA,155153.40,4005.68294,N,08814.38144,W,1,05,1.89,219.5,M,-33.2,M,,*78' 10-52-14-516
b'$GNVTG,268.67,T,,M,7.154,N,13.248,K,A*15' 10-52-14-543
b'$GNGGA,155153.45,4005.68294,N,08814.38157,W,1,05,1.89,219.5,M,-33.2,M,,*7F' 10-52-14-566
b'$GNVTG,268.72,T,,M,7.242,N,13.413,K,A*1D' 10-52-14-593
b'$GNGGA,155153.50,4005.68293,N,08814.38170,W,1,05,1.89,219.5,M,-33.2,M,,*79' 10-52-14-616
b'$GNVTG,268.36,T,,M,7.251,N,13.429,K,A*16' 10-52-14-643
b'$GNGGA,155153.55,4005.68293,N,08814.38183,W,1,05,1.89,219.5,M,-33.2,M,,*70' 10-52-14-666
b'$GNVTG,268.68,T,,M,7.409,N,13.722,K,A*1E' 10-52-14-693
b'$GNGGA,155153.60,4005.68293,N,08814.38196,W,1,05,1.89,219.5,M,-33.2,M,,*72' 10-52-14-716
b'$GNVTG,269.50,T,,M,7.459,N,13.815,K,A*1A' 10-52-14-743
b'$GNGGA,155153.65,4005.68293,N,08814.38209,W,1,05,1.89,219.5,M,-33.2,M,,*72' 10-52-14-766
b'$GNVTG,269.88,T,,M,7.521,N,13.929,K,A*1F' 10-52-14-793
b'$GNGGA,155153.70,4005.68293,N,08814.38223,W,1,05,1.89,219.5,M,-33.2,M,,*7E' 10-52-14-816
b'$GNVTG,269.78,T,,M,7.524,N,13.935,K,A*18' 10-52-14-843
b'$GNGGA,155153.75,4005.68293,N,08814.38236,W,1,05,1.89,219.5,M,-33.2,M,,*7F' 10-52-14-866
b'$GNVTG,268.39,T,,M,7.551,N,13.985,K,A*15' 10-52-14-893
b'$GNGGA,155153.80,4005.68292,N,08814.38249,W,1,05,1.89,219.5,M,-33.2,M,,*7C' 10-52-14-917
b'$GNVTG,268.29,T,,M,7.807,N,14.459,K,A*11' 10-52-14-943
b'$GNGGA,155153.85,4005.68292,N,08814.38264,W,1,05,1.89,219.5,M,-33.2,M,,*76' 10-52-14-966
b'$GNVTG,268.89,T,,M,7.887,N,14.607,K,A*1A' 10-52-14-994
b'$GNGGA,155153.90,4005.68292,N,08814.38278,W,1,05,1.89,219.5,M,-33.2,M,,*7F' 10-52-15-016
b'$GNVTG,269.84,T,,M,7.816,N,14.475,K,A*19' 10-52-15-042
b'$GNGGA,155153.95,4005.68292,N,08814.38292,W,1,05,1.89,219.5,M,-33.2,M,,*7E' 10-52-15-065
b'$GNVTG,270.07,T,,M,7.735,N,14.324,K,A*17' 10-52-15-097
b'$GNGGA,155154.00,4005.68292,N,08814.38305,W,1,05,1.89,219.4,M,-33.2,M,,*7B' 10-52-15-120
b'$GNVTG,269.47,T,,M,7.944,N,14.712,K,A*12' 10-52-15-143
b'$GNGGA,155154.05,4005.68291,N,08814.38319,W,1,05,1.89,219.4,M,-33.2,M,,*70' 10-52-15-166
b'$GNVTG,269.04,T,,M,8.172,N,15.134,K,A*14' 10-52-15-194
b'$GNGGA,155154.10,4005.68291,N,08814.38334,W,1,05,1.89,219.4,M,-33.2,M,,*7B' 10-52-15-217
b'$GNVTG,268.61,T,,M,8.137,N,15.070,K,A*16' 10-52-15-243
b'$GNGGA,155154.15,4005.68290,N,08814.38348,W,1,05,1.89,219.4,M,-33.2,M,,*74' 10-52-15-266
b'$GNVTG,269.09,T,,M,8.248,N,15.275,K,A*15' 10-52-15-294
b'$GNGGA,155154.20,4005.68290,N,08814.38363,W,1,05,1.89,219.4,M,-33.2,M,,*7B' 10-52-15-317
b'$GNVTG,269.79,T,,M,8.267,N,15.311,K,A*1C' 10-52-15-343
b'$GNGGA,155154.25,4005.68290,N,08814.38378,W,1,05,1.89,219.4,M,-33.2,M,,*74' 10-52-15-367
b'$GNVTG,269.84,T,,M,8.240,N,15.260,K,A*1C' 10-52-15-394
b'$GNGGA,155154.30,4005.68290,N,08814.38392,W,1,05,1.89,219.4,M,-33.2,M,,*74' 10-52-15-417
b'$GNVTG,269.24,T,,M,8.357,N,15.477,K,A*11' 10-52-15-443
b'$GNGGA,155154.35,4005.68290,N,08814.38407,W,1,05,1.89,219.4,M,-33.2,M,,*7A' 10-52-15-467
b'$GNVTG,268.77,T,,M,8.565,N,15.863,K,A*18' 10-52-15-493
b'$GNGGA,155154.40,4005.68289,N,08814.38422,W,1,05,1.89,219.4,M,-33.2,M,,*77' 10-52-15-516
b'$GNVTG,268.52,T,,M,8.634,N,15.990,K,A*15' 10-52-15-543
b'$GNGGA,155154.45,4005.68289,N,08814.38438,W,1,05,1.89,219.4,M,-33.2,M,,*79' 10-52-15-566
b'$GNVTG,268.96,T,,M,8.706,N,16.123,K,A*1E' 10-52-15-594
b'$GNGGA,155154.50,4005.68289,N,08814.38453,W,1,05,1.89,219.4,M,-33.2,M,,*70' 10-52-15-618
b'$GNVTG,269.87,T,,M,8.542,N,15.820,K,A*14' 10-52-15-643
b'$GNGGA,155154.55,4005.68289,N,08814.38469,W,1,05,1.89,219.4,M,-33.2,M,,*7C' 10-52-15-665
b'$GNVTG,270.38,T,,M,8.731,N,16.170,K,A*11' 10-52-15-693
b'$GNGGA,155154.60,4005.68289,N,08814.38484,W,1,05,1.89,219.4,M,-33.2,M,,*79' 10-52-15-716
b'$GNVTG,269.35,T,,M,8.913,N,16.507,K,A*1E' 10-52-15-743
b'$GNGGA,155154.65,4005.68289,N,08814.38500,W,1,05,1.89,219.4,M,-33.2,M,,*71' 10-52-15-766
b'$GNVTG,269.44,T,,M,9.016,N,16.698,K,A*10' 10-52-15-793
b'$GNGGA,155154.70,4005.68289,N,08814.38516,W,1,05,1.89,219.4,M,-33.2,M,,*72' 10-52-15-817
b'$GNVTG,270.04,T,,M,8.778,N,16.256,K,A*14' 10-52-15-843
b'$GNGGA,155154.75,4005.68289,N,08814.38532,W,1,05,1.89,219.4,M,-33.2,M,,*71' 10-52-15-865
b'$GNVTG,269.36,T,,M,8.824,N,16.343,K,A*1E' 10-52-15-894
b'$GNGGA,155154.80,4005.68288,N,08814.38548,W,1,05,1.89,219.4,M,-33.2,M,,*77' 10-52-15-917
b'$GNVTG,269.17,T,,M,9.174,N,16.990,K,A*14' 10-52-15-942
b'$GNGGA,155154.85,4005.68288,N,08814.38565,W,1,05,1.89,219.4,M,-33.2,M,,*7D' 10-52-15-965
b'$GNVTG,269.73,T,,M,9.184,N,17.009,K,A*11' 10-52-15-993
b'$GNGGA,155154.90,4005.68289,N,08814.38581,W,1,05,1.89,219.4,M,-33.2,M,,*72' 10-52-16-016
b'$GNVTG,269.92,T,,M,9.287,N,17.200,K,A*15' 10-52-16-043
b'$GNGGA,155154.95,4005.68289,N,08814.38598,W,1,05,1.89,219.4,M,-33.2,M,,*7F' 10-52-16-066
b'$GNVTG,269.69,T,,M,9.201,N,17.041,K,A*18' 10-52-16-097
b'$GNGGA,155155.00,4005.68288,N,08814.38614,W,1,05,1.89,219.4,M,-33.2,M,,*74' 10-52-16-119
b'$GNVTG,269.42,T,,M,9.312,N,17.246,K,A*17' 10-52-16-143
b'$GNGGA,155155.05,4005.68288,N,08814.38631,W,1,05,1.89,219.4,M,-33.2,M,,*76' 10-52-16-166
b'$GNVTG,269.59,T,,M,9.361,N,17.336,K,A*1F' 10-52-16-194
b'$GNGGA,155155.10,4005.68288,N,08814.38647,W,1,05,1.89,219.4,M,-33.2,M,,*73' 10-52-16-217
b'$GNVTG,269.51,T,,M,9.351,N,17.318,K,A*18' 10-52-16-243
b'$GNGGA,155155.15,4005.68288,N,08814.38664,W,1,05,1.89,219.4,M,-33.2,M,,*77' 10-52-16-266
b'$GNVTG,269.32,T,,M,9.383,N,17.378,K,A*14' 10-52-16-294
b'$GNGGA,155155.20,4005.68288,N,08814.38681,W,1,05,1.89,219.4,M,-33.2,M,,*7A' 10-52-16-317
b'$GNVTG,269.30,T,,M,9.250,N,17.130,K,A*17' 10-52-16-343
b'$GNGGA,155155.25,4005.68287,N,08814.38697,W,1,05,1.89,219.3,M,-33.2,M,,*70' 10-52-16-366
b'$GNVTG,269.57,T,,M,9.484,N,17.564,K,A*1C' 10-52-16-394
b'$GNGGA,155155.30,4005.68287,N,08814.38715,W,1,05,1.89,219.3,M,-33.2,M,,*7F' 10-52-16-417
b'$GNVTG,269.49,T,,M,9.542,N,17.672,K,A*1C' 10-52-16-443
b'$GNGGA,155155.35,4005.68287,N,08814.38732,W,1,05,1.89,219.3,M,-33.2,M,,*7F' 10-52-16-465
b'$GNVTG,269.66,T,,M,9.372,N,17.358,K,A*19' 10-52-16-494
b'$GNGGA,155155.40,4005.68287,N,08814.38748,W,1,05,1.89,219.3,M,-33.2,M,,*70' 10-52-16-516
b'$GNVTG,269.92,T,,M,9.393,N,17.395,K,A*1C' 10-52-16-543
b'$GNGGA,155155.45,4005.68287,N,08814.38765,W,1,05,1.89,219.3,M,-33.2,M,,*7A' 10-52-16-565
b'$GNVTG,269.31,T,,M,9.484,N,17.565,K,A*1D' 10-52-16-594
b'$GNGGA,155155.50,4005.68287,N,08814.38782,W,1,05,1.89,219.3,M,-33.2,M,,*77' 10-52-16-616
b'$GNVTG,269.71,T,,M,9.398,N,17.405,K,A*14' 10-52-16-643
b'$GNGGA,155155.55,4005.68287,N,08814.38798,W,1,05,1.89,219.3,M,-33.2,M,,*79' 10-52-16-665
b'$GNVTG,269.71,T,,M,9.263,N,17.155,K,A*11' 10-52-16-693
b'$GNGGA,155155.60,4005.68287,N,08814.38814,W,1,05,1.89,219.4,M,-33.2,M,,*73' 10-52-16-716
b'$GNVTG,269.67,T,,M,9.381,N,17.374,K,A*1A' 10-52-16-743
b'$GNGGA,155155.65,4005.68287,N,08814.38832,W,1,05,1.89,219.3,M,-33.2,M,,*75' 10-52-16-765
b'$GNVTG,270.02,T,,M,9.372,N,17.357,K,A*1C' 10-52-16-793
b'$GNGGA,155155.70,4005.68287,N,08814.38848,W,1,05,1.89,219.3,M,-33.2,M,,*7C' 10-52-16-817
b'$GNVTG,269.70,T,,M,9.319,N,17.259,K,A*13' 10-52-16-842
b'$GNGGA,155155.75,4005.68287,N,08814.38865,W,1,05,1.89,219.3,M,-33.2,M,,*76' 10-52-16-864
b'$GNVTG,269.12,T,,M,9.166,N,16.975,K,A*19' 10-52-16-893
b'$GNGGA,155155.80,4005.68287,N,08814.38881,W,1,05,1.89,219.3,M,-33.2,M,,*76' 10-52-16-917
b'$GNVTG,269.65,T,,M,9.230,N,17.093,K,A*19' 10-52-16-943
b'$GNGGA,155155.85,4005.68287,N,08814.38897,W,1,05,1.89,219.3,M,-33.2,M,,*74' 10-52-16-966
b'$GNVTG,270.04,T,,M,9.172,N,16.986,K,A*1F' 10-52-16-993
b'$GNGGA,155155.90,4005.68287,N,08814.38913,W,1,05,1.89,219.3,M,-33.2,M,,*7D' 10-52-17-016
b'$GNVTG,269.53,T,,M,9.065,N,16.788,K,A*12' 10-52-17-043
b'$GNGGA,155155.95,4005.68286,N,08814.38929,W,1,05,1.89,219.3,M,-33.2,M,,*70' 10-52-17-065
b'$GNVTG,269.20,T,,M,8.964,N,16.601,K,A*1F' 10-52-17-097
b'$GNGGA,155156.00,4005.68286,N,08814.38945,W,1,05,1.89,219.3,M,-33.2,M,,*75' 10-52-17-120
b'$GNVTG,269.27,T,,M,9.015,N,16.696,K,A*18' 10-52-17-143
b'$GNGGA,155156.05,4005.68286,N,08814.38962,W,1,05,1.89,219.3,M,-33.2,M,,*75' 10-52-17-166
b'$GNVTG,269.20,T,,M,8.915,N,16.511,K,A*1B' 10-52-17-194
b'$GNGGA,155156.10,4005.68286,N,08814.38977,W,1,05,1.89,219.3,M,-33.2,M,,*75' 10-52-17-218
b'$GNVTG,269.19,T,,M,9.022,N,16.709,K,A*16' 10-52-17-243
b'$GNGGA,155156.15,4005.68286,N,08814.38993,W,1,05,1.89,219.3,M,-33.2,M,,*7A' 10-52-17-266
b'$GNVTG,269.26,T,,M,8.898,N,16.479,K,A*16' 10-52-17-293
b'$GNGGA,155156.20,4005.68286,N,08814.39009,W,1,05,1.89,219.3,M,-33.2,M,,*77' 10-52-17-316
b'$GNVTG,269.37,T,,M,8.739,N,16.185,K,A*14' 10-52-17-343
b'$GNGGA,155156.25,4005.68286,N,08814.39024,W,1,05,1.89,219.3,M,-33.2,M,,*7D' 10-52-17-366
b'$GNVTG,269.64,T,,M,8.881,N,16.447,K,A*15' 10-52-17-394
b'$GNGGA,155156.30,4005.68285,N,08814.39040,W,1,05,1.89,219.3,M,-33.2,M,,*78' 10-52-17-417
b'$GNVTG,269.78,T,,M,8.933,N,16.544,K,A*12' 10-52-17-443
b'$GNGGA,155156.35,4005.68286,N,08814.39056,W,1,05,1.89,219.3,M,-33.2,M,,*79' 10-52-17-466
b'$GNVTG,269.20,T,,M,8.762,N,16.227,K,A*17' 10-52-17-494
b'$GNGGA,155156.40,4005.68285,N,08814.39072,W,1,05,1.89,219.3,M,-33.2,M,,*7E' 10-52-17-516
b'$GNVTG,268.83,T,,M,8.638,N,15.998,K,A*1D' 10-52-17-543
b'$GNGGA,155156.45,4005.68284,N,08814.39087,W,1,05,1.89,219.3,M,-33.2,M,,*70' 10-52-17-566
b'$GNVTG,269.42,T,,M,8.664,N,16.046,K,A*11' 10-52-17-594
b'$GNGGA,155156.50,4005.68284,N,08814.39103,W,1,05,1.89,219.3,M,-33.2,M,,*79' 10-52-17-616
b'$GNVTG,269.28,T,,M,8.726,N,16.161,K,A*1E' 10-52-17-643
b'$GNGGA,155156.55,4005.68284,N,08814.39117,W,1,05,1.89,219.3,M,-33.2,M,,*79' 10-52-17-665
b'$GNVTG,269.06,T,,M,8.643,N,16.007,K,A*11' 10-52-17-693
b'$GNGGA,155156.60,4005.68284,N,08814.39133,W,1,05,1.89,219.3,M,-33.2,M,,*79' 10-52-17-716
b'$GNVTG,269.36,T,,M,8.426,N,15.606,K,A*17' 10-52-17-742
b'$GNGGA,155156.65,4005.68284,N,08814.39147,W,1,05,1.89,219.3,M,-33.2,M,,*7F' 10-52-17-765
b'$GNVTG,269.45,T,,M,8.219,N,15.222,K,A*1B' 10-52-17-793
b'$GNGGA,155156.70,4005.68284,N,08814.39162,W,1,05,1.89,219.2,M,-33.2,M,,*7D' 10-52-17-816
b'$GNVTG,270.19,T,,M,8.374,N,15.509,K,A*1E' 10-52-17-843
b'$GNGGA,155156.75,4005.68284,N,08814.39177,W,1,05,1.89,219.2,M,-33.2,M,,*7C' 10-52-17-866
b'$GNGGA,155156.80,4005.68283,N,08814.39191,W,1,05,1.89,219.2,M,-33.2,M,,*79' 10-52-17-895
b'$GNVTG,268.79,T,,M,8.297,N,15.365,K,A*11' 10-52-17-943
b'$GNGGA,155156.85,4005.68283,N,08814.39205,W,1,05,1.89,219.2,M,-33.2,M,,*72' 10-52-17-965
b'$GNVTG,268.94,T,,M,8.059,N,14.925,K,A*1D' 10-52-17-993
b'$GNGGA,155156.90,4005.68283,N,08814.39219,W,1,05,1.89,219.2,M,-33.2,M,,*7B' 10-52-18-016
b'$GNVTG,269.40,T,,M,8.107,N,15.014,K,A*15' 10-52-18-042
b'$GNGGA,155156.95,4005.68283,N,08814.39234,W,1,05,1.89,219.2,M,-33.2,M,,*71' 10-52-18-065
b'$GNVTG,269.65,T,,M,7.979,N,14.778,K,A*10' 10-52-18-097
b'$GNGGA,155157.00,4005.68283,N,08814.39248,W,1,05,1.89,219.2,M,-33.2,M,,*77' 10-52-18-120
b'$GNVTG,269.39,T,,M,7.962,N,14.746,K,A*1E' 10-52-18-143
b'$GNGGA,155157.05,4005.68283,N,08814.39262,W,1,05,1.89,219.2,M,-33.2,M,,*7A' 10-52-18-166
b'$GNVTG,268.72,T,,M,7.856,N,14.549,K,A*1B' 10-52-18-194
b'$GNGGA,155157.10,4005.68282,N,08814.39276,W,1,05,1.89,219.2,M,-33.2,M,,*7A' 10-52-18-217
b'$GNVTG,268.98,T,,M,7.912,N,14.652,K,A*17' 10-52-18-243
b'$GNGGA,155157.15,4005.68282,N,08814.39290,W,1,05,1.89,219.2,M,-33.2,M,,*77' 10-52-18-266
b'$GNVTG,269.22,T,,M,7.940,N,14.704,K,A*12' 10-52-18-294
b'$GNGGA,155157.20,4005.68282,N,08814.39304,W,1,05,1.89,219.2,M,-33.2,M,,*7D' 10-52-18-317
b'$GNVTG,269.38,T,,M,7.855,N,14.547,K,A*19' 10-52-18-343
b'$GNGGA,155157.25,4005.68282,N,08814.39318,W,1,05,1.89,219.2,M,-33.2,M,,*75' 10-52-18-365
b'$GNVTG,269.43,T,,M,7.685,N,14.233,K,A*12' 10-52-18-394
b'$GNGGA,155157.30,4005.68282,N,08814.39331,W,1,05,1.89,219.2,M,-33.2,M,,*7A' 10-52-18-417
b'$GNVTG,268.95,T,,M,7.753,N,14.358,K,A*1E' 10-52-18-443
b'$GNGGA,155157.35,4005.68281,N,08814.39345,W,1,05,1.89,219.2,M,-33.2,M,,*7F' 10-52-18-466
b'$GNVTG,269.27,T,,M,7.549,N,13.980,K,A*17' 10-52-18-494
b'$GNGGA,155157.40,4005.68281,N,08814.39358,W,1,05,1.89,219.2,M,-33.2,M,,*71' 10-52-18-517
b'$GNVTG,269.00,T,,M,7.333,N,13.580,K,A*15' 10-52-18-543
b'$GNGGA,155157.45,4005.68281,N,08814.39370,W,1,05,1.89,219.2,M,-33.2,M,,*7E' 10-52-18-565
b'$GNVTG,268.73,T,,M,7.278,N,13.479,K,A*19' 10-52-18-594
b'$GNGGA,155157.50,4005.68281,N,08814.39383,W,1,05,1.89,219.2,M,-33.2,M,,*76' 10-52-18-617
b'$GNVTG,268.92,T,,M,7.328,N,13.572,K,A*18' 10-52-18-642
b'$GNGGA,155157.55,4005.68281,N,08814.39396,W,1,05,1.89,219.2,M,-33.2,M,,*77' 10-52-18-665
b'$GNGGA,155157.60,4005.68280,N,08814.39409,W,1,05,1.89,219.1,M,-33.2,M,,*72' 10-52-18-695
b'$GNVTG,268.62,T,,M,7.009,N,12.981,K,A*16' 10-52-18-743
b'$GNGGA,155157.65,4005.68280,N,08814.39421,W,1,05,1.89,219.1,M,-33.2,M,,*7D' 10-52-18-767
b'$GNVTG,269.45,T,,M,6.944,N,12.860,K,A*1D' 10-52-18-793
b'$GNGGA,155157.70,4005.68280,N,08814.39433,W,1,05,1.89,219.1,M,-33.2,M,,*7A' 10-52-18-816
b'$GNVTG,269.50,T,,M,6.696,N,12.402,K,A*11' 10-52-18-843
b'$GNGGA,155157.75,4005.68280,N,08814.39444,W,1,05,1.89,219.1,M,-33.2,M,,*7F' 10-52-18-865
b'$GNVTG,268.64,T,,M,6.565,N,12.159,K,A*13' 10-52-18-893
b'$GNGGA,155157.80,4005.68279,N,08814.39455,W,1,05,1.89,219.1,M,-33.2,M,,*73' 10-52-18-916
b'$GNVTG,268.74,T,,M,6.792,N,12.579,K,A*1E' 10-52-18-943
b'$GNGGA,155157.85,4005.68279,N,08814.39468,W,1,05,1.89,219.1,M,-33.2,M,,*78' 10-52-18-967
b'$GNVTG,269.24,T,,M,6.693,N,12.396,K,A*1D' 10-52-18-993
b'$GNGGA,155157.90,4005.68279,N,08814.39479,W,1,05,1.89,219.1,M,-33.2,M,,*7C' 10-52-19-016
b'$GNVTG,269.59,T,,M,6.590,N,12.205,K,A*1C' 10-52-19-043
b'$GNGGA,155157.95,4005.68279,N,08814.39490,W,1,05,1.89,219.1,M,-33.2,M,,*7E' 10-52-19-066
b'$GNVTG,269.14,T,,M,6.410,N,11.872,K,A*15' 10-52-19-097
b'$GNGGA,155158.00,4005.68279,N,08814.39501,W,1,05,1.89,219.1,M,-33.2,M,,*74' 10-52-19-119
b'$GNVTG,268.79,T,,M,6.577,N,12.180,K,A*18' 10-52-19-143
b'$GNGGA,155158.05,4005.68278,N,08814.39513,W,1,05,1.89,219.1,M,-33.2,M,,*73' 10-52-19-167
b'$GNVTG,269.46,T,,M,6.440,N,11.926,K,A*17' 10-52-19-194
b'$GNGGA,155158.10,4005.68278,N,08814.39524,W,1,05,1.89,219.1,M,-33.2,M,,*73' 10-52-19-217
b'$GNVTG,269.25,T,,M,6.405,N,11.862,K,A*12' 10-52-19-243
b'$GNGGA,155158.15,4005.68278,N,08814.39536,W,1,05,1.89,219.1,M,-33.2,M,,*75' 10-52-19-267
b'$GNVTG,269.09,T,,M,6.382,N,11.820,K,A*12' 10-52-19-294
b'$GNGGA,155158.20,4005.68278,N,08814.39547,W,1,05,1.89,219.1,M,-33.2,M,,*75' 10-52-19-317
b'$GNVTG,268.68,T,,M,6.290,N,11.648,K,A*16' 10-52-19-343
b'$GNGGA,155158.25,4005.68277,N,08814.39558,W,1,05,1.89,219.1,M,-33.2,M,,*71' 10-52-19-366
b'$GNVTG,269.34,T,,M,6.332,N,11.727,K,A*1F' 10-52-19-394
b'$GNGGA,155158.30,4005.68278,N,08814.39569,W,1,05,1.89,219.1,M,-33.2,M,,*78' 10-52-19-417
b'$GNVTG,269.34,T,,M,6.226,N,11.531,K,A*1E' 10-52-19-443
b'$GNGGA,155158.35,4005.68277,N,08814.39580,W,1,05,1.89,219.1,M,-33.2,M,,*75' 10-52-19-467
b'$GNVTG,269.10,T,,M,6.057,N,11.217,K,A*1F' 10-52-19-494
b'$GNGGA,155158.40,4005.68277,N,08814.39590,W,1,05,1.89,219.1,M,-33.2,M,,*76' 10-52-19-517
b'$GNVTG,269.50,T,,M,5.869,N,10.869,K,A*1F' 10-52-19-542
b'$GNGGA,155158.45,4005.68277,N,08814.39600,W,1,05,1.89,219.1,M,-33.2,M,,*79' 10-52-19-565
b'$GNVTG,269.37,T,,M,5.999,N,11.110,K,A*16' 10-52-19-594
b'$GNGGA,155158.50,4005.68277,N,08814.39611,W,1,05,1.89,219.1,M,-33.2,M,,*7D' 10-52-19-617
b'$GNVTG,269.42,T,,M,6.068,N,11.238,K,A*19' 10-52-19-643
b'$GNGGA,155158.55,4005.68277,N,08814.39621,W,1,05,1.89,219.1,M,-33.2,M,,*7B' 10-52-19-667
b'$GNVTG,270.34,T,,M,6.008,N,11.126,K,A*1A' 10-52-19-693
b'$GNGGA,155158.60,4005.68277,N,08814.39632,W,1,05,1.89,219.0,M,-33.2,M,,*7E' 10-52-19-716
b'$GNVTG,270.47,T,,M,5.947,N,11.013,K,A*18' 10-52-19-743
b'$GNGGA,155158.65,4005.68277,N,08814.39643,W,1,05,1.89,219.0,M,-33.2,M,,*7D' 10-52-19-765
b'$GNVTG,270.97,T,,M,5.695,N,10.548,K,A*1F' 10-52-19-793
